[{"type":"Feature","properties":[{"gid":"46"},{"co_cnes":"2412802"},{"lat":"-13.2777392864223"},{"long":"-41.3851547241199"},{"no_fantasia":"US DA FAMILIA DE IRACEMA COSTA E SILVA"},{"no_logradouro":"TRAVESSA ITAMAR MAGALHAES"},{"nu_endereco":"25"},{"no_bairro":"CENTRO"},{"nu_telefone":"77 34135203"},{"co_cep":"46760000"},{"uf":"BA"},{"cidade":"Ibicoara"},{"ano_ubs_det":"2016"},{"mes_ubs_det":"5"}],"geometry":{"type":"Point","coordinates":[-41.38515472412,-13.277739286422]}},{"type":"Feature","properties":[{"gid":"112"},{"co_cnes":"3519929"},{"lat":"-15.0372341089128"},{"long":"-41.9357339067348"},{"no_fantasia":"USF DO POVOADO DE ALVORADA"},{"no_logradouro":"PRACA CORONEL JOSE MOREIRA CORDEIRO"},{"nu_endereco":"104"},{"no_bairro":"CENTRO"},{"nu_telefone":"7734472114"},{"co_cep":"46280000"},{"uf":"BA"},{"cidade":"Cordeiros"},{"ano_ubs_det":"2016"},{"mes_ubs_det":"5"}],"geometry":{"type":"Point","coordinates":[-41.935733906735,-15.037234108913]}},{"type":"Feature","properties":[{"gid":"121"},{"co_cnes":"6741096"},{"lat":"-13.4016788005825"},{"long":"-38.9159989356983"},{"no_fantasia":"USF DO ZIMBO BRAZ BORGES DE OLIVEIRA"},{"no_logradouro":"ZIMBO"},{"nu_endereco":"S/N"},{"no_bairro":"MORRO DE SAO PAULO"},{"nu_telefone":"(75) 3653-2027"},{"co_cep":"45420000"},{"uf":"BA"},{"cidade":"Cairu"},{"ano_ubs_det":"2016"},{"mes_ubs_det":"5"}],"geometry":{"type":"Point","coordinates":[-38.915998935698,-13.401678800583]}},{"type":"Feature","properties":[{"gid":"39"},{"co_cnes":"2620448"},{"lat":"-11.5177899236101"},{"long":"-38.1517158173066"},{"no_fantasia":"USF JOSE ALVES DE SOUZA NETO"},{"no_logradouro":"POV PINTO"},{"nu_endereco":"S/N"},{"no_bairro":"ZONA RURAL"},{"nu_telefone":"75 34432182 RAMAL 30"},{"co_cep":"48480000"},{"uf":"BA"},{"cidade":"Crisópolis"},{"ano_ubs_det":"2016"},{"mes_ubs_det":"5"}],"geometry":{"type":"Point","coordinates":[-38.151715817307,-11.51778992361]}},{"type":"Feature","properties":[{"gid":"85"},{"co_cnes":"3862992"},{"lat":"-13.2909572124477"},{"long":"-41.4039516448963"},{"no_fantasia":"US DA FAMILIA DE RENASCER"},{"no_logradouro":"RENASCER"},{"nu_endereco":"25"},{"no_bairro":"DISTRITO CASCAVEL"},{"nu_telefone":"77 34135203"},{"co_cep":"46760000"},{"uf":"BA"},{"cidade":"Ibicoara"},{"ano_ubs_det":"2016"},{"mes_ubs_det":"5"}],"geometry":{"type":"Point","coordinates":[-41.403951644896,-13.290957212448]}},{"type":"Feature","properties":[{"gid":"139"},{"co_cnes":"2445255"},{"lat":"-13.8074071461679"},{"long":"-41.3109815271264"},{"no_fantasia":"USF DA GRUTA DA MANGABEIRA"},{"no_logradouro":"POVOADO GRUTA DA MANGABEIRA"},{"nu_endereco":"S/N"},{"no_bairro":"GRUTA DA MANGABEIRA"},{"nu_telefone":"(77)4152097"},{"co_cep":"46640000"},{"uf":"BA"},{"cidade":"Ituaçu"},{"ano_ubs_det":"2016"},{"mes_ubs_det":"5"}],"geometry":{"type":"Point","coordinates":[-41.310981527126,-13.807407146168]}},{"type":"Feature","properties":[{"gid":"98"},{"co_cnes":"2627361"},{"lat":"-12.3841941830639"},{"long":"-38.1311997858851"},{"no_fantasia":"PACS DE PEDRA DO SALGADO"},{"no_logradouro":"POVOADO DE PEDRA DO SALGADO"},{"nu_endereco":"S/N"},{"no_bairro":"PEDRA DO SALGADO"},{"nu_telefone":"(71)6351628"},{"co_cep":"48280000"},{"uf":"BA"},{"cidade":"Mata de São João"},{"ano_ubs_det":"2016"},{"mes_ubs_det":"5"}],"geometry":{"type":"Point","coordinates":[-38.131199785885,-12.384194183064]}},{"type":"Feature","properties":[{"gid":"206"},{"co_cnes":"7187505"},{"lat":"-12.1003925002558"},{"long":"-45.7995068359375"},{"no_fantasia":"USF NAIR IDITE POGANSKI"},{"no_logradouro":"RUA GRACILIANO RAMOS"},{"nu_endereco":"S/N"},{"no_bairro":"AROLDO CRUZ"},{"nu_telefone":""},{"co_cep":"47850000"},{"uf":"BA"},{"cidade":"Luís Eduardo Magalhães"},{"ano_ubs_det":"2016"},{"mes_ubs_det":"5"}],"geometry":{"type":"Point","coordinates":[-45.799506835938,-12.100392500256]}},{"type":"Feature","properties":[{"gid":"311"},{"co_cnes":"2510529"},{"lat":"-16.4321130352834"},{"long":"-39.090975522995"},{"no_fantasia":"USF MIRANTE"},{"no_logradouro":"RUA JUERANA"},{"nu_endereco":"S/N"},{"no_bairro":"FONTANA"},{"nu_telefone":"(73) 3268 4785"},{"co_cep":"45810000"},{"uf":"BA"},{"cidade":"Porto Seguro"},{"ano_ubs_det":"2016"},{"mes_ubs_det":"5"}],"geometry":{"type":"Point","coordinates":[-39.090975522995,-16.432113035283]}},{"type":"Feature","properties":[{"gid":"124"},{"co_cnes":"3433374"},{"lat":"-13.5394370555874"},{"long":"-40.1497721672046"},{"no_fantasia":"UNIDADE DE SAUDE DA FAMILIA RUBENS COSTA AMARAL"},{"no_logradouro":"RUA ADOLFO ELIAS DE ANDRADE"},{"nu_endereco":"S/N"},{"no_bairro":"DR ANTENOR R COSTA"},{"nu_telefone":""},{"co_cep":"45350000"},{"uf":"BA"},{"cidade":"Itiruçu"},{"ano_ubs_det":"2016"},{"mes_ubs_det":"5"}],"geometry":{"type":"Point","coordinates":[-40.149772167205,-13.539437055587]}},{"type":"Feature","properties":[{"gid":"766"},{"co_cnes":"2510227"},{"lat":"-13.530188798904"},{"long":"-41.7331981658923"},{"no_fantasia":"POSTO DE SAUDE DE UMBUZEIRO DOS SANTOS"},{"no_logradouro":"POVOADO UMBUZEIRO DOS SANTOS"},{"nu_endereco":"S/N"},{"no_bairro":"RURAL"},{"nu_telefone":"(77)34752243"},{"co_cep":"46170000"},{"uf":"BA"},{"cidade":"Rio de Contas"},{"ano_ubs_det":"2016"},{"mes_ubs_det":"5"}],"geometry":{"type":"Point","coordinates":[-41.733198165892,-13.530188798904]}},{"type":"Feature","properties":[{"gid":"636"},{"co_cnes":"2603268"},{"lat":"-15.294208064906"},{"long":"-39.0747128879619"},{"no_fantasia":"UNIDADE DE SAUDE DA FAMILIA DE PEDRAS"},{"no_logradouro":"RUA PRINCIPAL"},{"nu_endereco":"S/N"},{"no_bairro":"ZONA RURAL"},{"nu_telefone":"73-32367017"},{"co_cep":"45690000"},{"uf":"BA"},{"cidade":"Una"},{"ano_ubs_det":"2016"},{"mes_ubs_det":"5"}],"geometry":{"type":"Point","coordinates":[-39.074712887962,-15.294208064906]}},{"type":"Feature","properties":[{"gid":"403"},{"co_cnes":"6134823"},{"lat":"-15.5680990219112"},{"long":"-40.4246234893787"},{"no_fantasia":"UNIDADE DE SAUDE DA FAMILIA LANDULFO FERNANDES DE SOUSA"},{"no_logradouro":"RUA RUI BARBOSA"},{"nu_endereco":"229"},{"no_bairro":"CENTRO"},{"nu_telefone":"77 3274-2608"},{"co_cep":"45760000"},{"uf":"BA"},{"cidade":"Macarani"},{"ano_ubs_det":"2016"},{"mes_ubs_det":"5"}],"geometry":{"type":"Point","coordinates":[-40.424623489379,-15.568099021911]}},{"type":"Feature","properties":[{"gid":"554"},{"co_cnes":"3011194"},{"lat":"-15.570051670074"},{"long":"-40.4333353042591"},{"no_fantasia":"UNIDADE DE SAUDE DA FAMILIA ERMITA PESSOA"},{"no_logradouro":"RUA ARLNDO BARBOSA"},{"nu_endereco":"047"},{"no_bairro":"MARJORIE PARQUE"},{"nu_telefone":"77 3274-2608"},{"co_cep":"45760000"},{"uf":"BA"},{"cidade":"Macarani"},{"ano_ubs_det":"2016"},{"mes_ubs_det":"5"}],"geometry":{"type":"Point","coordinates":[-40.433335304259,-15.570051670074]}},{"type":"Feature","properties":[{"gid":"572"},{"co_cnes":"2525461"},{"lat":"-10.733"},{"long":"-41.326"},{"no_fantasia":"UNIDADE DE SAUDE DE UMBURANAS"},{"no_logradouro":"R LIBORINO LOPES DE ALMEIDA"},{"nu_endereco":"S/N"},{"no_bairro":"CENTRO"},{"nu_telefone":"(74)5281059"},{"co_cep":"44798000"},{"uf":"BA"},{"cidade":"Umburanas"},{"ano_ubs_det":"2016"},{"mes_ubs_det":"5"}],"geometry":{"type":"Point","coordinates":[-41.326,-10.733]}},{"type":"Feature","properties":[{"gid":"454"},{"co_cnes":"2389169"},{"lat":"-17.370409482092"},{"long":"-40.220174208006"},{"no_fantasia":"PSF VIII LINDEMBERG RODRIGUES ITUPEVA"},{"no_logradouro":"DISTRITO DE ITUPEVA"},{"nu_endereco":"222"},{"no_bairro":"CENTRO"},{"nu_telefone":"( )"},{"co_cep":"45960000"},{"uf":"BA"},{"cidade":"Medeiros Neto"},{"ano_ubs_det":"2016"},{"mes_ubs_det":"5"}],"geometry":{"type":"Point","coordinates":[-40.220174208006,-17.370409482092]}},{"type":"Feature","properties":[{"gid":"431"},{"co_cnes":"2301180"},{"lat":"-17.5995211190232"},{"long":"-39.7318840026855"},{"no_fantasia":"PSF SAO LOURENCO 02"},{"no_logradouro":"RUA GRINALDO MEDEIROS"},{"nu_endereco":"431"},{"no_bairro":"SAO LOURENCO"},{"nu_telefone":""},{"co_cep":"45992132"},{"uf":"BA"},{"cidade":"Teixeira de Freitas"},{"ano_ubs_det":"2016"},{"mes_ubs_det":"5"}],"geometry":{"type":"Point","coordinates":[-39.731884002686,-17.599521119023]}},{"type":"Feature","properties":[{"gid":"466"},{"co_cnes":"2823071"},{"lat":"-10.6919012256505"},{"long":"-39.8532769742179"},{"no_fantasia":"PSF DE SAUDE DE COVAS"},{"no_logradouro":"POVOADO DE COVAS"},{"nu_endereco":"S/N"},{"no_bairro":"ZONA RURAL"},{"nu_telefone":"(74)5461506"},{"co_cep":"48850000"},{"uf":"BA"},{"cidade":"Itiúba"},{"ano_ubs_det":"2016"},{"mes_ubs_det":"5"}],"geometry":{"type":"Point","coordinates":[-39.853276974218,-10.691901225651]}},{"type":"Feature","properties":[{"gid":"647"},{"co_cnes":"2412187"},{"lat":"-14.284994602203"},{"long":"-42.7138566970813"},{"no_fantasia":"UBS DR AVELAR PEREIRA VIANA"},{"no_logradouro":"PERIMETRO IRRIGADO"},{"nu_endereco":"S/N"},{"no_bairro":"DISTRITO"},{"nu_telefone":"(77)4518029"},{"co_cep":"46430000"},{"uf":"BA"},{"cidade":"Guanambi"},{"ano_ubs_det":"2016"},{"mes_ubs_det":"5"}],"geometry":{"type":"Point","coordinates":[-42.713856697081,-14.284994602203]}},{"type":"Feature","properties":[{"gid":"632"},{"co_cnes":"4026136"},{"lat":"-11.5510833263394"},{"long":"-41.9023275375354"},{"no_fantasia":"POSTO DE SAUDE DE LAGEDAO"},{"no_logradouro":"POV DE LAGEDAO"},{"nu_endereco":"S/N"},{"no_bairro":"POVOADO"},{"nu_telefone":"(74)6521116"},{"co_cep":"44960000"},{"uf":"BA"},{"cidade":"Ibititá"},{"ano_ubs_det":"2016"},{"mes_ubs_det":"5"}],"geometry":{"type":"Point","coordinates":[-41.902327537535,-11.551083326339]}},{"type":"Feature","properties":[{"gid":"519"},{"co_cnes":"2523671"},{"lat":"-11.6649270057675"},{"long":"-39.0051126480091"},{"no_fantasia":"CENTRO DE SAUDE LUIS EDUARDO MAGALHAES"},{"no_logradouro":"AVENIDA LAURO MOTA"},{"nu_endereco":"299"},{"no_bairro":"CENTRO"},{"nu_telefone":"(75)2612555"},{"co_cep":"48700000"},{"uf":"BA"},{"cidade":"Serrinha"},{"ano_ubs_det":"2016"},{"mes_ubs_det":"5"}],"geometry":{"type":"Point","coordinates":[-39.005112648009,-11.664927005768]}},{"type":"Feature","properties":[{"gid":"699"},{"co_cnes":"2498588"},{"lat":"-10.9578216075894"},{"long":"-40.5742907524097"},{"no_fantasia":"LABORATORIO DE ANALISE CLINICA DE MIRANGABA"},{"no_logradouro":"AV JONAS CARVALHO"},{"nu_endereco":"S/N"},{"no_bairro":"CENTRO"},{"nu_telefone":"(74)6302123"},{"co_cep":"44745000"},{"uf":"BA"},{"cidade":"Mirangaba"},{"ano_ubs_det":"2016"},{"mes_ubs_det":"5"}],"geometry":{"type":"Point","coordinates":[-40.57429075241,-10.957821607589]}},{"type":"Feature","properties":[{"gid":"836"},{"co_cnes":"7474393"},{"lat":"-10.5069240095497"},{"long":"-39.0080347671509"},{"no_fantasia":"UNIDADE DE SAUDE DA FAMILIA JOSE ADILSON ANDRE DE CARVALHO"},{"no_logradouro":"POVOADO DE CARNAIBA"},{"nu_endereco":"S/N"},{"no_bairro":"POVOADO CARNAIBA"},{"nu_telefone":""},{"co_cep":"48500000"},{"uf":"BA"},{"cidade":"Euclides da Cunha"},{"ano_ubs_det":"2016"},{"mes_ubs_det":"5"}],"geometry":{"type":"Point","coordinates":[-39.008034767151,-10.50692400955]}},{"type":"Feature","properties":[{"gid":"966"},{"co_cnes":"5372313"},{"lat":"-16.575"},{"long":"-39.553"},{"no_fantasia":"ESF CENTRO II"},{"no_logradouro":"RUA DUQUE DE CAXIAS"},{"nu_endereco":"320"},{"no_bairro":"CENTRO"},{"nu_telefone":""},{"co_cep":"45848000"},{"uf":"BA"},{"cidade":"Itabela"},{"ano_ubs_det":"2016"},{"mes_ubs_det":"5"}],"geometry":{"type":"Point","coordinates":[-39.553,-16.575]}},{"type":"Feature","properties":[{"gid":"848"},{"co_cnes":"3797988"},{"lat":"-14.3020069035503"},{"long":"-43.7617772009391"},{"no_fantasia":"UBS DR MANOEL FERREIRA DA SILVA"},{"no_logradouro":"RUA ESTRELA DALVA"},{"nu_endereco":"S/N"},{"no_bairro":"SAO FRANCISCO"},{"nu_telefone":""},{"co_cep":"46445000"},{"uf":"BA"},{"cidade":"Carinhanha"},{"ano_ubs_det":"2016"},{"mes_ubs_det":"5"}],"geometry":{"type":"Point","coordinates":[-43.761777200939,-14.30200690355]}},{"type":"Feature","properties":[{"gid":"859"},{"co_cnes":"2771934"},{"lat":"-12.4517369270321"},{"long":"-40.6264114379871"},{"no_fantasia":"UNIDADE DE SAUDE DA FAMILIA DE AMPARO"},{"no_logradouro":"POVOADO DE AMPARO"},{"nu_endereco":"S/N"},{"no_bairro":"ZONA RURAL"},{"nu_telefone":""},{"co_cep":"46850000"},{"uf":"BA"},{"cidade":"Boa Vista do Tupim"},{"ano_ubs_det":"2016"},{"mes_ubs_det":"5"}],"geometry":{"type":"Point","coordinates":[-40.626411437987,-12.451736927032]}},{"type":"Feature","properties":[{"gid":"911"},{"co_cnes":"5167000"},{"lat":"-12.1840135690449"},{"long":"-43.2186962649655"},{"no_fantasia":"UNIDADE DE SAUDE DA FAMILIA CENTRO"},{"no_logradouro":"PRACA MANOEL VITORINO"},{"nu_endereco":"S/N"},{"no_bairro":"CENTRO"},{"nu_telefone":"77 3698 2476"},{"co_cep":"47520000"},{"uf":"BA"},{"cidade":"Ibotirama"},{"ano_ubs_det":"2016"},{"mes_ubs_det":"5"}],"geometry":{"type":"Point","coordinates":[-43.218696264966,-12.184013569045]}},{"type":"Feature","properties":[{"gid":"819"},{"co_cnes":"2653656"},{"lat":"-11.6493058204647"},{"long":"-39.7726321220386"},{"no_fantasia":"UNIDADE DE SAUDE DA FAMILIA JOAO AVELINO DA SILVA"},{"no_logradouro":"POVOADO DE CONCEICAO"},{"nu_endereco":"S/N"},{"no_bairro":"RURAL"},{"nu_telefone":"(75)36902111"},{"co_cep":"44645000"},{"uf":"BA"},{"cidade":"Capela do Alto Alegre"},{"ano_ubs_det":"2016"},{"mes_ubs_det":"5"}],"geometry":{"type":"Point","coordinates":[-39.772632122039,-11.649305820465]}},{"type":"Feature","properties":[{"gid":"912"},{"co_cnes":"2626993"},{"lat":"-11.8176734447476"},{"long":"-44.3427300453173"},{"no_fantasia":"UNIDADE DE SAUDE DA FAMILIA DE JUPAGUA"},{"no_logradouro":"RUA SANTO ANTONIO"},{"nu_endereco":"S/N"},{"no_bairro":"DISTRITO DE JUPAGUA"},{"nu_telefone":"(77)36212125"},{"co_cep":"47900000"},{"uf":"BA"},{"cidade":"Cotegipe"},{"ano_ubs_det":"2016"},{"mes_ubs_det":"5"}],"geometry":{"type":"Point","coordinates":[-44.342730045317,-11.817673444748]}},{"type":"Feature","properties":[{"gid":"831"},{"co_cnes":"2388502"},{"lat":"-12.3562288284298"},{"long":"-38.3710169792164"},{"no_fantasia":"UNIDADE DE SAUDE DA FAMILIA DE BARAO DE CAMACARI"},{"no_logradouro":"RUA BARAO DE CAMACARI"},{"nu_endereco":"472"},{"no_bairro":"BARAO DE CAMACARI"},{"nu_telefone":"(71)36417100"},{"co_cep":"48110000"},{"uf":"BA"},{"cidade":"Catu"},{"ano_ubs_det":"2016"},{"mes_ubs_det":"5"}],"geometry":{"type":"Point","coordinates":[-38.371016979216,-12.35622882843]}},{"type":"Feature","properties":[{"gid":"1064"},{"co_cnes":"2414686"},{"lat":"-15.9721666550673"},{"long":"-39.5285413926178"},{"no_fantasia":"UNIDADE PSF ALIPIO RODRIGUES MOTA"},{"no_logradouro":"RUA VALFRIDES SANTANA SILVA"},{"nu_endereco":"S/N"},{"no_bairro":"CENTRO"},{"nu_telefone":"(73)32861379"},{"co_cep":"45855000"},{"uf":"BA"},{"cidade":"Itapebi"},{"ano_ubs_det":"2016"},{"mes_ubs_det":"5"}],"geometry":{"type":"Point","coordinates":[-39.528541392618,-15.972166655067]}},{"type":"Feature","properties":[{"gid":"929"},{"co_cnes":"2506319"},{"lat":"-17.8850769996638"},{"long":"-39.845631122588"},{"no_fantasia":"USF 07 AV JOAO DURVAL CARNEIRO"},{"no_logradouro":"BR 418 KM 37"},{"nu_endereco":"S/N"},{"no_bairro":"BAIA DOS ANJOS POS"},{"nu_telefone":""},{"co_cep":"45928000"},{"uf":"BA"},{"cidade":"Nova Viçosa"},{"ano_ubs_det":"2016"},{"mes_ubs_det":"5"}],"geometry":{"type":"Point","coordinates":[-39.845631122588,-17.885076999664]}},{"type":"Feature","properties":[{"gid":"977"},{"co_cnes":"4026950"},{"lat":"-16.575"},{"long":"-39.5536866455078"},{"no_fantasia":"ESFSB CENTRO I"},{"no_logradouro":"RUA DUQUE CAXIAS"},{"nu_endereco":"320"},{"no_bairro":"CENTRO"},{"nu_telefone":"(73)2703164"},{"co_cep":"45848000"},{"uf":"BA"},{"cidade":"Itabela"},{"ano_ubs_det":"2016"},{"mes_ubs_det":"5"}],"geometry":{"type":"Point","coordinates":[-39.553686645508,-16.575]}},{"type":"Feature","properties":[{"gid":"993"},{"co_cnes":"6439934"},{"lat":"-14.9403870105739"},{"long":"-41.8298435211169"},{"no_fantasia":"UNIDADE DE SAUDE DA FAMILIA ARACAS II"},{"no_logradouro":"PRACA CORONEL JOSE MOREIRA CORDEIRO"},{"nu_endereco":"104"},{"no_bairro":"ZONA RURAL"},{"nu_telefone":"7734472114"},{"co_cep":"46280000"},{"uf":"BA"},{"cidade":"Cordeiros"},{"ano_ubs_det":"2016"},{"mes_ubs_det":"5"}],"geometry":{"type":"Point","coordinates":[-41.829843521117,-14.940387010574]}},{"type":"Feature","properties":[{"gid":"1087"},{"co_cnes":"5306663"},{"lat":"-12.3041247007939"},{"long":"-44.5360980467187"},{"no_fantasia":"UNIDADE DE SAUDE DA FAMILIA DALCI CAVALCANTE DE SOUZA"},{"no_logradouro":"LAGOA CLARA"},{"nu_endereco":"S/N"},{"no_bairro":"ZONA RURAL"},{"nu_telefone":"77 36172200"},{"co_cep":"47830000"},{"uf":"BA"},{"cidade":"Baianópolis"},{"ano_ubs_det":"2016"},{"mes_ubs_det":"5"}],"geometry":{"type":"Point","coordinates":[-44.536098046719,-12.304124700794]}},{"type":"Feature","properties":[{"gid":"1419"},{"co_cnes":"7557582"},{"lat":"-10.50458"},{"long":"-39.00966"},{"no_fantasia":"UNIDADE DE SAUDE DA FAMILIA DE CAIMBE"},{"no_logradouro":"POVOADO CAIMBE"},{"nu_endereco":"S/N"},{"no_bairro":"ZONA RURAL"},{"nu_telefone":""},{"co_cep":"48500000"},{"uf":"BA"},{"cidade":"Euclides da Cunha"},{"ano_ubs_det":"2016"},{"mes_ubs_det":"5"}],"geometry":{"type":"Point","coordinates":[-39.00966,-10.50458]}},{"type":"Feature","properties":[{"gid":"1293"},{"co_cnes":"3236072"},{"lat":"-13.6456690700817"},{"long":"-41.8432315979004"},{"no_fantasia":"ESF ARRECIFE"},{"no_logradouro":"POVOADO DE ARRECIFE"},{"nu_endereco":"S/N"},{"no_bairro":"CENTRO"},{"nu_telefone":""},{"co_cep":"46140000"},{"uf":"BA"},{"cidade":"Livramento de Nossa Senhora"},{"ano_ubs_det":"2016"},{"mes_ubs_det":"5"}],"geometry":{"type":"Point","coordinates":[-41.8432315979,-13.645669070082]}},{"type":"Feature","properties":[{"gid":"1580"},{"co_cnes":"3078663"},{"lat":"-10.3406989574429"},{"long":"-38.4396171569813"},{"no_fantasia":"USF MIGUEL CARDOSO"},{"no_logradouro":"POVOADO OURICURI"},{"nu_endereco":"S/N"},{"no_bairro":"ZONA RURAL"},{"nu_telefone":"(75)32921020"},{"co_cep":"48455000"},{"uf":"BA"},{"cidade":"Novo Triunfo"},{"ano_ubs_det":"2016"},{"mes_ubs_det":"5"}],"geometry":{"type":"Point","coordinates":[-38.439617156981,-10.340698957443]}},{"type":"Feature","properties":[{"gid":"1433"},{"co_cnes":"2483564"},{"lat":"-11.4542809"},{"long":"-41.8082146"},{"no_fantasia":"UBSF ANA MATOS MANDACARU"},{"no_logradouro":"POVOADO DE AGUADA NOVA"},{"nu_endereco":"01"},{"no_bairro":"CENTRO"},{"nu_telefone":"(74) 3657 1011"},{"co_cep":"44905000"},{"uf":"BA"},{"cidade":"Lapão"},{"ano_ubs_det":"2016"},{"mes_ubs_det":"5"}],"geometry":{"type":"Point","coordinates":[-41.8082146,-11.4542809]}},{"type":"Feature","properties":[{"gid":"1599"},{"co_cnes":"2508540"},{"lat":"-11.8311793085998"},{"long":"-39.6094253290429"},{"no_fantasia":"USF DE SANTO AGOSTINHO"},{"no_logradouro":"POV SANTO AGOSTINHO"},{"nu_endereco":"S/N"},{"no_bairro":"POVOADO"},{"nu_telefone":""},{"co_cep":"44655000"},{"uf":"BA"},{"cidade":"Pé de Serra"},{"ano_ubs_det":"2016"},{"mes_ubs_det":"5"}],"geometry":{"type":"Point","coordinates":[-39.609425329043,-11.8311793086]}},{"type":"Feature","properties":[{"gid":"1229"},{"co_cnes":"2524643"},{"lat":"-9.47187781333896"},{"long":"-40.8042526245105"},{"no_fantasia":"CENTRO MUNICIPAL DE SAUDE"},{"no_logradouro":"AV JOSE BALBINO DE SOUZA"},{"nu_endereco":"S/N"},{"no_bairro":"SAO JOAQUIM"},{"nu_telefone":"(74)538210"},{"co_cep":"48925000"},{"uf":"BA"},{"cidade":"Sobradinho"},{"ano_ubs_det":"2016"},{"mes_ubs_det":"5"}],"geometry":{"type":"Point","coordinates":[-40.80425262451,-9.471877813339]}},{"type":"Feature","properties":[{"gid":"1555"},{"co_cnes":"4028899"},{"lat":"-11.5501261105049"},{"long":"-41.1590965077636"},{"no_fantasia":"USF DE FEDEGOSOS"},{"no_logradouro":"POVOADO DE FEDEGOSOS"},{"nu_endereco":"S/N"},{"no_bairro":"DISTRITO"},{"nu_telefone":"7436531992"},{"co_cep":"44850000"},{"uf":"BA"},{"cidade":"Morro do Chapéu"},{"ano_ubs_det":"2016"},{"mes_ubs_det":"5"}],"geometry":{"type":"Point","coordinates":[-41.159096507764,-11.550126110505]}},{"type":"Feature","properties":[{"gid":"1573"},{"co_cnes":"6011195"},{"lat":"-10.8024502191788"},{"long":"-41.3788032531738"},{"no_fantasia":"USF DE UMBURANINHAS"},{"no_logradouro":"POVOADO DE UMBURANINHAS"},{"nu_endereco":"S/N"},{"no_bairro":"ZONA RURAL"},{"nu_telefone":""},{"co_cep":"44850000"},{"uf":"BA"},{"cidade":"Morro do Chapéu"},{"ano_ubs_det":"2016"},{"mes_ubs_det":"5"}],"geometry":{"type":"Point","coordinates":[-41.378803253174,-10.802450219179]}},{"type":"Feature","properties":[{"gid":"1270"},{"co_cnes":"3046656"},{"lat":"-12.845078215025"},{"long":"-39.0840148984065"},{"no_fantasia":"USF CIRILO DOS SANTOS"},{"no_logradouro":"VILA CARAIPE"},{"nu_endereco":"S/N"},{"no_bairro":"ZONA RURAL"},{"nu_telefone":""},{"co_cep":"44550000"},{"uf":"BA"},{"cidade":"São Felipe"},{"ano_ubs_det":"2016"},{"mes_ubs_det":"5"}],"geometry":{"type":"Point","coordinates":[-39.084014898407,-12.845078215025]}},{"type":"Feature","properties":[{"gid":"1234"},{"co_cnes":"4021215"},{"lat":"-13.4223477953016"},{"long":"-42.1361637333109"},{"no_fantasia":"UNIDADE DE SAUDE DA FAMILIA DE ABADIA"},{"no_logradouro":"POVOADO DE ABADIA"},{"nu_endereco":"S/N"},{"no_bairro":"ZONA RURAL"},{"nu_telefone":""},{"co_cep":"46180000"},{"uf":"BA"},{"cidade":"Érico Cardoso"},{"ano_ubs_det":"2016"},{"mes_ubs_det":"5"}],"geometry":{"type":"Point","coordinates":[-42.136163733311,-13.422347795302]}},{"type":"Feature","properties":[{"gid":"1322"},{"co_cnes":"2800365"},{"lat":"-13.3859456681805"},{"long":"-42.5263595581055"},{"no_fantasia":"POSTO DE SAUDE DE LAGOA DAGUA DO SAO FRANCISCO"},{"no_logradouro":"POVOADO LAGOA DAGUA DO SAO FRANCISCO"},{"nu_endereco":"S/N"},{"no_bairro":"ZONA RURAL"},{"nu_telefone":"77/3678-2191"},{"co_cep":"46570000"},{"uf":"BA"},{"cidade":"Botuporã"},{"ano_ubs_det":"2016"},{"mes_ubs_det":"5"}],"geometry":{"type":"Point","coordinates":[-42.526359558105,-13.385945668181]}},{"type":"Feature","properties":[{"gid":"1272"},{"co_cnes":"2507463"},{"lat":"-15.4636188168583"},{"long":"-39.6487820361139"},{"no_fantasia":"UNIDADE BASICA DE SAUDE DR LUIZ ERLON RODRIGUES"},{"no_logradouro":"JOAO VELOSO"},{"nu_endereco":"184"},{"no_bairro":"CENTRO"},{"nu_telefone":"(73) 2732129"},{"co_cep":"45890000"},{"uf":"BA"},{"cidade":"Pau Brasil"},{"ano_ubs_det":"2016"},{"mes_ubs_det":"5"}],"geometry":{"type":"Point","coordinates":[-39.648782036114,-15.463618816858]}},{"type":"Feature","properties":[{"gid":"1762"},{"co_cnes":"5306515"},{"lat":"-14.5223245425647"},{"long":"-40.3651272938438"},{"no_fantasia":"UNIDADE DE SAUDE DA FAMILIA ANTONIO MASCARENHAS"},{"no_logradouro":"RUA DO ACUDE"},{"nu_endereco":"S/N"},{"no_bairro":"ACUDE"},{"nu_telefone":"71987772454"},{"co_cep":"45260000"},{"uf":"BA"},{"cidade":"Poções"},{"ano_ubs_det":"2016"},{"mes_ubs_det":"5"}],"geometry":{"type":"Point","coordinates":[-40.365127293844,-14.522324542565]}},{"type":"Feature","properties":[{"gid":"1642"},{"co_cnes":"5435870"},{"lat":"-13.5298132896419"},{"long":"-43.6431884765612"},{"no_fantasia":"PSF DA AGROVILA 10 11 12"},{"no_logradouro":"RUA PRINCIPAL"},{"nu_endereco":"01"},{"no_bairro":"AGROVILA 10"},{"nu_telefone":"773621013"},{"co_cep":"47630000"},{"uf":"BA"},{"cidade":"Serra do Ramalho"},{"ano_ubs_det":"2016"},{"mes_ubs_det":"5"}],"geometry":{"type":"Point","coordinates":[-43.643188476561,-13.529813289642]}},{"type":"Feature","properties":[{"gid":"1821"},{"co_cnes":"2824590"},{"lat":"-12.3010289669033"},{"long":"-39.4918370246876"},{"no_fantasia":"UNIDADE DE SAUDE DA FAMILIA DO SAO ROQUE"},{"no_logradouro":"POV SAO ROQUE"},{"nu_endereco":"S/N"},{"no_bairro":"SAO ROQUE"},{"nu_telefone":""},{"co_cep":"44600000"},{"uf":"BA"},{"cidade":"Ipirá"},{"ano_ubs_det":"2016"},{"mes_ubs_det":"5"}],"geometry":{"type":"Point","coordinates":[-39.491837024688,-12.301028966903]}},{"type":"Feature","properties":[{"gid":"1774"},{"co_cnes":"2601621"},{"lat":"-13.4725200035756"},{"long":"-40.2252295031908"},{"no_fantasia":"UNIDADE DE SAUDE DA FAMILIA DR ANTENOR R COSTA"},{"no_logradouro":"RUA MANOEL HONORATO"},{"nu_endereco":"S/N"},{"no_bairro":"CENTRO"},{"nu_telefone":"(73) 35561127"},{"co_cep":"45365000"},{"uf":"BA"},{"cidade":"Lajedo do Tabocal"},{"ano_ubs_det":"2016"},{"mes_ubs_det":"5"}],"geometry":{"type":"Point","coordinates":[-40.225229503191,-13.472520003576]}},{"type":"Feature","properties":[{"gid":"1724"},{"co_cnes":"2804956"},{"lat":"-17.73823"},{"long":"-39.25429"},{"no_fantasia":"PSF 01 SEDE"},{"no_logradouro":"PRACA DAS BANDEIRAS"},{"nu_endereco":"01"},{"no_bairro":"PALMEIRAS"},{"nu_telefone":""},{"co_cep":"45900000"},{"uf":"BA"},{"cidade":"Caravelas"},{"ano_ubs_det":"2016"},{"mes_ubs_det":"5"}],"geometry":{"type":"Point","coordinates":[-39.25429,-17.73823]}},{"type":"Feature","properties":[{"gid":"1687"},{"co_cnes":"2509016"},{"lat":"-17.3295639893846"},{"long":"-39.229238421169"},{"no_fantasia":"UBS 01 CENTRO"},{"no_logradouro":"AVENIDA ITAMARAJU"},{"nu_endereco":"S/N"},{"no_bairro":"CENTRO"},{"nu_telefone":""},{"co_cep":"45980000"},{"uf":"BA"},{"cidade":"Prado"},{"ano_ubs_det":"2016"},{"mes_ubs_det":"5"}],"geometry":{"type":"Point","coordinates":[-39.229238421169,-17.329563989385]}},{"type":"Feature","properties":[{"gid":"1670"},{"co_cnes":"6585043"},{"lat":"-12.8791061453242"},{"long":"-42.4912287412418"},{"no_fantasia":"UNIDADE BASICA DE SAUDE CAIXA DAGUA"},{"no_logradouro":"RUA JOAQUIM ANTONIO PEREIRA"},{"nu_endereco":"S/N"},{"no_bairro":"CAIXA D AGUA"},{"nu_telefone":"77-3674-2017"},{"co_cep":"46540000"},{"uf":"BA"},{"cidade":"Ibipitanga"},{"ano_ubs_det":"2016"},{"mes_ubs_det":"5"}],"geometry":{"type":"Point","coordinates":[-42.491228741242,-12.879106145324]}},{"type":"Feature","properties":[{"gid":"1901"},{"co_cnes":"2493659"},{"lat":"-11.738322973251"},{"long":"-40.2632832527149"},{"no_fantasia":"POSTO DE SAUDE DE ALAGOINHAS"},{"no_logradouro":"POVOADO DE ALAGOINHAS"},{"nu_endereco":"S/N"},{"no_bairro":"POV ALAGOINHAS"},{"nu_telefone":"(74)36322104"},{"co_cep":"44630000"},{"uf":"BA"},{"cidade":"Mairi"},{"ano_ubs_det":"2016"},{"mes_ubs_det":"5"}],"geometry":{"type":"Point","coordinates":[-40.263283252715,-11.738322973251]}},{"type":"Feature","properties":[{"gid":"1960"},{"co_cnes":"8015767"},{"lat":"-14.0408384799953"},{"long":"-44.4462847709643"},{"no_fantasia":"UNIDADE DE SAUDE DA FAMILIA MANOEL MESSIAS"},{"no_logradouro":"POVOADO DE AGUA DO CARMO"},{"nu_endereco":"S/N"},{"no_bairro":"ZONA RURAL"},{"nu_telefone":"(77)34891166"},{"co_cep":"47680000"},{"uf":"BA"},{"cidade":"Cocos"},{"ano_ubs_det":"2016"},{"mes_ubs_det":"5"}],"geometry":{"type":"Point","coordinates":[-44.446284770964,-14.040838479995]}},{"type":"Feature","properties":[{"gid":"1705"},{"co_cnes":"2526441"},{"lat":"-14.7942709922786"},{"long":"-40.1411461830128"},{"no_fantasia":"CENTRO DE SAUDE JESIMIEL NORBERTO DA SILVA"},{"no_logradouro":"PC PAULO COSTA"},{"nu_endereco":"999"},{"no_bairro":"FLORESTAL"},{"nu_telefone":"7332072683"},{"co_cep":"45270000"},{"uf":"BA"},{"cidade":"Nova Canaã"},{"ano_ubs_det":"2016"},{"mes_ubs_det":"5"}],"geometry":{"type":"Point","coordinates":[-40.141146183013,-14.794270992279]}},{"type":"Feature","properties":[{"gid":"1604"},{"co_cnes":"2508893"},{"lat":"-13.7398839"},{"long":"-39.3760008"},{"no_fantasia":"CENTRO DE SAUDE DE PIRAI DO NORTE"},{"no_logradouro":"RUA RUI BARBOSA"},{"nu_endereco":"147"},{"no_bairro":"CENTRO"},{"nu_telefone":"(73) 3688-2245"},{"co_cep":"45436000"},{"uf":"BA"},{"cidade":"Piraí do Norte"},{"ano_ubs_det":"2016"},{"mes_ubs_det":"5"}],"geometry":{"type":"Point","coordinates":[-39.3760008,-13.7398839]}},{"type":"Feature","properties":[{"gid":"1927"},{"co_cnes":"2388553"},{"lat":"-12.24748134613"},{"long":"-38.3740639686573"},{"no_fantasia":"UNIDADE DE SAUDE DA FAMILIA DE SITIO NOVO"},{"no_logradouro":"RUA OTONIEL REIS BORGES"},{"nu_endereco":"S/N"},{"no_bairro":"DIST DE SITIO NOVO"},{"nu_telefone":"(71)6412185"},{"co_cep":"48110000"},{"uf":"BA"},{"cidade":"Catu"},{"ano_ubs_det":"2016"},{"mes_ubs_det":"5"}],"geometry":{"type":"Point","coordinates":[-38.374063968657,-12.24748134613]}},{"type":"Feature","properties":[{"gid":"1610"},{"co_cnes":"2508494"},{"lat":"-11.6793894767758"},{"long":"-40.4865717887867"},{"no_fantasia":"USF AREIA BRANCA"},{"no_logradouro":"RUA DURVAL MIRANDA"},{"nu_endereco":"S/N"},{"no_bairro":"POVOADO DA AREIA BRA"},{"nu_telefone":"(74)36282123"},{"co_cep":"44830000"},{"uf":"BA"},{"cidade":"Piritiba"},{"ano_ubs_det":"2016"},{"mes_ubs_det":"5"}],"geometry":{"type":"Point","coordinates":[-40.486571788787,-11.679389476776]}},{"type":"Feature","properties":[{"gid":"1602"},{"co_cnes":"2601133"},{"lat":"-10.74377"},{"long":"-40.36784"},{"no_fantasia":"USF DE SAUDE DE BANANEIRAS"},{"no_logradouro":"PRACA SANTA EFIGENIA"},{"nu_endereco":"S/N"},{"no_bairro":"ZONA RURAL"},{"nu_telefone":"(07)45414196"},{"co_cep":"44770000"},{"uf":"BA"},{"cidade":"Pindobaçu"},{"ano_ubs_det":"2016"},{"mes_ubs_det":"5"}],"geometry":{"type":"Point","coordinates":[-40.36784,-10.74377]}},{"type":"Feature","properties":[{"gid":"1603"},{"co_cnes":"4029828"},{"lat":"-10.746"},{"long":"-40.3579"},{"no_fantasia":"CENTRO DE SAUDE TIPO II"},{"no_logradouro":"RUA REGIS PACHECO"},{"nu_endereco":"S/N"},{"no_bairro":"CENTRO"},{"nu_telefone":"(07)45414196"},{"co_cep":"44770000"},{"uf":"BA"},{"cidade":"Pindobaçu"},{"ano_ubs_det":"2016"},{"mes_ubs_det":"5"}],"geometry":{"type":"Point","coordinates":[-40.3579,-10.746]}},{"type":"Feature","properties":[{"gid":"1997"},{"co_cnes":"3285030"},{"lat":"-16.41073"},{"long":"-39.0508"},{"no_fantasia":"USF PARAGUAI"},{"no_logradouro":"RUA PRINCIPAL"},{"nu_endereco":"S/N"},{"no_bairro":"PARAGUAI"},{"nu_telefone":"(73) 3288 9521"},{"co_cep":"45810000"},{"uf":"BA"},{"cidade":"Porto Seguro"},{"ano_ubs_det":"2016"},{"mes_ubs_det":"5"}],"geometry":{"type":"Point","coordinates":[-39.0508,-16.41073]}},{"type":"Feature","properties":[{"gid":"1898"},{"co_cnes":"2498251"},{"lat":"-13.9126360110703"},{"long":"-42.8429324443126"},{"no_fantasia":"USF LEONOR PEREIRA DONATO"},{"no_logradouro":"FAZENDA PICHICO"},{"nu_endereco":"S/N"},{"no_bairro":"ZONA RURAL"},{"nu_telefone":""},{"co_cep":"46480000"},{"uf":"BA"},{"cidade":"Matina"},{"ano_ubs_det":"2016"},{"mes_ubs_det":"5"}],"geometry":{"type":"Point","coordinates":[-42.842932444313,-13.91263601107]}},{"type":"Feature","properties":[{"gid":"1780"},{"co_cnes":"2771179"},{"lat":"-15.37261"},{"long":"-39.49291"},{"no_fantasia":"USF JAQUISSON DE DEUS GUIMARAES"},{"no_logradouro":"PCA DA MATRIZ"},{"nu_endereco":"01"},{"no_bairro":"SAO JOAO DO PANELINH"},{"nu_telefone":""},{"co_cep":"45880000"},{"uf":"BA"},{"cidade":"Camacan"},{"ano_ubs_det":"2016"},{"mes_ubs_det":"5"}],"geometry":{"type":"Point","coordinates":[-39.49291,-15.37261]}},{"type":"Feature","properties":[{"gid":"1896"},{"co_cnes":"5416744"},{"lat":"-12.9809045791622"},{"long":"-44.0510559082018"},{"no_fantasia":"CENTRO DE SAUDE SANTANA"},{"no_logradouro":"PRACA PADRE ARTHUR"},{"nu_endereco":"S/N"},{"no_bairro":"CENTRO"},{"nu_telefone":"77 3484 - 2144"},{"co_cep":"47700000"},{"uf":"BA"},{"cidade":"Santana"},{"ano_ubs_det":"2016"},{"mes_ubs_det":"5"}],"geometry":{"type":"Point","coordinates":[-44.051055908202,-12.980904579162]}},{"type":"Feature","properties":[{"gid":"1789"},{"co_cnes":"2556537"},{"lat":"-16.3751672322564"},{"long":"-39.5841719409864"},{"no_fantasia":"UNIDADE BASICA DE SAUDE WANDERLEY NASCIMENTO"},{"no_logradouro":"RUA MISS MARILEIA"},{"nu_endereco":"36"},{"no_bairro":"JUCA ROSA"},{"nu_telefone":"(73)3261-6146"},{"co_cep":"45820970"},{"uf":"BA"},{"cidade":"Eunápolis"},{"ano_ubs_det":"2016"},{"mes_ubs_det":"5"}],"geometry":{"type":"Point","coordinates":[-39.584171940986,-16.375167232256]}},{"type":"Feature","properties":[{"gid":"1897"},{"co_cnes":"2413027"},{"lat":"-14.1650324961225"},{"long":"-39.3744665327401"},{"no_fantasia":"U S F ISRAVAN LEMOS BARCELOS"},{"no_logradouro":"RUA JOSIVAL VIDAL"},{"nu_endereco":"S/N"},{"no_bairro":"DST DE ITAMARATI"},{"nu_telefone":""},{"co_cep":"45500000"},{"uf":"BA"},{"cidade":"Ibirapitanga"},{"ano_ubs_det":"2016"},{"mes_ubs_det":"5"}],"geometry":{"type":"Point","coordinates":[-39.37446653274,-14.165032496122]}},{"type":"Feature","properties":[{"gid":"1904"},{"co_cnes":"2505916"},{"lat":"-17.8933917821787"},{"long":"-39.3720115380737"},{"no_fantasia":"USF 09 HELVECIA"},{"no_logradouro":"RUA PRINCIPAL"},{"nu_endereco":"S/N"},{"no_bairro":"HELVECIA"},{"nu_telefone":""},{"co_cep":"45928000"},{"uf":"BA"},{"cidade":"Nova Viçosa"},{"ano_ubs_det":"2016"},{"mes_ubs_det":"5"}],"geometry":{"type":"Point","coordinates":[-39.372011538074,-17.893391782179]}},{"type":"Feature","properties":[{"gid":"1939"},{"co_cnes":"6008267"},{"lat":"-14.789039548603"},{"long":"-39.2731089520081"},{"no_fantasia":"UNIDADE DE SAUDE DA FAMILIA BAIRRO MANOEL LEAO"},{"no_logradouro":"RUA 09"},{"nu_endereco":"63"},{"no_bairro":"MANOEL LEAO"},{"nu_telefone":""},{"co_cep":"45600200"},{"uf":"BA"},{"cidade":"Itabuna"},{"ano_ubs_det":"2016"},{"mes_ubs_det":"5"}],"geometry":{"type":"Point","coordinates":[-39.273108952008,-14.789039548603]}},{"type":"Feature","properties":[{"gid":"1685"},{"co_cnes":"6335543"},{"lat":"-10.0879919528958"},{"long":"-39.4070148468006"},{"no_fantasia":"UNIDADE DE SAUDE DA FAMILIA DE SITIO DO TOMAS"},{"no_logradouro":"POVOADO SITIO DO TOMAS"},{"nu_endereco":"S/N"},{"no_bairro":"ZONA RURAL"},{"nu_telefone":"74 3673 2012"},{"co_cep":"48950000"},{"uf":"BA"},{"cidade":"Uauá"},{"ano_ubs_det":"2016"},{"mes_ubs_det":"5"}],"geometry":{"type":"Point","coordinates":[-39.407014846801,-10.087991952896]}},{"type":"Feature","properties":[{"gid":"1745"},{"co_cnes":"4027779"},{"lat":"-13.530698630843"},{"long":"-39.9702551831643"},{"no_fantasia":"USF DR TACIANO F DE PAULA CAMPOS"},{"no_logradouro":"AV PORTUGAL"},{"nu_endereco":"S/N"},{"no_bairro":"ENTRONCAMENTO"},{"nu_telefone":"(73)35301196"},{"co_cep":"45345000"},{"uf":"BA"},{"cidade":"Jaguaquara"},{"ano_ubs_det":"2016"},{"mes_ubs_det":"5"}],"geometry":{"type":"Point","coordinates":[-39.970255183164,-13.530698630843]}},{"type":"Feature","properties":[{"gid":"1826"},{"co_cnes":"2526182"},{"lat":"-17.3238945007319"},{"long":"-39.8938679695118"},{"no_fantasia":"PSF III ADELIA ROSA GALVAO"},{"no_logradouro":"RUA PRINCIPAL"},{"nu_endereco":"S/N"},{"no_bairro":"CENTRO"},{"nu_telefone":""},{"co_cep":"45955000"},{"uf":"BA"},{"cidade":"Vereda"},{"ano_ubs_det":"2016"},{"mes_ubs_det":"5"}],"geometry":{"type":"Point","coordinates":[-39.893867969512,-17.323894500732]}},{"type":"Feature","properties":[{"gid":"1782"},{"co_cnes":"7021"},{"lat":"-12.8857827186581"},{"long":"-38.4311413764942"},{"no_fantasia":"UBS NELSON PIAUHY DOURADO"},{"no_logradouro":"RUA ENDEO NASCIMENTO"},{"nu_endereco":"S/N"},{"no_bairro":"AGUAS CLARAS"},{"nu_telefone":"(71) 36115313"},{"co_cep":"41310380"},{"uf":"BA"},{"cidade":"Salvador"},{"ano_ubs_det":"2016"},{"mes_ubs_det":"5"}],"geometry":{"type":"Point","coordinates":[-38.431141376494,-12.885782718658]}},{"type":"Feature","properties":[{"gid":"1859"},{"co_cnes":"2532395"},{"lat":"-12.784"},{"long":"-38.404"},{"no_fantasia":"UNIDADE BASICA DE SAUDE PROF JOSE MARIA DE MAGALHAES NETTO"},{"no_logradouro":"AVENIDA RIVALDO GOMES GUIMARAES"},{"nu_endereco":"S/N"},{"no_bairro":"CIA I"},{"nu_telefone":"(71) 32983401"},{"co_cep":"43700000"},{"uf":"BA"},{"cidade":"Simões Filho"},{"ano_ubs_det":"2016"},{"mes_ubs_det":"5"}],"geometry":{"type":"Point","coordinates":[-38.404,-12.784]}},{"type":"Feature","properties":[{"gid":"1618"},{"co_cnes":"2424010"},{"lat":"-15.1190373140261"},{"long":"-40.0717033442151"},{"no_fantasia":"UNIDADE DE SAUDE DA FAMILIA DR OLIMPIO ALELUIA"},{"no_logradouro":"RUA SILVIO BENICIO"},{"nu_endereco":"S/N"},{"no_bairro":"DIST RIO DO MEIO"},{"nu_telefone":"(73)2651911"},{"co_cep":"45710000"},{"uf":"BA"},{"cidade":"Itororó"},{"ano_ubs_det":"2016"},{"mes_ubs_det":"5"}],"geometry":{"type":"Point","coordinates":[-40.071703344215,-15.119037314026]}},{"type":"Feature","properties":[{"gid":"1758"},{"co_cnes":"3366200"},{"lat":"-12.22971"},{"long":"-38.98146"},{"no_fantasia":"ESF DO HOMERO FIGUEIREDO"},{"no_logradouro":"TRAV JOVINIANO J SANTANA"},{"nu_endereco":"28"},{"no_bairro":"HOMERO FIGUEIREDO"},{"nu_telefone":"7536237577"},{"co_cep":"44028511"},{"uf":"BA"},{"cidade":"Feira de Santana"},{"ano_ubs_det":"2016"},{"mes_ubs_det":"5"}],"geometry":{"type":"Point","coordinates":[-38.98146,-12.22971]}},{"type":"Feature","properties":[{"gid":"1647"},{"co_cnes":"3049175"},{"lat":"-12.9032063484188"},{"long":"-38.3833551406849"},{"no_fantasia":"USF BOCA DA MATA"},{"no_logradouro":"FAZENDA GRANDE IV SETOR 7 CAMINHO 58"},{"nu_endereco":"S/N"},{"no_bairro":"BOCA DA MATA"},{"nu_telefone":"(71) 3611-5304/5305"},{"co_cep":"41340120"},{"uf":"BA"},{"cidade":"Salvador"},{"ano_ubs_det":"2016"},{"mes_ubs_det":"5"}],"geometry":{"type":"Point","coordinates":[-38.383355140685,-12.903206348419]}},{"type":"Feature","properties":[{"gid":"1959"},{"co_cnes":"3108848"},{"lat":"-13.0012464523312"},{"long":"-43.0498623847949"},{"no_fantasia":"UNIDADE DE SAUDE DA FAMILIA DA VARZEA"},{"no_logradouro":"POVOADO DA VARZEA"},{"nu_endereco":"1"},{"no_bairro":"ZONA RURAL"},{"nu_telefone":"(77) 3664-2138"},{"co_cep":"47500000"},{"uf":"BA"},{"cidade":"Paratinga"},{"ano_ubs_det":"2016"},{"mes_ubs_det":"5"}],"geometry":{"type":"Point","coordinates":[-43.049862384795,-13.001246452331]}},{"type":"Feature","properties":[{"gid":"1709"},{"co_cnes":"2487330"},{"lat":"-12.1341825924055"},{"long":"-38.4226157693395"},{"no_fantasia":"UNIDADE DE SAUDE DA FAMILIA URBIS III"},{"no_logradouro":"RUA L CONJ FREI LEAO"},{"nu_endereco":"S/N"},{"no_bairro":"RUA DO CATU"},{"nu_telefone":""},{"co_cep":"48080300"},{"uf":"BA"},{"cidade":"Alagoinhas"},{"ano_ubs_det":"2016"},{"mes_ubs_det":"5"}],"geometry":{"type":"Point","coordinates":[-38.42261576934,-12.134182592405]}},{"type":"Feature","properties":[{"gid":"1605"},{"co_cnes":"6662633"},{"lat":"-11.1964523792264"},{"long":"-40.5350017547596"},{"no_fantasia":"PSF NOVO AMANHECER"},{"no_logradouro":"JACOBINA IV"},{"nu_endereco":"S/N"},{"no_bairro":"JACOBINA IV"},{"nu_telefone":"74 3621-9949"},{"co_cep":"44700000"},{"uf":"BA"},{"cidade":"Jacobina"},{"ano_ubs_det":"2016"},{"mes_ubs_det":"5"}],"geometry":{"type":"Point","coordinates":[-40.53500175476,-11.196452379226]}},{"type":"Feature","properties":[{"gid":"1668"},{"co_cnes":"2770679"},{"lat":"-9.42856"},{"long":"-40.52113"},{"no_fantasia":"USF CARNAIBA DO SERTAO"},{"no_logradouro":"RUA DO COMERCIO"},{"nu_endereco":"S/N"},{"no_bairro":"CARNAIBA"},{"nu_telefone":"743618-1063"},{"co_cep":"48922000"},{"uf":"BA"},{"cidade":"Juazeiro"},{"ano_ubs_det":"2016"},{"mes_ubs_det":"5"}],"geometry":{"type":"Point","coordinates":[-40.52113,-9.42856]}},{"type":"Feature","properties":[{"gid":"1822"},{"co_cnes":"2653710"},{"lat":"-11.4849354254302"},{"long":"-37.9335777751436"},{"no_fantasia":"U S F SALGADO GRANDE MARIA VIEIRA DOS SANTOS FILHA"},{"no_logradouro":"POV SALGADO GRANDE"},{"nu_endereco":"S/N"},{"no_bairro":"ZONA RURAL"},{"nu_telefone":""},{"co_cep":"48330000"},{"uf":"BA"},{"cidade":"Rio Real"},{"ano_ubs_det":"2016"},{"mes_ubs_det":"5"}],"geometry":{"type":"Point","coordinates":[-37.933577775144,-11.48493542543]}},{"type":"Feature","properties":[{"gid":"1748"},{"co_cnes":"5903793"},{"lat":"-11.2965040663489"},{"long":"-41.990930902445"},{"no_fantasia":"UNIDADE DE SAUDE DA FAMILIA DA SEDE"},{"no_logradouro":"PRACA LUIZ ROGERIO"},{"nu_endereco":"S/N"},{"no_bairro":"CENTRO"},{"nu_telefone":"74-36401010"},{"co_cep":"44930000"},{"uf":"BA"},{"cidade":"Presidente Dutra"},{"ano_ubs_det":"2016"},{"mes_ubs_det":"5"}],"geometry":{"type":"Point","coordinates":[-41.990930902445,-11.296504066349]}},{"type":"Feature","properties":[{"gid":"1756"},{"co_cnes":"2416441"},{"lat":"-14.7920808825657"},{"long":"-39.0538816204071"},{"no_fantasia":"UNIDADE DE SAUDE DA FAMILIA BASILIO II"},{"no_logradouro":"PRACA NOSSA SENHORA DE FATIMA"},{"nu_endereco":"S/N"},{"no_bairro":"BASILIO"},{"nu_telefone":"(73) 3234 1357"},{"co_cep":"45658585"},{"uf":"BA"},{"cidade":"Ilhéus"},{"ano_ubs_det":"2016"},{"mes_ubs_det":"5"}],"geometry":{"type":"Point","coordinates":[-39.053881620407,-14.792080882566]}},{"type":"Feature","properties":[{"gid":"2041"},{"co_cnes":"4596"},{"lat":"-12.949533462524"},{"long":"-38.4962439537037"},{"no_fantasia":"UBS PROF BEZERRA LOPES"},{"no_logradouro":"RUA LIMA E SILVA"},{"nu_endereco":"217"},{"no_bairro":"LIBERDADE"},{"nu_telefone":"(71) 3611-4138"},{"co_cep":"40375017"},{"uf":"BA"},{"cidade":"Salvador"},{"ano_ubs_det":"2016"},{"mes_ubs_det":"5"}],"geometry":{"type":"Point","coordinates":[-38.496243953704,-12.949533462524]}},{"type":"Feature","properties":[{"gid":"2371"},{"co_cnes":"3556360"},{"lat":"-14.2133367061611"},{"long":"-42.7681016921985"},{"no_fantasia":"UBS DR DEILSON RODRIGUES DA SILVA"},{"no_logradouro":"RUA AGENOR SANTOS"},{"nu_endereco":"S/N"},{"no_bairro":"SAO FRANCISCO"},{"nu_telefone":""},{"co_cep":"46430000"},{"uf":"BA"},{"cidade":"Guanambi"},{"ano_ubs_det":"2016"},{"mes_ubs_det":"5"}],"geometry":{"type":"Point","coordinates":[-42.768101692198,-14.213336706161]}},{"type":"Feature","properties":[{"gid":"2119"},{"co_cnes":"3895726"},{"lat":"-11.9569028341388"},{"long":"-38.9661390064385"},{"no_fantasia":"UNIDADE SAUDE DA FAMILIA DE SUCUPIRA"},{"no_logradouro":"FAZENDA SUCUPIRA"},{"nu_endereco":"S/N"},{"no_bairro":"ZONA RURAL"},{"nu_telefone":"(75)32361116"},{"co_cep":"44150000"},{"uf":"BA"},{"cidade":"Santa Bárbara"},{"ano_ubs_det":"2016"},{"mes_ubs_det":"5"}],"geometry":{"type":"Point","coordinates":[-38.966139006439,-11.956902834139]}},{"type":"Feature","properties":[{"gid":"2034"},{"co_cnes":"4030311"},{"lat":"-11.4114904403683"},{"long":"-40.127863883971"},{"no_fantasia":"CENTRO DE SAUDE DE QUIXABEIRA"},{"no_logradouro":"PRACA 21 DE ABRIL"},{"nu_endereco":"S/N"},{"no_bairro":"CENTRO"},{"nu_telefone":"7436761074"},{"co_cep":"44713000"},{"uf":"BA"},{"cidade":"Quixabeira"},{"ano_ubs_det":"2016"},{"mes_ubs_det":"5"}],"geometry":{"type":"Point","coordinates":[-40.127863883971,-11.411490440368]}},{"type":"Feature","properties":[{"gid":"2180"},{"co_cnes":"2526573"},{"lat":"-14.6732175350185"},{"long":"-39.3766093254078"},{"no_fantasia":"UNIDADE BASICA DE SAUDE DE ITAJUIPE"},{"no_logradouro":"AVENIDA DR MONTIVAL LUCAS"},{"nu_endereco":"175"},{"no_bairro":"CENTRO"},{"nu_telefone":"(73)32381296"},{"co_cep":"45630000"},{"uf":"BA"},{"cidade":"Itajuípe"},{"ano_ubs_det":"2016"},{"mes_ubs_det":"5"}],"geometry":{"type":"Point","coordinates":[-39.376609325408,-14.673217535018]}},{"type":"Feature","properties":[{"gid":"2163"},{"co_cnes":"2520052"},{"lat":"-12.6057132519817"},{"long":"-38.9687185313515"},{"no_fantasia":"UNIDADE DE SAUDE DA FAMILIA DONA VIVI"},{"no_logradouro":"AV JONIVAL LUCAS"},{"nu_endereco":"S/N"},{"no_bairro":"135"},{"nu_telefone":"7534384087"},{"co_cep":"44360000"},{"uf":"BA"},{"cidade":"São Félix"},{"ano_ubs_det":"2016"},{"mes_ubs_det":"5"}],"geometry":{"type":"Point","coordinates":[-38.968718531351,-12.605713251982]}},{"type":"Feature","properties":[{"gid":"2142"},{"co_cnes":"7036256"},{"lat":"-13.7453339657138"},{"long":"-39.487"},{"no_fantasia":"USF MATILDE ROGERIA SANTOS SANTANA"},{"no_logradouro":"RUA PARQUE TURISTICO"},{"nu_endereco":"S/N"},{"no_bairro":"DOIS DE JULHO"},{"nu_telefone":"(73) 3254-1988"},{"co_cep":"45450000"},{"uf":"BA"},{"cidade":"Gandu"},{"ano_ubs_det":"2016"},{"mes_ubs_det":"5"}],"geometry":{"type":"Point","coordinates":[-39.487,-13.745333965714]}},{"type":"Feature","properties":[{"gid":"2181"},{"co_cnes":"4033078"},{"lat":"-11.4829246317549"},{"long":"-39.0058128587129"},{"no_fantasia":"UNIDADE DE SAUDE DA FAMILIA DO SETOR"},{"no_logradouro":"POVOADO DO SETOR"},{"nu_endereco":"S/N"},{"no_bairro":"ZONA RURAL"},{"nu_telefone":"(75)32682125"},{"co_cep":"48770000"},{"uf":"BA"},{"cidade":"Teofilândia"},{"ano_ubs_det":"2016"},{"mes_ubs_det":"5"}],"geometry":{"type":"Point","coordinates":[-39.005812858713,-11.482924631755]}},{"type":"Feature","properties":[{"gid":"2234"},{"co_cnes":"2486490"},{"lat":"-14.8832666873928"},{"long":"-40.8621883392322"},{"no_fantasia":"USF DO PARQUE CONVEIMA I"},{"no_logradouro":"RUA E"},{"nu_endereco":"43"},{"no_bairro":"PATAGONIA"},{"nu_telefone":"7734228130"},{"co_cep":"45077040"},{"uf":"BA"},{"cidade":"Vitória da Conquista"},{"ano_ubs_det":"2016"},{"mes_ubs_det":"5"}],"geometry":{"type":"Point","coordinates":[-40.862188339232,-14.883266687393]}},{"type":"Feature","properties":[{"gid":"2017"},{"co_cnes":"6712819"},{"lat":"-14.685395366954"},{"long":"-41.6824426344038"},{"no_fantasia":"UNIDADE DE SAUDE DA FAMILIA SERRA ESCURA"},{"no_logradouro":"POVOADO SERRA ESCURA"},{"nu_endereco":"S/N"},{"no_bairro":"SERRA ESCURA"},{"nu_telefone":""},{"co_cep":"46250000"},{"uf":"BA"},{"cidade":"Presidente Jânio Quadros"},{"ano_ubs_det":"2016"},{"mes_ubs_det":"5"}],"geometry":{"type":"Point","coordinates":[-41.682442634404,-14.685395366954]}},{"type":"Feature","properties":[{"gid":"2028"},{"co_cnes":"2525879"},{"lat":"-13.4708417736022"},{"long":"-39.4240598299107"},{"no_fantasia":"UNIDADE DE SAUDE DA FAMILIA JOVINO SOUZA MENEZES"},{"no_logradouro":"RUA DO ACAMPAMENTO"},{"nu_endereco":"S/N"},{"no_bairro":"MOENDA"},{"nu_telefone":""},{"co_cep":"45416000"},{"uf":"BA"},{"cidade":"Presidente Tancredo Neves"},{"ano_ubs_det":"2016"},{"mes_ubs_det":"5"}],"geometry":{"type":"Point","coordinates":[-39.424059829911,-13.470841773602]}},{"type":"Feature","properties":[{"gid":"2383"},{"co_cnes":"5617049"},{"lat":"-11.7101490497586"},{"long":"-40.1535487174976"},{"no_fantasia":"UNIDADE DE SAUDE DA FAMILIA DILTON OLIVEIRA SANTOS"},{"no_logradouro":"AV SUZETE SANTOS ARAUJO"},{"nu_endereco":"S/N"},{"no_bairro":"COQUEIRO"},{"nu_telefone":"74 3632 2104"},{"co_cep":"44630000"},{"uf":"BA"},{"cidade":"Mairi"},{"ano_ubs_det":"2016"},{"mes_ubs_det":"5"}],"geometry":{"type":"Point","coordinates":[-40.153548717498,-11.710149049759]}},{"type":"Feature","properties":[{"gid":"2096"},{"co_cnes":"3368890"},{"lat":"-12.84469"},{"long":"-38.46219"},{"no_fantasia":"USF RECANTO DA LAGOA"},{"no_logradouro":"RUA SALVADOR"},{"nu_endereco":"S/N"},{"no_bairro":"FAZ COUTOS III"},{"nu_telefone":"(71) 3217-4669"},{"co_cep":"40731070"},{"uf":"BA"},{"cidade":"Salvador"},{"ano_ubs_det":"2016"},{"mes_ubs_det":"5"}],"geometry":{"type":"Point","coordinates":[-38.46219,-12.84469]}},{"type":"Feature","properties":[{"gid":"2054"},{"co_cnes":"7724276"},{"lat":"-10.9536635652688"},{"long":"-40.5434989929199"},{"no_fantasia":"UBS DE LAGOA DE CANABRAVA"},{"no_logradouro":"POV DE CANABRAVA"},{"nu_endereco":"S/N"},{"no_bairro":"CANABRAVA"},{"nu_telefone":""},{"co_cep":"44745000"},{"uf":"BA"},{"cidade":"Mirangaba"},{"ano_ubs_det":"2016"},{"mes_ubs_det":"5"}],"geometry":{"type":"Point","coordinates":[-40.54349899292,-10.953663565269]}},{"type":"Feature","properties":[{"gid":"2226"},{"co_cnes":"3360156"},{"lat":"-10.8600711822507"},{"long":"-40.2969932556141"},{"no_fantasia":"USF DR CANDIDO NOBREGA DE HOLANDA"},{"no_logradouro":"POVOADO DE ANGELIM"},{"nu_endereco":"S/N"},{"no_bairro":"ZONA RURAL"},{"nu_telefone":"(74)6332101"},{"co_cep":"44740000"},{"uf":"BA"},{"cidade":"Saúde"},{"ano_ubs_det":"2016"},{"mes_ubs_det":"5"}],"geometry":{"type":"Point","coordinates":[-40.296993255614,-10.860071182251]}},{"type":"Feature","properties":[{"gid":"2230"},{"co_cnes":"2469812"},{"lat":"-13.1150638883822"},{"long":"-38.8914186277088"},{"no_fantasia":"UNIDADE DE SAUDE DA FAMILIA DE JAGUARIPE"},{"no_logradouro":"PRACA DA BANDEIRA"},{"nu_endereco":"01"},{"no_bairro":"CENTRO"},{"nu_telefone":"(75)36422112"},{"co_cep":"44480000"},{"uf":"BA"},{"cidade":"Jaguaripe"},{"ano_ubs_det":"2016"},{"mes_ubs_det":"5"}],"geometry":{"type":"Point","coordinates":[-38.891418627709,-13.115063888382]}},{"type":"Feature","properties":[{"gid":"2370"},{"co_cnes":"2800101"},{"lat":"-12.5714528166241"},{"long":"-38.8911589312322"},{"no_fantasia":"USF CARLOS SANTOS LAGO"},{"no_logradouro":"PRACA PRINCIPAL DA MURUTUBA"},{"nu_endereco":"S/N"},{"no_bairro":"MURUTUBA"},{"nu_telefone":""},{"co_cep":"44300000"},{"uf":"BA"},{"cidade":"Cachoeira"},{"ano_ubs_det":"2016"},{"mes_ubs_det":"5"}],"geometry":{"type":"Point","coordinates":[-38.891158931232,-12.571452816624]}},{"type":"Feature","properties":[{"gid":"2094"},{"co_cnes":"4618"},{"lat":"-12.8925418853756"},{"long":"-38.4106922149647"},{"no_fantasia":"USF CAJAZEIRAS X"},{"no_logradouro":"RUA MINISTRO APOLONIO SALES RUA D QUADRA D SETOR 2"},{"nu_endereco":"S/N"},{"no_bairro":"CAJAZEIRAS X"},{"nu_telefone":"(71) 3611-5300/5301"},{"co_cep":"41340095"},{"uf":"BA"},{"cidade":"Salvador"},{"ano_ubs_det":"2016"},{"mes_ubs_det":"5"}],"geometry":{"type":"Point","coordinates":[-38.410692214965,-12.892541885376]}},{"type":"Feature","properties":[{"gid":"2122"},{"co_cnes":"2799235"},{"lat":"-12.5424196671899"},{"long":"-38.3040228585849"},{"no_fantasia":"UNIDADE DE SAUDE DA FAMILIA GILVAN FERREIRA SANTOS"},{"no_logradouro":"RUA CARLOS GOMES"},{"nu_endereco":"S/N"},{"no_bairro":"CABORE"},{"nu_telefone":"(71)6351628"},{"co_cep":"48280000"},{"uf":"BA"},{"cidade":"Mata de São João"},{"ano_ubs_det":"2016"},{"mes_ubs_det":"5"}],"geometry":{"type":"Point","coordinates":[-38.304022858585,-12.54241966719]}},{"type":"Feature","properties":[{"gid":"2267"},{"co_cnes":"3560473"},{"lat":"-13.87438"},{"long":"-40.06844"},{"no_fantasia":"USF GISERLANDO BIONDI"},{"no_logradouro":"AV SENHOR DO BOMFIM"},{"nu_endereco":"S/N"},{"no_bairro":"JEQUIEZINHO"},{"nu_telefone":"(73)3527-1871"},{"co_cep":"45208555"},{"uf":"BA"},{"cidade":"Jequié"},{"ano_ubs_det":"2016"},{"mes_ubs_det":"5"}],"geometry":{"type":"Point","coordinates":[-40.06844,-13.87438]}},{"type":"Feature","properties":[{"gid":"2262"},{"co_cnes":"5419492"},{"lat":"-12.4187631865162"},{"long":"-41.7682012410905"},{"no_fantasia":"ESFB DR JOSENAR FIGUEIREDO"},{"no_logradouro":"POVOADO BOA VISTA DA CANANEIA"},{"nu_endereco":"S/N"},{"no_bairro":"ZONA RURAL"},{"nu_telefone":"7533312211"},{"co_cep":"46900000"},{"uf":"BA"},{"cidade":"Seabra"},{"ano_ubs_det":"2016"},{"mes_ubs_det":"5"}],"geometry":{"type":"Point","coordinates":[-41.768201241091,-12.418763186516]}},{"type":"Feature","properties":[{"gid":"2236"},{"co_cnes":"4023706"},{"lat":"-10.5056615545438"},{"long":"-40.3188209870999"},{"no_fantasia":"P S DA FAMILIA DO POVOADO DE POCOS"},{"no_logradouro":"POVOADO DE POCOS"},{"nu_endereco":"1"},{"no_bairro":"CENTRO"},{"nu_telefone":"(74)645 1312"},{"co_cep":"44790000"},{"uf":"BA"},{"cidade":"Campo Formoso"},{"ano_ubs_det":"2016"},{"mes_ubs_det":"5"}],"geometry":{"type":"Point","coordinates":[-40.3188209871,-10.505661554544]}},{"type":"Feature","properties":[{"gid":"2253"},{"co_cnes":"3464474"},{"lat":"-12.7796114954469"},{"long":"-38.3828267835409"},{"no_fantasia":"UNIDADE DE SAUDE DA FAMILIA DRA VERA LUCIA CERQUEIRA"},{"no_logradouro":"AV CAMACARI"},{"nu_endereco":"S/N"},{"no_bairro":"KM 30"},{"nu_telefone":"32968590"},{"co_cep":"43700000"},{"uf":"BA"},{"cidade":"Simões Filho"},{"ano_ubs_det":"2016"},{"mes_ubs_det":"5"}],"geometry":{"type":"Point","coordinates":[-38.382826783541,-12.779611495447]}},{"type":"Feature","properties":[{"gid":"2374"},{"co_cnes":"2301083"},{"lat":"-17.5377498816811"},{"long":"-39.7445176868085"},{"no_fantasia":"PSF CACHOEIRA DO MATO"},{"no_logradouro":"RUA TIRADENTES"},{"nu_endereco":"S/N"},{"no_bairro":"CACHOEIRA DO MATO"},{"nu_telefone":""},{"co_cep":"45999000"},{"uf":"BA"},{"cidade":"Teixeira de Freitas"},{"ano_ubs_det":"2016"},{"mes_ubs_det":"5"}],"geometry":{"type":"Point","coordinates":[-39.744517686808,-17.537749881681]}},{"type":"Feature","properties":[{"gid":"2301"},{"co_cnes":"4023684"},{"lat":"-10.5080687999722"},{"long":"-40.3229784965503"},{"no_fantasia":"POSTO DE SAUDE DR PAULO SUDRE"},{"no_logradouro":"AV JOSE DA SILVA MARQUES"},{"nu_endereco":"137"},{"no_bairro":"CENTRO"},{"nu_telefone":"(74)3645 3876"},{"co_cep":"44790000"},{"uf":"BA"},{"cidade":"Campo Formoso"},{"ano_ubs_det":"2016"},{"mes_ubs_det":"5"}],"geometry":{"type":"Point","coordinates":[-40.32297849655,-10.508068799972]}},{"type":"Feature","properties":[{"gid":"2210"},{"co_cnes":"2523027"},{"lat":"-11.505326093792"},{"long":"-40.0236558829144"},{"no_fantasia":"CENTRO DE SAUDE DE SAO JOSE DO JACUIPE"},{"no_logradouro":"RUA BELA VISTA"},{"nu_endereco":"S/N"},{"no_bairro":"CENTRO"},{"nu_telefone":"(74)675 1159"},{"co_cep":"44698000"},{"uf":"BA"},{"cidade":"São José do Jacuípe"},{"ano_ubs_det":"2016"},{"mes_ubs_det":"5"}],"geometry":{"type":"Point","coordinates":[-40.023655882914,-11.505326093792]}},{"type":"Feature","properties":[{"gid":"2095"},{"co_cnes":"6777"},{"lat":"-12.9492652416225"},{"long":"-38.4741854667652"},{"no_fantasia":"USF JAQUEIRA DO CARNEIRO"},{"no_logradouro":"RUA JAQUEIRA DO CARNEIRO"},{"nu_endereco":"S/N"},{"no_bairro":"FAZENDA GRANDE DO RE"},{"nu_telefone":"(71) 3611-2967"},{"co_cep":"40353000"},{"uf":"BA"},{"cidade":"Salvador"},{"ano_ubs_det":"2016"},{"mes_ubs_det":"5"}],"geometry":{"type":"Point","coordinates":[-38.474185466765,-12.949265241623]}},{"type":"Feature","properties":[{"gid":"2237"},{"co_cnes":"6668836"},{"lat":"-10.9411051662096"},{"long":"-40.4185507431154"},{"no_fantasia":"UNIDADE BASICA DE SAUDE EDSON PEREIRA"},{"no_logradouro":"LOTEAMENTO HELIO AMORIM PEREIRA"},{"nu_endereco":"S/N"},{"no_bairro":"ALTO DA SANTA CRUZ"},{"nu_telefone":""},{"co_cep":"44740000"},{"uf":"BA"},{"cidade":"Saúde"},{"ano_ubs_det":"2016"},{"mes_ubs_det":"5"}],"geometry":{"type":"Point","coordinates":[-40.418550743115,-10.94110516621]}},{"type":"Feature","properties":[{"gid":"2100"},{"co_cnes":"3991725"},{"lat":"-13.0147719115327"},{"long":"-38.4880614840078"},{"no_fantasia":"USF PROF GUILHERME RODRIGUES DA SILVA ARENOSO"},{"no_logradouro":"RUA BARAO DE MAUA"},{"nu_endereco":"S/N"},{"no_bairro":"ARENOSO"},{"nu_telefone":"988707931"},{"co_cep":"41211340"},{"uf":"BA"},{"cidade":"Salvador"},{"ano_ubs_det":"2016"},{"mes_ubs_det":"5"}],"geometry":{"type":"Point","coordinates":[-38.488061484008,-13.014771911533]}},{"type":"Feature","properties":[{"gid":"2340"},{"co_cnes":"5346363"},{"lat":"-13.4042182497929"},{"long":"-44.1968725574679"},{"no_fantasia":"UNIDADE BASICA DE SAUDE DA FAMILIA III"},{"no_logradouro":"RUA F"},{"nu_endereco":"S/N"},{"no_bairro":"BELA VISTA"},{"nu_telefone":"77 3483-1921"},{"co_cep":"47665000"},{"uf":"BA"},{"cidade":"São Félix do Coribe"},{"ano_ubs_det":"2016"},{"mes_ubs_det":"5"}],"geometry":{"type":"Point","coordinates":[-44.196872557468,-13.404218249793]}},{"type":"Feature","properties":[{"gid":"2029"},{"co_cnes":"5149754"},{"lat":"-10.8064484596249"},{"long":"-39.0441226959217"},{"no_fantasia":"UNIDADE DE SAUDE DA FAMILIA DE LAGOA DO JUNCO"},{"no_logradouro":"POVOADO LAGOA DO JUNCO"},{"nu_endereco":"S/N"},{"no_bairro":"LAGOA DO JUNCO"},{"nu_telefone":""},{"co_cep":"48830000"},{"uf":"BA"},{"cidade":"Quijingue"},{"ano_ubs_det":"2016"},{"mes_ubs_det":"5"}],"geometry":{"type":"Point","coordinates":[-39.044122695922,-10.806448459625]}},{"type":"Feature","properties":[{"gid":"2127"},{"co_cnes":"2510863"},{"lat":"-16.3380965838172"},{"long":"-39.0131825840709"},{"no_fantasia":"UNIDADE DE SAUDE DA FAMILIA PSF 03"},{"no_logradouro":"RODOVIA BELMONTE CABRALIA BA 001"},{"nu_endereco":"18"},{"no_bairro":"SANTO ANTONIO"},{"nu_telefone":"(73) 32821256"},{"co_cep":"45807000"},{"uf":"BA"},{"cidade":"Santa Cruz Cabrália"},{"ano_ubs_det":"2016"},{"mes_ubs_det":"5"}],"geometry":{"type":"Point","coordinates":[-39.013182584071,-16.338096583817]}},{"type":"Feature","properties":[{"gid":"2022"},{"co_cnes":"4022831"},{"lat":"-12.8208228300175"},{"long":"-42.7301154012176"},{"no_fantasia":"UNIDADE PROGRAMA SAUDE DA FAMILIA DE BUCUITUBA"},{"no_logradouro":"POVOADO DE BUCUITUBA"},{"nu_endereco":"S/N"},{"no_bairro":"BUCUITUBA"},{"nu_telefone":"77-3645-2011"},{"co_cep":"46530000"},{"uf":"BA"},{"cidade":"Boquira"},{"ano_ubs_det":"2016"},{"mes_ubs_det":"5"}],"geometry":{"type":"Point","coordinates":[-42.730115401218,-12.820822830017]}},{"type":"Feature","properties":[{"gid":"2157"},{"co_cnes":"4031725"},{"lat":"-13.2813978195187"},{"long":"-44.5622634887682"},{"no_fantasia":"POSTO DE SAUDE DO MOCAMBO"},{"no_logradouro":"MOCAMBO"},{"nu_endereco":"S/N"},{"no_bairro":"ZONA RURAL"},{"nu_telefone":""},{"co_cep":"47640000"},{"uf":"BA"},{"cidade":"Santa Maria da Vitória"},{"ano_ubs_det":"2016"},{"mes_ubs_det":"5"}],"geometry":{"type":"Point","coordinates":[-44.562263488768,-13.281397819519]}},{"type":"Feature","properties":[{"gid":"2182"},{"co_cnes":"3354660"},{"lat":"-14.4266302419956"},{"long":"-41.4616853206574"},{"no_fantasia":"UNIDADE DE SAUDE DA FAMILIA POV PIABANHA"},{"no_logradouro":"POVOADO PIABANHA"},{"nu_endereco":"S/N"},{"no_bairro":"ZONA RURAL"},{"nu_telefone":"77 34462393"},{"co_cep":"46130000"},{"uf":"BA"},{"cidade":"Aracatu"},{"ano_ubs_det":"2016"},{"mes_ubs_det":"5"}],"geometry":{"type":"Point","coordinates":[-41.461685320657,-14.426630241996]}},{"type":"Feature","properties":[{"gid":"2312"},{"co_cnes":"6458343"},{"lat":"-11.8523411104563"},{"long":"-40.7887003322581"},{"no_fantasia":"UNIDADE DE SAUDE DA FAMILIA NOVA LAGOA"},{"no_logradouro":"RUA DO POCO"},{"nu_endereco":"S/N"},{"no_bairro":"CENTRO"},{"nu_telefone":"7436352728"},{"co_cep":"44840000"},{"uf":"BA"},{"cidade":"Tapiramutá"},{"ano_ubs_det":"2016"},{"mes_ubs_det":"5"}],"geometry":{"type":"Point","coordinates":[-40.788700332258,-11.852341110456]}},{"type":"Feature","properties":[{"gid":"2272"},{"co_cnes":"2532980"},{"lat":"-12.7795779705044"},{"long":"-38.3547949790943"},{"no_fantasia":"UNIDADE DE SAUDE DA FAMILIA HAMILTON VELOSO SANTANA"},{"no_logradouro":"RUA JOSE ANANIAS DE SANTANA"},{"nu_endereco":"S/N"},{"no_bairro":"GOES CALMON"},{"nu_telefone":""},{"co_cep":"43700000"},{"uf":"BA"},{"cidade":"Simões Filho"},{"ano_ubs_det":"2016"},{"mes_ubs_det":"5"}],"geometry":{"type":"Point","coordinates":[-38.354794979094,-12.779577970504]}},{"type":"Feature","properties":[{"gid":"2069"},{"co_cnes":"6963"},{"lat":"-12.8878855705257"},{"long":"-38.4688854217518"},{"no_fantasia":"USF ILHA AMARELA"},{"no_logradouro":"RUA BOA ESPERANCA"},{"nu_endereco":"S/N"},{"no_bairro":"ILHA AMARELA"},{"nu_telefone":"(71) 3611-5604"},{"co_cep":"40350000"},{"uf":"BA"},{"cidade":"Salvador"},{"ano_ubs_det":"2016"},{"mes_ubs_det":"5"}],"geometry":{"type":"Point","coordinates":[-38.468885421752,-12.887885570526]}},{"type":"Feature","properties":[{"gid":"2308"},{"co_cnes":"5285399"},{"lat":"-12.7625947392978"},{"long":"-43.9523372558921"},{"no_fantasia":"POSTO DE SAUDE DE PORTEIRAS DE SANTA CRUZ"},{"no_logradouro":"PORTEIRAS DE SANTA CRUZ"},{"nu_endereco":"S/N"},{"no_bairro":"PORTEIRAS DE SANTA C"},{"nu_telefone":"(77)3686-2080"},{"co_cep":"47740000"},{"uf":"BA"},{"cidade":"Serra Dourada"},{"ano_ubs_det":"2016"},{"mes_ubs_det":"5"}],"geometry":{"type":"Point","coordinates":[-43.952337255892,-12.762594739298]}},{"type":"Feature","properties":[{"gid":"2128"},{"co_cnes":"3934187"},{"lat":"-13.2847881317135"},{"long":"-39.8208689689625"},{"no_fantasia":"UNIDADE DE SAUDE DA FAMILIA ODORICO B MARCHI"},{"no_logradouro":"RUA DILSON GALVAO"},{"nu_endereco":"S/N"},{"no_bairro":"CENTRO"},{"nu_telefone":"73 35361523"},{"co_cep":"45320000"},{"uf":"BA"},{"cidade":"Santa Inês"},{"ano_ubs_det":"2016"},{"mes_ubs_det":"5"}],"geometry":{"type":"Point","coordinates":[-39.820868968963,-13.284788131713]}},{"type":"Feature","properties":[{"gid":"2218"},{"co_cnes":"2523094"},{"lat":"-12.7351614750528"},{"long":"-39.1948084366246"},{"no_fantasia":"USF DE PACHECO"},{"no_logradouro":"FAZENDA PACHECO"},{"nu_endereco":"S/N"},{"no_bairro":"ZONA RURAL"},{"nu_telefone":""},{"co_cep":"44530000"},{"uf":"BA"},{"cidade":"Sapeaçu"},{"ano_ubs_det":"2016"},{"mes_ubs_det":"5"}],"geometry":{"type":"Point","coordinates":[-39.194808436625,-12.735161475053]}},{"type":"Feature","properties":[{"gid":"2354"},{"co_cnes":"2466880"},{"lat":"-11.3207888603207"},{"long":"-40.1689982414234"},{"no_fantasia":"UNIDADE DE SAUDE DA FAMILIA DO JUNCO"},{"no_logradouro":"AVENIDA PRESIDENTE MEDICE"},{"nu_endereco":"S/N"},{"no_bairro":"JUNCO"},{"nu_telefone":"(74)6651233"},{"co_cep":"44700000"},{"uf":"BA"},{"cidade":"Jacobina"},{"ano_ubs_det":"2016"},{"mes_ubs_det":"5"}],"geometry":{"type":"Point","coordinates":[-40.168998241423,-11.320788860321]}},{"type":"Feature","properties":[{"gid":"2169"},{"co_cnes":"2413248"},{"lat":"-13.7679764775292"},{"long":"-42.7178798074989"},{"no_fantasia":"UNIDADE DE SAUDE DA FAMILIA DE CERQUINHA"},{"no_logradouro":"POVOADO DE CERQUINHA"},{"nu_endereco":"01"},{"no_bairro":"CERQUINHA"},{"nu_telefone":"(77)4601142"},{"co_cep":"46490000"},{"uf":"BA"},{"cidade":"Igaporã"},{"ano_ubs_det":"2016"},{"mes_ubs_det":"5"}],"geometry":{"type":"Point","coordinates":[-42.717879807499,-13.767976477529]}},{"type":"Feature","properties":[{"gid":"2076"},{"co_cnes":"3339181"},{"lat":"-13.0147719115327"},{"long":"-38.4880614840078"},{"no_fantasia":"USF FAZENDA COUTOS II"},{"no_logradouro":"RUA CRISTOVAO BARRETO DE ARAUJO"},{"nu_endereco":"S/N"},{"no_bairro":"FAZENDA COUTOS III"},{"nu_telefone":"(71) 3521-7005"},{"co_cep":"40731165"},{"uf":"BA"},{"cidade":"Salvador"},{"ano_ubs_det":"2016"},{"mes_ubs_det":"5"}],"geometry":{"type":"Point","coordinates":[-38.488061484008,-13.014771911533]}},{"type":"Feature","properties":[{"gid":"2159"},{"co_cnes":"6073956"},{"lat":"-12.428893228861"},{"long":"-39.2531902035138"},{"no_fantasia":"USF AFONSO MIRANDA CABRAL"},{"no_logradouro":"AV RIO BAHIA"},{"nu_endereco":"S/N"},{"no_bairro":"CENTRO"},{"nu_telefone":""},{"co_cep":"44190000"},{"uf":"BA"},{"cidade":"Santo Estêvão"},{"ano_ubs_det":"2016"},{"mes_ubs_det":"5"}],"geometry":{"type":"Point","coordinates":[-39.253190203514,-12.428893228861]}},{"type":"Feature","properties":[{"gid":"2320"},{"co_cnes":"2388286"},{"lat":"-11.3815744576448"},{"long":"-40.0110006117174"},{"no_fantasia":"SEMO SERVICOS MEDICO ODONTOLOGICO"},{"no_logradouro":"PRACA 09 DE MAIO"},{"nu_endereco":"S/N"},{"no_bairro":"NOVO HORIZONTE"},{"nu_telefone":"74 3651-0201"},{"co_cep":"44695000"},{"uf":"BA"},{"cidade":"Capim Grosso"},{"ano_ubs_det":"2016"},{"mes_ubs_det":"5"}],"geometry":{"type":"Point","coordinates":[-40.011000611717,-11.381574457645]}},{"type":"Feature","properties":[{"gid":"2219"},{"co_cnes":"2523108"},{"lat":"-12.6581811904904"},{"long":"-39.2275643348682"},{"no_fantasia":"USF DE MURICI"},{"no_logradouro":"FAZENDA MURICI"},{"nu_endereco":"S/N"},{"no_bairro":"ZONA RURAL"},{"nu_telefone":""},{"co_cep":"44530000"},{"uf":"BA"},{"cidade":"Sapeaçu"},{"ano_ubs_det":"2016"},{"mes_ubs_det":"5"}],"geometry":{"type":"Point","coordinates":[-39.227564334868,-12.65818119049]}},{"type":"Feature","properties":[{"gid":"2392"},{"co_cnes":"2301245"},{"lat":"-17.5377498816811"},{"long":"-39.7445176868085"},{"no_fantasia":"PSF LIBERDADE"},{"no_logradouro":"RUA ARABIA"},{"nu_endereco":"S/N"},{"no_bairro":"LIBERDADE"},{"nu_telefone":""},{"co_cep":"45993410"},{"uf":"BA"},{"cidade":"Teixeira de Freitas"},{"ano_ubs_det":"2016"},{"mes_ubs_det":"5"}],"geometry":{"type":"Point","coordinates":[-39.744517686808,-17.537749881681]}},{"type":"Feature","properties":[{"gid":"2081"},{"co_cnes":"2509296"},{"lat":"-9.61618065834018"},{"long":"-42.0780014991748"},{"no_fantasia":"UNIDADE DE SAUDE DA FAMILIA DR MARCELINO RIBEIRO"},{"no_logradouro":"RUA CEL JOSE DO CARMO"},{"nu_endereco":"S/N"},{"no_bairro":"CENTRO"},{"nu_telefone":"(74)5351422"},{"co_cep":"47200000"},{"uf":"BA"},{"cidade":"Remanso"},{"ano_ubs_det":"2016"},{"mes_ubs_det":"5"}],"geometry":{"type":"Point","coordinates":[-42.078001499175,-9.6161806583402]}},{"type":"Feature","properties":[{"gid":"2283"},{"co_cnes":"3871746"},{"lat":"-16.2959559"},{"long":"-39.0528517"},{"no_fantasia":"UNIDADE DE SAUDE DA FAMILIA PSF 08"},{"no_logradouro":"POVOADO LARANJEIRAS"},{"nu_endereco":"S/N"},{"no_bairro":"RIO DO SUL"},{"nu_telefone":"(73)3282-1256"},{"co_cep":"45807000"},{"uf":"BA"},{"cidade":"Santa Cruz Cabrália"},{"ano_ubs_det":"2016"},{"mes_ubs_det":"5"}],"geometry":{"type":"Point","coordinates":[-39.0528517,-16.2959559]}},{"type":"Feature","properties":[{"gid":"2040"},{"co_cnes":"5460379"},{"lat":"-13.128151502317"},{"long":"-42.2911497397423"},{"no_fantasia":"UNIDADE BASICA DE SAUDE DA SEDE 4"},{"no_logradouro":"RUA TIBERIO NEVES"},{"nu_endereco":"S/N"},{"no_bairro":"CENTRO"},{"nu_telefone":"7736782378"},{"co_cep":"46550000"},{"uf":"BA"},{"cidade":"Rio do Pires"},{"ano_ubs_det":"2016"},{"mes_ubs_det":"5"}],"geometry":{"type":"Point","coordinates":[-42.291149739742,-13.128151502317]}},{"type":"Feature","properties":[{"gid":"2388"},{"co_cnes":"2412659"},{"lat":"-14.2143237590786"},{"long":"-42.7944731712329"},{"no_fantasia":"UBS DR GILENO PEREIRA DONATO"},{"no_logradouro":"PRACA ANTONIO ARAUJO"},{"nu_endereco":"S/N"},{"no_bairro":"ALVORADA"},{"nu_telefone":"(77)4513601"},{"co_cep":"46430000"},{"uf":"BA"},{"cidade":"Guanambi"},{"ano_ubs_det":"2016"},{"mes_ubs_det":"5"}],"geometry":{"type":"Point","coordinates":[-42.794473171233,-14.214323759079]}},{"type":"Feature","properties":[{"gid":"2101"},{"co_cnes":"6388280"},{"lat":"-12.8839480876919"},{"long":"-38.4778976440419"},{"no_fantasia":"USF ALTO DA TEREZINHA"},{"no_logradouro":"LADEIRA DA TEREZINHA"},{"nu_endereco":"S/N"},{"no_bairro":"ALTO DA TEREZINHA"},{"nu_telefone":"36115916"},{"co_cep":"40711060"},{"uf":"BA"},{"cidade":"Salvador"},{"ano_ubs_det":"2016"},{"mes_ubs_det":"5"}],"geometry":{"type":"Point","coordinates":[-38.477897644042,-12.883948087692]}},{"type":"Feature","properties":[{"gid":"2138"},{"co_cnes":"7096267"},{"lat":"-10.507662434772"},{"long":"-39.0090218200684"},{"no_fantasia":"UNIDADE DE SAUDE DA FAMILIA DUDA MACARIO"},{"no_logradouro":"RUA JOSE ROSALVO TORQUATO DE ARAUJO"},{"nu_endereco":"S/N"},{"no_bairro":"DUDA MACARIO"},{"nu_telefone":""},{"co_cep":"48500000"},{"uf":"BA"},{"cidade":"Euclides da Cunha"},{"ano_ubs_det":"2016"},{"mes_ubs_det":"5"}],"geometry":{"type":"Point","coordinates":[-39.009021820068,-10.507662434772]}},{"type":"Feature","properties":[{"gid":"2377"},{"co_cnes":"2771160"},{"lat":"-15.4146204"},{"long":"-39.4923017"},{"no_fantasia":"USF ANIBAL DE HOLANDA CAVALCANTE"},{"no_logradouro":"RUA BELA VISTA"},{"nu_endereco":"S/N"},{"no_bairro":"LEOVENTURA"},{"nu_telefone":""},{"co_cep":"45880000"},{"uf":"BA"},{"cidade":"Camacan"},{"ano_ubs_det":"2016"},{"mes_ubs_det":"5"}],"geometry":{"type":"Point","coordinates":[-39.4923017,-15.4146204]}},{"type":"Feature","properties":[{"gid":"2068"},{"co_cnes":"6429947"},{"lat":"-13.0147719115327"},{"long":"-38.4880614840078"},{"no_fantasia":"USF BATE CORACAO"},{"no_logradouro":"RUA JURACI MAGALHAES JUNIOR"},{"nu_endereco":"S/N"},{"no_bairro":"PARIPE"},{"nu_telefone":"(71) 3261-0120"},{"co_cep":"41750300"},{"uf":"BA"},{"cidade":"Salvador"},{"ano_ubs_det":"2016"},{"mes_ubs_det":"5"}],"geometry":{"type":"Point","coordinates":[-38.488061484008,-13.014771911533]}},{"type":"Feature","properties":[{"gid":"2164"},{"co_cnes":"2523175"},{"lat":"-11.2267073342793"},{"long":"-41.8742692011285"},{"no_fantasia":"UBSF ANTONIO MATEUS AMORIM GAMELEIRA DO JACARE"},{"no_logradouro":"POVOADO DE GAMELEIRA DO JACARE"},{"nu_endereco":"S/N"},{"no_bairro":"POVOADO"},{"nu_telefone":""},{"co_cep":"44915000"},{"uf":"BA"},{"cidade":"São Gabriel"},{"ano_ubs_det":"2016"},{"mes_ubs_det":"5"}],"geometry":{"type":"Point","coordinates":[-41.874269201128,-11.226707334279]}},{"type":"Feature","properties":[{"gid":"2389"},{"co_cnes":"2524759"},{"lat":"-11.8472099304196"},{"long":"-40.6285786628711"},{"no_fantasia":"POSTO DE SAUDE DE INGAZEIRA"},{"no_logradouro":"DISTRITO INGAZEIRA"},{"nu_endereco":"S/N"},{"no_bairro":"INGAZEIRA"},{"nu_telefone":"(74) 6352194"},{"co_cep":"44840000"},{"uf":"BA"},{"cidade":"Tapiramutá"},{"ano_ubs_det":"2016"},{"mes_ubs_det":"5"}],"geometry":{"type":"Point","coordinates":[-40.628578662871,-11.84720993042]}},{"type":"Feature","properties":[{"gid":"2130"},{"co_cnes":"3365654"},{"lat":"-12.3313593864437"},{"long":"-38.8799929618824"},{"no_fantasia":"ESF DO FULO"},{"no_logradouro":"POVOADO FULO HUMILDES"},{"nu_endereco":"S/N"},{"no_bairro":"HUMILDES"},{"nu_telefone":"7536046088"},{"co_cep":"44033095"},{"uf":"BA"},{"cidade":"Feira de Santana"},{"ano_ubs_det":"2016"},{"mes_ubs_det":"5"}],"geometry":{"type":"Point","coordinates":[-38.879992961882,-12.331359386444]}},{"type":"Feature","properties":[{"gid":"2255"},{"co_cnes":"2597543"},{"lat":"-11.0332667827603"},{"long":"-38.795449733733"},{"no_fantasia":"CENTRO DE SAUDE DE CALDAS DO JORRO"},{"no_logradouro":"PRACA ACM"},{"nu_endereco":"S/N"},{"no_bairro":"CALDAS DO JORRO"},{"nu_telefone":"(75)256 1291"},{"co_cep":"48790000"},{"uf":"BA"},{"cidade":"Tucano"},{"ano_ubs_det":"2016"},{"mes_ubs_det":"5"}],"geometry":{"type":"Point","coordinates":[-38.795449733733,-11.03326678276]}},{"type":"Feature","properties":[{"gid":"2284"},{"co_cnes":"3011364"},{"lat":"-11.8234569896618"},{"long":"-39.6095238571167"},{"no_fantasia":"UNIDADE BASICA DE SAUDE DE PE DE SERRA"},{"no_logradouro":"RUA JORGE LUIS DE OLIVEIRA SANTANA"},{"nu_endereco":"S/N"},{"no_bairro":"CENTRO"},{"nu_telefone":""},{"co_cep":"44655000"},{"uf":"BA"},{"cidade":"Pé de Serra"},{"ano_ubs_det":"2016"},{"mes_ubs_det":"5"}],"geometry":{"type":"Point","coordinates":[-39.609523857117,-11.823456989662]}},{"type":"Feature","properties":[{"gid":"2269"},{"co_cnes":"2415852"},{"lat":"-14.8059287537374"},{"long":"-39.0455667724609"},{"no_fantasia":"UNIDADE DE SAUDE DA FAMILIA N S DA VITORIA I"},{"no_logradouro":"RODOVIA PONTAL BUERAREMA"},{"nu_endereco":"S/N"},{"no_bairro":"NOSSA SENHORA DAL VI"},{"nu_telefone":"(73) 3632-7955"},{"co_cep":"45655510"},{"uf":"BA"},{"cidade":"Ilhéus"},{"ano_ubs_det":"2016"},{"mes_ubs_det":"5"}],"geometry":{"type":"Point","coordinates":[-39.045566772461,-14.805928753737]}},{"type":"Feature","properties":[{"gid":"2276"},{"co_cnes":"2493683"},{"lat":"-11.8174695968625"},{"long":"-40.1697278022754"},{"no_fantasia":"UNIDADE DE SAUDE DA FAMILIA MOURIVAL FERREIRA LIMA"},{"no_logradouro":"POVOADO DE PONTO DE MAIRI"},{"nu_endereco":"S/N"},{"no_bairro":"POV PONTO DE MAIRI"},{"nu_telefone":"740999877182"},{"co_cep":"44630000"},{"uf":"BA"},{"cidade":"Mairi"},{"ano_ubs_det":"2016"},{"mes_ubs_det":"5"}],"geometry":{"type":"Point","coordinates":[-40.169727802275,-11.817469596862]}},{"type":"Feature","properties":[{"gid":"2035"},{"co_cnes":"2800632"},{"lat":"-12.9845631122585"},{"long":"-42.2224974632251"},{"no_fantasia":"UNIDADE DE SAUDE DA FAMILIA DE IBIAJARA"},{"no_logradouro":"POVOADO DE IBIAJARA"},{"nu_endereco":"9999"},{"no_bairro":"ZONA RURAL"},{"nu_telefone":"(77)36932378"},{"co_cep":"46550000"},{"uf":"BA"},{"cidade":"Rio do Pires"},{"ano_ubs_det":"2016"},{"mes_ubs_det":"5"}],"geometry":{"type":"Point","coordinates":[-42.222497463225,-12.984563112259]}},{"type":"Feature","properties":[{"gid":"2149"},{"co_cnes":"2510251"},{"lat":"-13.2976198196407"},{"long":"-39.8235940933216"},{"no_fantasia":"UNIDADE DE SAUDE DR CARLOS CAJAZEIRA"},{"no_logradouro":"RUA 25 DE DEZEMBRO"},{"nu_endereco":"S/N"},{"no_bairro":"CENTRO"},{"nu_telefone":"(73)5361523"},{"co_cep":"45320000"},{"uf":"BA"},{"cidade":"Santa Inês"},{"ano_ubs_det":"2016"},{"mes_ubs_det":"5"}],"geometry":{"type":"Point","coordinates":[-39.823594093322,-13.297619819641]}},{"type":"Feature","properties":[{"gid":"2322"},{"co_cnes":"6496466"},{"lat":"-14.9468709101065"},{"long":"-41.7248658272753"},{"no_fantasia":"UNIDADE DE SAUDE DA FAMILIA MATINHA"},{"no_logradouro":"FAZ MATINHA"},{"nu_endereco":"S/N"},{"no_bairro":"ZONA RURAL"},{"nu_telefone":"(77)34402133"},{"co_cep":"46270000"},{"uf":"BA"},{"cidade":"Piripá"},{"ano_ubs_det":"2016"},{"mes_ubs_det":"5"}],"geometry":{"type":"Point","coordinates":[-41.724865827275,-14.946870910106]}},{"type":"Feature","properties":[{"gid":"2375"},{"co_cnes":"3741117"},{"lat":"-11.9669722306045"},{"long":"-39.1377100028992"},{"no_fantasia":"UBS DR ADELINO COSTA DOREA"},{"no_logradouro":"RUA 14 DE AGOSTO"},{"nu_endereco":"S/N"},{"no_bairro":"CENTRO"},{"nu_telefone":""},{"co_cep":"44160000"},{"uf":"BA"},{"cidade":"Tanquinho"},{"ano_ubs_det":"2016"},{"mes_ubs_det":"5"}],"geometry":{"type":"Point","coordinates":[-39.137710002899,-11.966972230604]}},{"type":"Feature","properties":[{"gid":"2287"},{"co_cnes":"2771977"},{"lat":"-14.2147958278652"},{"long":"-41.6723656654346"},{"no_fantasia":"UNIDADE DE SAUDE DA FAMILIA DR PAULO VARGAS"},{"no_logradouro":"PRACA JOAO ROMAO"},{"nu_endereco":"50"},{"no_bairro":"DR JURACY"},{"nu_telefone":"(77) 34412178"},{"co_cep":"46100000"},{"uf":"BA"},{"cidade":"Brumado"},{"ano_ubs_det":"2016"},{"mes_ubs_det":"5"}],"geometry":{"type":"Point","coordinates":[-41.672365665435,-14.214795827865]}},{"type":"Feature","properties":[{"gid":"2372"},{"co_cnes":"4032888"},{"lat":"-11.8523411104563"},{"long":"-40.7887003322581"},{"no_fantasia":"UNIDADE DE SAUDE DA FAMILIA RUA NOVA"},{"no_logradouro":"RUA ITAIPU"},{"nu_endereco":"S/N"},{"no_bairro":"CENTRO"},{"nu_telefone":"(74) 6352193"},{"co_cep":"44840000"},{"uf":"BA"},{"cidade":"Tapiramutá"},{"ano_ubs_det":"2016"},{"mes_ubs_det":"5"}],"geometry":{"type":"Point","coordinates":[-40.788700332258,-11.852341110456]}},{"type":"Feature","properties":[{"gid":"2172"},{"co_cnes":"2498138"},{"lat":"-13.0038942044712"},{"long":"-41.3732130118668"},{"no_fantasia":"UNIDADE DE SAUDE DA FAMILIA DE GUINE"},{"no_logradouro":"VILA DE GUINE"},{"nu_endereco":"S/N"},{"no_bairro":"VILA"},{"nu_telefone":"(75)3382112"},{"co_cep":"46750000"},{"uf":"BA"},{"cidade":"Mucugê"},{"ano_ubs_det":"2016"},{"mes_ubs_det":"5"}],"geometry":{"type":"Point","coordinates":[-41.373213011867,-13.003894204471]}},{"type":"Feature","properties":[{"gid":"2342"},{"co_cnes":"3443140"},{"lat":"-11.8513083457943"},{"long":"-40.785605907439"},{"no_fantasia":"USF RAIMUNDO FERREIRO"},{"no_logradouro":"AVENIDA CAFEEIRA"},{"nu_endereco":"S/N"},{"no_bairro":"CENTRO"},{"nu_telefone":"(74)36352194"},{"co_cep":"44840000"},{"uf":"BA"},{"cidade":"Tapiramutá"},{"ano_ubs_det":"2016"},{"mes_ubs_det":"5"}],"geometry":{"type":"Point","coordinates":[-40.785605907439,-11.851308345794]}},{"type":"Feature","properties":[{"gid":"2286"},{"co_cnes":"2413647"},{"lat":"-13.2436001300808"},{"long":"-40.0808072090137"},{"no_fantasia":"U S F ALFREDO VIEIRA LIMA IPAUATE"},{"no_logradouro":"RUA DO POSTO"},{"nu_endereco":"S/N"},{"no_bairro":"IPAUATE"},{"nu_telefone":"7335482129"},{"co_cep":"45370000"},{"uf":"BA"},{"cidade":"Irajuba"},{"ano_ubs_det":"2016"},{"mes_ubs_det":"5"}],"geometry":{"type":"Point","coordinates":[-40.080807209014,-13.243600130081]}},{"type":"Feature","properties":[{"gid":"2313"},{"co_cnes":"5991269"},{"lat":"-13.5465603206792"},{"long":"-42.4906125114981"},{"no_fantasia":"UNIDADE BASICA DE SAUDE DA FAMILIA DE ALTO DOS COQUEIROS"},{"no_logradouro":"RUA ALTO DOS COQUEIROS"},{"nu_endereco":"S/N"},{"no_bairro":"ALTO DOS COQUEIROS"},{"nu_telefone":"77/3695-1226"},{"co_cep":"46580000"},{"uf":"BA"},{"cidade":"Tanque Novo"},{"ano_ubs_det":"2016"},{"mes_ubs_det":"5"}],"geometry":{"type":"Point","coordinates":[-42.490612511498,-13.546560320679]}},{"type":"Feature","properties":[{"gid":"2783"},{"co_cnes":"2387522"},{"lat":"-13.945396383091"},{"long":"-39.1034746170044"},{"no_fantasia":"UNIDADE DE SAUDE DA FAMILIA DE ILHA GRANDE E CAJAIBA"},{"no_logradouro":"PRACA SAO JOAO"},{"nu_endereco":"15"},{"no_bairro":"POVOADO DE ILHA GRAN"},{"nu_telefone":""},{"co_cep":"45445000"},{"uf":"BA"},{"cidade":"Camamu"},{"ano_ubs_det":"2016"},{"mes_ubs_det":"5"}],"geometry":{"type":"Point","coordinates":[-39.103474617004,-13.945396383091]}},{"type":"Feature","properties":[{"gid":"2454"},{"co_cnes":"3030245"},{"lat":"-11.4316821098324"},{"long":"-39.3768453598011"},{"no_fantasia":"POSTO DE SAUDE VARGINHA DA SERRA"},{"no_logradouro":"FAZENDA VARGINHA DO PEIXE"},{"nu_endereco":"S/N"},{"no_bairro":"ZONA RURAL"},{"nu_telefone":"(75) 2632521"},{"co_cep":"48890000"},{"uf":"BA"},{"cidade":"Valente"},{"ano_ubs_det":"2016"},{"mes_ubs_det":"5"}],"geometry":{"type":"Point","coordinates":[-39.376845359801,-11.431682109832]}},{"type":"Feature","properties":[{"gid":"2571"},{"co_cnes":"2598523"},{"lat":"-14.8501253128047"},{"long":"-41.0396218299854"},{"no_fantasia":"USF DE SAO JOAQUIM"},{"no_logradouro":"POVOADO DE SAO JOAQUIM"},{"nu_endereco":"S/N"},{"no_bairro":"ZONA RURAL"},{"nu_telefone":"7734248939"},{"co_cep":"45065000"},{"uf":"BA"},{"cidade":"Vitória da Conquista"},{"ano_ubs_det":"2016"},{"mes_ubs_det":"5"}],"geometry":{"type":"Point","coordinates":[-41.039621829985,-14.850125312805]}},{"type":"Feature","properties":[{"gid":"2475"},{"co_cnes":"2492849"},{"lat":"-12.7360618114468"},{"long":"-38.6076521873463"},{"no_fantasia":"UNIDADE DE SAUDE DA FAMILIA DO SUAPE"},{"no_logradouro":"RUA BRASILIA 002 TERREO DO COMPLEXO MUNICIPAL DE SAUDE"},{"nu_endereco":"001"},{"no_bairro":"SUAPE"},{"nu_telefone":"(71)36044851"},{"co_cep":"42600000"},{"uf":"BA"},{"cidade":"Madre de Deus"},{"ano_ubs_det":"2016"},{"mes_ubs_det":"5"}],"geometry":{"type":"Point","coordinates":[-38.607652187346,-12.736061811447]}},{"type":"Feature","properties":[{"gid":"2552"},{"co_cnes":"2532654"},{"lat":"-11.3351869583127"},{"long":"-41.9310808181751"},{"no_fantasia":"UNIDADE DE SAUDE DA FAMILIA ANA MENDES RAMOS"},{"no_logradouro":"RUA SEVERIANO NUNES"},{"nu_endereco":"101"},{"no_bairro":"POVOADO DE ITAPICURU"},{"nu_telefone":""},{"co_cep":"44900000"},{"uf":"BA"},{"cidade":"Irecê"},{"ano_ubs_det":"2016"},{"mes_ubs_det":"5"}],"geometry":{"type":"Point","coordinates":[-41.931080818175,-11.335186958313]}},{"type":"Feature","properties":[{"gid":"2770"},{"co_cnes":"6288839"},{"lat":"-9.47266101837131"},{"long":"-40.7980728149402"},{"no_fantasia":"ESF QUADRA S 17 SANCHA MOREIRA CRUZ"},{"no_logradouro":"RUA 03 QUADRA S 17"},{"nu_endereco":"S/N"},{"no_bairro":"VILA SAO JOAQUIM"},{"nu_telefone":""},{"co_cep":"48925000"},{"uf":"BA"},{"cidade":"Sobradinho"},{"ano_ubs_det":"2016"},{"mes_ubs_det":"5"}],"geometry":{"type":"Point","coordinates":[-40.79807281494,-9.4726610183713]}},{"type":"Feature","properties":[{"gid":"2479"},{"co_cnes":"2487713"},{"lat":"-14.8792755603786"},{"long":"-40.8806204795826"},{"no_fantasia":"USF DO JARDIM VALERIA"},{"no_logradouro":"RUA IBIACUSSE"},{"nu_endereco":"S/N"},{"no_bairro":"JATOBA"},{"nu_telefone":"7734248126"},{"co_cep":"45066268"},{"uf":"BA"},{"cidade":"Vitória da Conquista"},{"ano_ubs_det":"2016"},{"mes_ubs_det":"5"}],"geometry":{"type":"Point","coordinates":[-40.880620479583,-14.879275560379]}},{"type":"Feature","properties":[{"gid":"2440"},{"co_cnes":"2301024"},{"lat":"-17.5377498816811"},{"long":"-39.7445176868085"},{"no_fantasia":"PSF SANTO ANTONIO"},{"no_logradouro":"AVENIDA GETULIO VARGAS"},{"nu_endereco":"S/N"},{"no_bairro":"DIST SANTO ANTONIO"},{"nu_telefone":"(73)2297168"},{"co_cep":"45998970"},{"uf":"BA"},{"cidade":"Teixeira de Freitas"},{"ano_ubs_det":"2016"},{"mes_ubs_det":"5"}],"geometry":{"type":"Point","coordinates":[-39.744517686808,-17.537749881681]}},{"type":"Feature","properties":[{"gid":"2557"},{"co_cnes":"2800438"},{"lat":"-13.3859456681805"},{"long":"-42.5260162353516"},{"no_fantasia":"POSTO DE SAUDE DE TAQUARIL"},{"no_logradouro":"POVOADO TAQUARIL"},{"nu_endereco":"S/N"},{"no_bairro":"ZONA RURAL"},{"nu_telefone":"77/3678-2191"},{"co_cep":"46570000"},{"uf":"BA"},{"cidade":"Botuporã"},{"ano_ubs_det":"2016"},{"mes_ubs_det":"5"}],"geometry":{"type":"Point","coordinates":[-42.526016235352,-13.385945668181]}},{"type":"Feature","properties":[{"gid":"2602"},{"co_cnes":"5975190"},{"lat":"-13.855664007664"},{"long":"-40.0886073274763"},{"no_fantasia":"USF VIRGILIO DE PAULA TOURINHO NETO"},{"no_logradouro":"RUA PARAISO"},{"nu_endereco":"S/N"},{"no_bairro":"CIDADE NOVA"},{"nu_telefone":"(73)3527-8575"},{"co_cep":"45201580"},{"uf":"BA"},{"cidade":"Jequié"},{"ano_ubs_det":"2016"},{"mes_ubs_det":"5"}],"geometry":{"type":"Point","coordinates":[-40.088607327476,-13.855664007664]}},{"type":"Feature","properties":[{"gid":"2614"},{"co_cnes":"3266877"},{"lat":"-10.9562659263608"},{"long":"-38.3650946617115"},{"no_fantasia":"UNIDADE DE SAUDE DA FAMILIA PIMENTEL"},{"no_logradouro":"FAZENDA PIMENTEL"},{"nu_endereco":"05"},{"no_bairro":"ZONA RURAL"},{"nu_telefone":""},{"co_cep":"48440000"},{"uf":"BA"},{"cidade":"Ribeira do Amparo"},{"ano_ubs_det":"2016"},{"mes_ubs_det":"5"}],"geometry":{"type":"Point","coordinates":[-38.365094661712,-10.956265926361]}},{"type":"Feature","properties":[{"gid":"2750"},{"co_cnes":"5371295"},{"lat":"-13.7612250392523"},{"long":"-39.3745221879491"},{"no_fantasia":"USF DR ROSEMBERT MAMEDIO DA SILVA"},{"no_logradouro":"RUA RUY BARBOSA"},{"nu_endereco":"0000000000"},{"no_bairro":"CENTRO"},{"nu_telefone":"(73) 3688 - 2104"},{"co_cep":"45436000"},{"uf":"BA"},{"cidade":"Piraí do Norte"},{"ano_ubs_det":"2016"},{"mes_ubs_det":"5"}],"geometry":{"type":"Point","coordinates":[-39.374522187949,-13.761225039252]}},{"type":"Feature","properties":[{"gid":"2429"},{"co_cnes":"4022106"},{"lat":"-11.9376111030575"},{"long":"-40.2381777763355"},{"no_fantasia":"POSTO DE SAUDE DO TABULEIRO"},{"no_logradouro":"POV DO TABULEIRO"},{"nu_endereco":"S/N"},{"no_bairro":"ZONA RURAL"},{"nu_telefone":"(74)258 1233"},{"co_cep":"44620000"},{"uf":"BA"},{"cidade":"Baixa Grande"},{"ano_ubs_det":"2016"},{"mes_ubs_det":"5"}],"geometry":{"type":"Point","coordinates":[-40.238177776335,-11.937611103058]}},{"type":"Feature","properties":[{"gid":"2503"},{"co_cnes":"6321089"},{"lat":"-12.9047942161556"},{"long":"-41.2361097335803"},{"no_fantasia":"UNIDADE DE SAUDE DA FAMILIA FORCA DA UNIAO"},{"no_logradouro":"POVOADO ASSENTAMENTO MOCAMBO"},{"nu_endereco":"S/N"},{"no_bairro":"ZONA RURAL"},{"nu_telefone":"(75) 98153-2642"},{"co_cep":"46830000"},{"uf":"BA"},{"cidade":"Andaraí"},{"ano_ubs_det":"2016"},{"mes_ubs_det":"5"}],"geometry":{"type":"Point","coordinates":[-41.23610973358,-12.904794216156]}},{"type":"Feature","properties":[{"gid":"2530"},{"co_cnes":"2526174"},{"lat":"-17.1908148616125"},{"long":"-39.982763767215"},{"no_fantasia":"POSTO DE SAUDE DE SAO JOSE DE VEREDA"},{"no_logradouro":"RUA PRINCIPAL"},{"nu_endereco":"S/N"},{"no_bairro":"POV SAO J DE VERED"},{"nu_telefone":""},{"co_cep":"45955000"},{"uf":"BA"},{"cidade":"Vereda"},{"ano_ubs_det":"2016"},{"mes_ubs_det":"5"}],"geometry":{"type":"Point","coordinates":[-39.982763767215,-17.190814861612]}},{"type":"Feature","properties":[{"gid":"2528"},{"co_cnes":"6800017"},{"lat":"-12.0337039631625"},{"long":"-38.7716507783794"},{"no_fantasia":"USF MATILDE MADALENA DE JESUS"},{"no_logradouro":"FAZENDA SANTO ANTONIO"},{"nu_endereco":"S/N"},{"no_bairro":"ZONA RURAL"},{"nu_telefone":""},{"co_cep":"44255000"},{"uf":"BA"},{"cidade":"Irará"},{"ano_ubs_det":"2016"},{"mes_ubs_det":"5"}],"geometry":{"type":"Point","coordinates":[-38.771650778379,-12.033703963163]}},{"type":"Feature","properties":[{"gid":"2587"},{"co_cnes":"2402297"},{"lat":"-13.7472438812252"},{"long":"-39.4864511489857"},{"no_fantasia":"UNIDADE DE SAUDE DA FAMILIA JOSE MIGUEL MACHADO"},{"no_logradouro":"RUA REINAN BALLEIRO"},{"nu_endereco":"0"},{"no_bairro":"CENTRO"},{"nu_telefone":"(73)3254-1988"},{"co_cep":"45450000"},{"uf":"BA"},{"cidade":"Gandu"},{"ano_ubs_det":"2016"},{"mes_ubs_det":"5"}],"geometry":{"type":"Point","coordinates":[-39.486451148986,-13.747243881225]}},{"type":"Feature","properties":[{"gid":"2794"},{"co_cnes":"2483246"},{"lat":"-13.5129503420972"},{"long":"-41.5901420145899"},{"no_fantasia":"UNIDADE DE SAUDE DA FAMILIA DE ESPINHO"},{"no_logradouro":"POVOADO ESPINHO"},{"nu_endereco":"S/N"},{"no_bairro":"ZONA RURAL"},{"nu_telefone":""},{"co_cep":"46670000"},{"uf":"BA"},{"cidade":"Jussiape"},{"ano_ubs_det":"2016"},{"mes_ubs_det":"5"}],"geometry":{"type":"Point","coordinates":[-41.59014201459,-13.512950342097]}},{"type":"Feature","properties":[{"gid":"2682"},{"co_cnes":"2413159"},{"lat":"-12.6501433"},{"long":"-42.2177928"},{"no_fantasia":"ESFSB LAGOA DO DIONISIO"},{"no_logradouro":"POVOADO LAGOA DO DIONISIO"},{"nu_endereco":"S/N"},{"no_bairro":"ZONA RURAL"},{"nu_telefone":"(77)36472155"},{"co_cep":"46700000"},{"uf":"BA"},{"cidade":"Ibitiara"},{"ano_ubs_det":"2016"},{"mes_ubs_det":"5"}],"geometry":{"type":"Point","coordinates":[-42.2177928,-12.6501433]}},{"type":"Feature","properties":[{"gid":"2445"},{"co_cnes":"3021610"},{"lat":"-14.59177"},{"long":"-39.2845"},{"no_fantasia":"USF DO CENTRO"},{"no_logradouro":"RUA ADRENAL LEAL"},{"nu_endereco":"56"},{"no_bairro":"CENTRO"},{"nu_telefone":"(73)2392003"},{"co_cep":"45680000"},{"uf":"BA"},{"cidade":"Uruçuca"},{"ano_ubs_det":"2016"},{"mes_ubs_det":"5"}],"geometry":{"type":"Point","coordinates":[-39.2845,-14.59177]}},{"type":"Feature","properties":[{"gid":"2787"},{"co_cnes":"4023544"},{"lat":"-11.0205007653512"},{"long":"-40.3007698059082"},{"no_fantasia":"CENTRO DE SAUDE DE CALDEIRAO GRANDE"},{"no_logradouro":"PRACA CASTRO ALVES"},{"nu_endereco":"S/N"},{"no_bairro":"CENTRO"},{"nu_telefone":"(74)6342115"},{"co_cep":"44750000"},{"uf":"BA"},{"cidade":"Caldeirão Grande"},{"ano_ubs_det":"2016"},{"mes_ubs_det":"5"}],"geometry":{"type":"Point","coordinates":[-40.300769805908,-11.020500765351]}},{"type":"Feature","properties":[{"gid":"2612"},{"co_cnes":"2509008"},{"lat":"-17.3295639893846"},{"long":"-39.229238421169"},{"no_fantasia":"UBS 05 CUMURUXATIBA"},{"no_logradouro":"RUA AMERICA A"},{"nu_endereco":"S/N"},{"no_bairro":"CUMURUXATIBA"},{"nu_telefone":""},{"co_cep":"45983000"},{"uf":"BA"},{"cidade":"Prado"},{"ano_ubs_det":"2016"},{"mes_ubs_det":"5"}],"geometry":{"type":"Point","coordinates":[-39.229238421169,-17.329563989385]}},{"type":"Feature","properties":[{"gid":"2486"},{"co_cnes":"6516254"},{"lat":"-14.1460561752315"},{"long":"-42.437353134154"},{"no_fantasia":"UNIDADE DE SAUDE DA FAMILIA DE SANTA LUZIA"},{"no_logradouro":"PRACA DA MATRIZ"},{"nu_endereco":"10"},{"no_bairro":"SANTA LUZIA"},{"nu_telefone":""},{"co_cep":"46400000"},{"uf":"BA"},{"cidade":"Caetité"},{"ano_ubs_det":"2016"},{"mes_ubs_det":"5"}],"geometry":{"type":"Point","coordinates":[-42.437353134154,-14.146056175232]}},{"type":"Feature","properties":[{"gid":"2526"},{"co_cnes":"3666484"},{"lat":"-11.0470324906679"},{"long":"-45.190990909729"},{"no_fantasia":"UNIDADE DE SAUDE DA FAMILIA ROSENDO BARBOSA"},{"no_logradouro":"VILA PROJETO"},{"nu_endereco":"S/N"},{"no_bairro":"PROJETO"},{"nu_telefone":""},{"co_cep":"47990000"},{"uf":"BA"},{"cidade":"Formosa do Rio Preto"},{"ano_ubs_det":"2016"},{"mes_ubs_det":"5"}],"geometry":{"type":"Point","coordinates":[-45.190990909729,-11.047032490668]}},{"type":"Feature","properties":[{"gid":"2466"},{"co_cnes":"2509725"},{"lat":"-12.4074173544739"},{"long":"-39.5006356828925"},{"no_fantasia":"USF FIRMINO CERQUEIRA ARAUJO"},{"no_logradouro":"POVOADO DO CAJUEIRO"},{"nu_endereco":"S/N"},{"no_bairro":"ZONA RURAL"},{"nu_telefone":""},{"co_cep":"44520000"},{"uf":"BA"},{"cidade":"Rafael Jambeiro"},{"ano_ubs_det":"2016"},{"mes_ubs_det":"5"}],"geometry":{"type":"Point","coordinates":[-39.500635682893,-12.407417354474]}},{"type":"Feature","properties":[{"gid":"2922"},{"co_cnes":"6835058"},{"lat":"-14.5223245425647"},{"long":"-40.3651272938438"},{"no_fantasia":"USF NELSON VENTURA DE OLIVEIRA"},{"no_logradouro":"RUA AYRTON SENNA DA SILVA"},{"nu_endereco":"149"},{"no_bairro":"ALTO DA VITORIA"},{"nu_telefone":"77998060986"},{"co_cep":"45260000"},{"uf":"BA"},{"cidade":"Poções"},{"ano_ubs_det":"2016"},{"mes_ubs_det":"5"}],"geometry":{"type":"Point","coordinates":[-40.365127293844,-14.522324542565]}},{"type":"Feature","properties":[{"gid":"3053"},{"co_cnes":"2304457"},{"lat":"-17.5189333438062"},{"long":"-39.1942143206578"},{"no_fantasia":"PSF SEDE 01"},{"no_logradouro":"RUA PEDRO MUNIZ"},{"nu_endereco":"81"},{"no_bairro":"CENTRO"},{"nu_telefone":"(73) 32932620"},{"co_cep":"45910000"},{"uf":"BA"},{"cidade":"Alcobaça"},{"ano_ubs_det":"2016"},{"mes_ubs_det":"5"}],"geometry":{"type":"Point","coordinates":[-39.194214320658,-17.518933343806]}},{"type":"Feature","properties":[{"gid":"2888"},{"co_cnes":"2304260"},{"lat":"-8.72341824568634"},{"long":"-39.1165879396428"},{"no_fantasia":"UNIDADE DE SAUDE DA FAMILIA IRMA DULCE"},{"no_logradouro":"DISTRITO DE IBO"},{"nu_endereco":"100"},{"no_bairro":"ZONA RURAL"},{"nu_telefone":"7532872387"},{"co_cep":"48680000"},{"uf":"BA"},{"cidade":"Abaré"},{"ano_ubs_det":"2016"},{"mes_ubs_det":"5"}],"geometry":{"type":"Point","coordinates":[-39.116587939643,-8.7234182456863]}},{"type":"Feature","properties":[{"gid":"2839"},{"co_cnes":"6249981"},{"lat":"-12.1542992075934"},{"long":"-40.0847571816034"},{"no_fantasia":"UNIDADE DE SAUDE DA FAMILIA SANTA LUZIA"},{"no_logradouro":"RUA NOVA"},{"nu_endereco":"S/N"},{"no_bairro":"SANTA LUZIA"},{"nu_telefone":"(74) 3259-6001"},{"co_cep":"46805000"},{"uf":"BA"},{"cidade":"Macajuba"},{"ano_ubs_det":"2016"},{"mes_ubs_det":"5"}],"geometry":{"type":"Point","coordinates":[-40.084757181603,-12.154299207593]}},{"type":"Feature","properties":[{"gid":"2826"},{"co_cnes":"3430405"},{"lat":"-13.763326554577"},{"long":"-41.7708775806957"},{"no_fantasia":"USF DOM HELIO PASCOAL"},{"no_logradouro":"POVOADO DE ITAPICURU"},{"nu_endereco":"S/N"},{"no_bairro":"ZONA RURAL"},{"nu_telefone":"(77)3448-6060"},{"co_cep":"46165000"},{"uf":"BA"},{"cidade":"Dom Basílio"},{"ano_ubs_det":"2016"},{"mes_ubs_det":"5"}],"geometry":{"type":"Point","coordinates":[-41.770877580696,-13.763326554577]}},{"type":"Feature","properties":[{"gid":"2917"},{"co_cnes":"2509938"},{"lat":"-10.8958733081814"},{"long":"-38.3364057540882"},{"no_fantasia":"UNIDADE DE SAUDE DA FAMILIA BARROCAS"},{"no_logradouro":"POVOADO BARROCAS"},{"nu_endereco":"S/N"},{"no_bairro":"ZONA RURAL"},{"nu_telefone":""},{"co_cep":"48440000"},{"uf":"BA"},{"cidade":"Ribeira do Amparo"},{"ano_ubs_det":"2016"},{"mes_ubs_det":"5"}],"geometry":{"type":"Point","coordinates":[-38.336405754088,-10.895873308181]}},{"type":"Feature","properties":[{"gid":"3194"},{"co_cnes":"4197"},{"lat":"-12.928816080093"},{"long":"-38.5065865516651"},{"no_fantasia":"UBS VIRGILIO DE CARVALHO"},{"no_logradouro":"RUA DUARTE DA COSTA"},{"nu_endereco":"S/N"},{"no_bairro":"BONFIM"},{"nu_telefone":"(71) 3611-6564"},{"co_cep":"40415060"},{"uf":"BA"},{"cidade":"Salvador"},{"ano_ubs_det":"2016"},{"mes_ubs_det":"5"}],"geometry":{"type":"Point","coordinates":[-38.506586551665,-12.928816080093]}},{"type":"Feature","properties":[{"gid":"2931"},{"co_cnes":"6410138"},{"lat":"-8.72341824568634"},{"long":"-39.1165879396428"},{"no_fantasia":"UNIDADE DE SAUDE DA FAMILIA SAO JOSE"},{"no_logradouro":"RUA DA PAZ"},{"nu_endereco":"00"},{"no_bairro":"DISTRITO DE IBO"},{"nu_telefone":"75-32872387"},{"co_cep":"48680000"},{"uf":"BA"},{"cidade":"Abaré"},{"ano_ubs_det":"2016"},{"mes_ubs_det":"5"}],"geometry":{"type":"Point","coordinates":[-39.116587939643,-8.7234182456863]}},{"type":"Feature","properties":[{"gid":"2939"},{"co_cnes":"5995000"},{"lat":"-10.3442502021787"},{"long":"-39.7125720977772"},{"no_fantasia":"UNIDADE DE SAUDE DA FAMILIA DE HORIZONTE NOVO"},{"no_logradouro":"POVOADO HORIZONTE NOVO"},{"nu_endereco":"S/N"},{"no_bairro":"ZONA RURAL"},{"nu_telefone":""},{"co_cep":"48800000"},{"uf":"BA"},{"cidade":"Monte Santo"},{"ano_ubs_det":"2016"},{"mes_ubs_det":"5"}],"geometry":{"type":"Point","coordinates":[-39.712572097777,-10.344250202179]}},{"type":"Feature","properties":[{"gid":"3119"},{"co_cnes":"6939"},{"lat":"-12.9263699054714"},{"long":"-38.4885835647572"},{"no_fantasia":"USF JOANES CENTRO OESTE HAMESA"},{"no_logradouro":"CONJ JOANES CENTRO OESTE QUADRA 18 LOTE 17"},{"nu_endereco":"S/N"},{"no_bairro":"LOBATO"},{"nu_telefone":"(71) 3611-5201"},{"co_cep":"40470380"},{"uf":"BA"},{"cidade":"Salvador"},{"ano_ubs_det":"2016"},{"mes_ubs_det":"5"}],"geometry":{"type":"Point","coordinates":[-38.488583564757,-12.926369905471]}},{"type":"Feature","properties":[{"gid":"3104"},{"co_cnes":"2771462"},{"lat":"-12.66064"},{"long":"-40.60574"},{"no_fantasia":"UNIDADE DE SAUDE DA FAMILIA SEDE II"},{"no_logradouro":"RUA PRAXEDES ANDRADES"},{"nu_endereco":"S/N"},{"no_bairro":"CENTRO"},{"nu_telefone":""},{"co_cep":"46850000"},{"uf":"BA"},{"cidade":"Boa Vista do Tupim"},{"ano_ubs_det":"2016"},{"mes_ubs_det":"5"}],"geometry":{"type":"Point","coordinates":[-40.60574,-12.66064]}},{"type":"Feature","properties":[{"gid":"3033"},{"co_cnes":"4023781"},{"lat":"-10.4999470710751"},{"long":"-40.3224420547474"},{"no_fantasia":"CENTRO DE SAUDE MUTIRAO"},{"no_logradouro":"AV JOSE DA SILVA MARQUES"},{"nu_endereco":"386"},{"no_bairro":"CENTRO"},{"nu_telefone":"(74)645 1312"},{"co_cep":"44790000"},{"uf":"BA"},{"cidade":"Campo Formoso"},{"ano_ubs_det":"2016"},{"mes_ubs_det":"5"}],"geometry":{"type":"Point","coordinates":[-40.322442054747,-10.499947071075]}},{"type":"Feature","properties":[{"gid":"3181"},{"co_cnes":"5832020"},{"lat":"-11.2965040663489"},{"long":"-41.990930902445"},{"no_fantasia":"UNIDADE DE SAUDE DA FAMILIA MAE PRETA"},{"no_logradouro":"POVOADO DE MATINHA DE BRITO"},{"nu_endereco":"S/N"},{"no_bairro":"POVOADO"},{"nu_telefone":""},{"co_cep":"44930000"},{"uf":"BA"},{"cidade":"Presidente Dutra"},{"ano_ubs_det":"2016"},{"mes_ubs_det":"5"}],"geometry":{"type":"Point","coordinates":[-41.990930902445,-11.296504066349]}},{"type":"Feature","properties":[{"gid":"2966"},{"co_cnes":"28487"},{"lat":"-12.9325497150417"},{"long":"-38.4620404243458"},{"no_fantasia":"UBS SANTO INACIO"},{"no_logradouro":"RUA DIRETA DO SANTO INACIO ALAMEDA 56"},{"nu_endereco":"S/N"},{"no_bairro":"SANTO INACIO"},{"nu_telefone":"(71) 3611-5204"},{"co_cep":"41231310"},{"uf":"BA"},{"cidade":"Salvador"},{"ano_ubs_det":"2016"},{"mes_ubs_det":"5"}],"geometry":{"type":"Point","coordinates":[-38.462040424346,-12.932549715042]}},{"type":"Feature","properties":[{"gid":"3144"},{"co_cnes":"2386844"},{"lat":"-12.5455497597154"},{"long":"-39.127238904151"},{"no_fantasia":"UNIDADE DE SAUDE DA FAMILIA PEDRO ANSELMO"},{"no_logradouro":"POVOADO DO SOBRADO"},{"nu_endereco":"S/N"},{"no_bairro":"ZONA RURAL"},{"nu_telefone":"(75)681 1130"},{"co_cep":"44345000"},{"uf":"BA"},{"cidade":"Cabaceiras do Paraguaçu"},{"ano_ubs_det":"2016"},{"mes_ubs_det":"5"}],"geometry":{"type":"Point","coordinates":[-39.127238904151,-12.545549759715]}},{"type":"Feature","properties":[{"gid":"2976"},{"co_cnes":"2424045"},{"lat":"-15.0236320495601"},{"long":"-40.0688767433155"},{"no_fantasia":"UNIDADE DE SAUDE DA FAMILIA JONAS OLIVEIRA"},{"no_logradouro":"RUA BARAO DO RIO BRANCO"},{"nu_endereco":"S/N"},{"no_bairro":"DIST ITATI"},{"nu_telefone":"(73)2651911"},{"co_cep":"45710000"},{"uf":"BA"},{"cidade":"Itororó"},{"ano_ubs_det":"2016"},{"mes_ubs_det":"5"}],"geometry":{"type":"Point","coordinates":[-40.068876743315,-15.02363204956]}},{"type":"Feature","properties":[{"gid":"3047"},{"co_cnes":"4032802"},{"lat":"-10.3641586477739"},{"long":"-38.2003708811346"},{"no_fantasia":"CENTRO DE SAUDE DE SITIO DO QUINTO"},{"no_logradouro":"AV ANTONIO MARQUES"},{"nu_endereco":"S/N"},{"no_bairro":"CENTRO"},{"nu_telefone":"(75)32962199"},{"co_cep":"48565000"},{"uf":"BA"},{"cidade":"Sítio do Quinto"},{"ano_ubs_det":"2016"},{"mes_ubs_det":"5"}],"geometry":{"type":"Point","coordinates":[-38.200370881135,-10.364158647774]}},{"type":"Feature","properties":[{"gid":"2971"},{"co_cnes":"2770989"},{"lat":"-9.41071709622786"},{"long":"-40.5035521594434"},{"no_fantasia":"USF JOSE ARAUJO DE SOUZA"},{"no_logradouro":"QUADRA 12 A"},{"nu_endereco":"41"},{"no_bairro":"JOAO PAULO II"},{"nu_telefone":"743612-0491"},{"co_cep":"48914112"},{"uf":"BA"},{"cidade":"Juazeiro"},{"ano_ubs_det":"2016"},{"mes_ubs_det":"5"}],"geometry":{"type":"Point","coordinates":[-40.503552159443,-9.4107170962279]}},{"type":"Feature","properties":[{"gid":"2933"},{"co_cnes":"3010112"},{"lat":"-10.6919012256505"},{"long":"-39.8532769742179"},{"no_fantasia":"PSF DE PIAUS"},{"no_logradouro":"POVOADO DE PIAUS"},{"nu_endereco":"S/N"},{"no_bairro":"ZONA RURAL"},{"nu_telefone":"7435461369"},{"co_cep":"48850000"},{"uf":"BA"},{"cidade":"Itiúba"},{"ano_ubs_det":"2016"},{"mes_ubs_det":"5"}],"geometry":{"type":"Point","coordinates":[-39.853276974218,-10.691901225651]}},{"type":"Feature","properties":[{"gid":"2827"},{"co_cnes":"2466716"},{"lat":"-11.1766684055325"},{"long":"-40.5274701118457"},{"no_fantasia":"CENTRO DE SAUDE DA CAEIRA"},{"no_logradouro":"AV NOSSA SENHORA DA CONCEICAO"},{"nu_endereco":"S/N"},{"no_bairro":"CAEIRA"},{"nu_telefone":"(74)3622-2078"},{"co_cep":"44700000"},{"uf":"BA"},{"cidade":"Jacobina"},{"ano_ubs_det":"2016"},{"mes_ubs_det":"5"}],"geometry":{"type":"Point","coordinates":[-40.527470111846,-11.176668405532]}},{"type":"Feature","properties":[{"gid":"3046"},{"co_cnes":"4021940"},{"lat":"-15.2608729973509"},{"long":"-39.4132815657126"},{"no_fantasia":"USF DE ANURY"},{"no_logradouro":"RUA FILADELFO ALMEIDA"},{"nu_endereco":"S/N"},{"no_bairro":"ANURI"},{"nu_telefone":"(73)36731277"},{"co_cep":"45695000"},{"uf":"BA"},{"cidade":"Arataca"},{"ano_ubs_det":"2016"},{"mes_ubs_det":"5"}],"geometry":{"type":"Point","coordinates":[-39.413281565713,-15.260872997351]}},{"type":"Feature","properties":[{"gid":"2855"},{"co_cnes":"4027582"},{"lat":"-12.7062241228364"},{"long":"-39.7255159164542"},{"no_fantasia":"UNIDADE DE SAUDE DA FAMILIA DO DEPARTAMENTO"},{"no_logradouro":"BR 116 KM 504"},{"nu_endereco":"S/N"},{"no_bairro":"ZONA RURAL"},{"nu_telefone":"(75)3452-2256"},{"co_cep":"46875000"},{"uf":"BA"},{"cidade":"Itatim"},{"ano_ubs_det":"2016"},{"mes_ubs_det":"5"}],"geometry":{"type":"Point","coordinates":[-39.725515916454,-12.706224122836]}},{"type":"Feature","properties":[{"gid":"3094"},{"co_cnes":"2412322"},{"lat":"-16.4559638500209"},{"long":"-39.9890756607044"},{"no_fantasia":"ESF MONTE ALEGRE"},{"no_logradouro":"RUA RAUL BATISTA"},{"nu_endereco":"S/N"},{"no_bairro":"MONTE ALGRE"},{"nu_telefone":""},{"co_cep":"45840000"},{"uf":"BA"},{"cidade":"Guaratinga"},{"ano_ubs_det":"2016"},{"mes_ubs_det":"5"}],"geometry":{"type":"Point","coordinates":[-39.989075660704,-16.455963850021]}},{"type":"Feature","properties":[{"gid":"3012"},{"co_cnes":"2505940"},{"lat":"-12.8100478649136"},{"long":"-42.1687889099109"},{"no_fantasia":"UNIDADE BASICA DE SAUDE DE NOVO HORIZONTE"},{"no_logradouro":"RUA 13 DE JUNHO"},{"nu_endereco":"S/N"},{"no_bairro":"CENTRO"},{"nu_telefone":"(77) 6481060"},{"co_cep":"46730000"},{"uf":"BA"},{"cidade":"Novo Horizonte"},{"ano_ubs_det":"2016"},{"mes_ubs_det":"5"}],"geometry":{"type":"Point","coordinates":[-42.168788909911,-12.810047864914]}},{"type":"Feature","properties":[{"gid":"2886"},{"co_cnes":"3627640"},{"lat":"-11.56559"},{"long":"-37.77984"},{"no_fantasia":"USF ALCIDES DE AGUIAR LEITE"},{"no_logradouro":"POV ABADIA"},{"nu_endereco":"S/N"},{"no_bairro":"POVOADO"},{"nu_telefone":"75 34456001"},{"co_cep":"48310000"},{"uf":"BA"},{"cidade":"Jandaíra"},{"ano_ubs_det":"2016"},{"mes_ubs_det":"5"}],"geometry":{"type":"Point","coordinates":[-37.77984,-11.56559]}},{"type":"Feature","properties":[{"gid":"2884"},{"co_cnes":"4033361"},{"lat":"-15.294208064906"},{"long":"-39.0747128879619"},{"no_fantasia":"UNIDADE DE SAUDE DA FAMILIA COLONIA"},{"no_logradouro":"AV BRASIL"},{"nu_endereco":"S/N"},{"no_bairro":"COLONIA"},{"nu_telefone":"73-36261140"},{"co_cep":"45690000"},{"uf":"BA"},{"cidade":"Una"},{"ano_ubs_det":"2016"},{"mes_ubs_det":"5"}],"geometry":{"type":"Point","coordinates":[-39.074712887962,-15.294208064906]}},{"type":"Feature","properties":[{"gid":"3192"},{"co_cnes":"2627302"},{"lat":"-12.5764274597164"},{"long":"-38.005506992339"},{"no_fantasia":"UNIDADE DE SAUDE DA FAMILIA PRAIA DO FORTE"},{"no_logradouro":"RUA VIELA DOS NAMORADOS"},{"nu_endereco":"S/N"},{"no_bairro":"JARDIM DAS FOCAS"},{"nu_telefone":"(71)6351628"},{"co_cep":"48280000"},{"uf":"BA"},{"cidade":"Mata de São João"},{"ano_ubs_det":"2016"},{"mes_ubs_det":"5"}],"geometry":{"type":"Point","coordinates":[-38.005506992339,-12.576427459716]}},{"type":"Feature","properties":[{"gid":"2989"},{"co_cnes":"3027031"},{"lat":"-12.41102"},{"long":"-38.74581"},{"no_fantasia":"USF CELINA BRITTO"},{"no_logradouro":"TRAVESSA MANOEL DOS ANJOS"},{"nu_endereco":"009"},{"no_bairro":"SERRA"},{"nu_telefone":"(75)2422197"},{"co_cep":"44230000"},{"uf":"BA"},{"cidade":"Amélia Rodrigues"},{"ano_ubs_det":"2016"},{"mes_ubs_det":"5"}],"geometry":{"type":"Point","coordinates":[-38.74581,-12.41102]}},{"type":"Feature","properties":[{"gid":"3195"},{"co_cnes":"2653346"},{"lat":"-12.84807"},{"long":"-38.45809"},{"no_fantasia":"USF FAZENDA COUTOS III"},{"no_logradouro":"RUA DOM MACEDO COSTA"},{"nu_endereco":"S/N"},{"no_bairro":"FAZENDA COUTOS III"},{"nu_telefone":"(71) 3611-5911"},{"co_cep":"40760250"},{"uf":"BA"},{"cidade":"Salvador"},{"ano_ubs_det":"2016"},{"mes_ubs_det":"5"}],"geometry":{"type":"Point","coordinates":[-38.45809,-12.84807]}},{"type":"Feature","properties":[{"gid":"3006"},{"co_cnes":"7247710"},{"lat":"-9.964"},{"long":"-39.164"},{"no_fantasia":"UNIDADE DE SAUDE DA FAMILIA PSF MARIA GONCALVES DE CARVALHO"},