[{"type":"Feature","properties":[{"gid":"560"},{"co_cnes":"2767619"},{"lat":"-12.2343599796292"},{"long":"-56.6440701484664"},{"no_fantasia":"POSTO DE SAUDE RURAL SIMIONI"},{"no_logradouro":"RUA DAS FLORES"},{"nu_endereco":"S/N"},{"no_bairro":"ZONA RURAL"},{"nu_telefone":""},{"co_cep":"78579000"},{"uf":"MT"},{"cidade":"Itanhangá"},{"ano_ubs_det":"2016"},{"mes_ubs_det":"5"}],"geometry":{"type":"Point","coordinates":[-56.644070148466,-12.234359979629]}},{"type":"Feature","properties":[{"gid":"1141"},{"co_cnes":"6225659"},{"lat":"-15.5699890131206"},{"long":"-56.0732520381911"},{"no_fantasia":"USF NOVO MILLENIUM"},{"no_logradouro":"RUA 02 QDR 05"},{"nu_endereco":"S/N"},{"no_bairro":"NOVO MILLENIUM"},{"nu_telefone":"(65) 3617-1862/1869"},{"co_cep":"78080000"},{"uf":"MT"},{"cidade":"Cuiabá"},{"ano_ubs_det":"2016"},{"mes_ubs_det":"5"}],"geometry":{"type":"Point","coordinates":[-56.073252038191,-15.569989013121]}},{"type":"Feature","properties":[{"gid":"1140"},{"co_cnes":"2812622"},{"lat":"-13.5499620437618"},{"long":"-58.8201355934126"},{"no_fantasia":"PSF I SAPEZAL SAPEZAL"},{"no_logradouro":"AV CORIMBA"},{"nu_endereco":"1649"},{"no_bairro":"CENTRO"},{"nu_telefone":"(6533830260"},{"co_cep":"78365000"},{"uf":"MT"},{"cidade":"Sapezal"},{"ano_ubs_det":"2016"},{"mes_ubs_det":"5"}],"geometry":{"type":"Point","coordinates":[-58.820135593413,-13.549962043762]}},{"type":"Feature","properties":[{"gid":"845"},{"co_cnes":"5554950"},{"lat":"-10.1721074662032"},{"long":"-54.9318057201458"},{"no_fantasia":"UNIDADE DE SAUDE DA FAMILIA UNIAO"},{"no_logradouro":"RUA 04"},{"nu_endereco":"S/N"},{"no_bairro":"UNIAO"},{"nu_telefone":"66 3595 2264"},{"co_cep":"78525000"},{"uf":"MT"},{"cidade":"Matupá"},{"ano_ubs_det":"2016"},{"mes_ubs_det":"5"}],"geometry":{"type":"Point","coordinates":[-54.931805720146,-10.172107466203]}},{"type":"Feature","properties":[{"gid":"1243"},{"co_cnes":"2396572"},{"lat":"-16.4646863937373"},{"long":"-54.6194314956649"},{"no_fantasia":"PSF JAMBRAPI"},{"no_logradouro":"RUA DA PAZ"},{"nu_endereco":"S/N"},{"no_bairro":"JAMBRAPI"},{"nu_telefone":"(66) 34115126"},{"co_cep":"78700600"},{"uf":"MT"},{"cidade":"Rondonópolis"},{"ano_ubs_det":"2016"},{"mes_ubs_det":"5"}],"geometry":{"type":"Point","coordinates":[-54.619431495665,-16.464686393737]}},{"type":"Feature","properties":[{"gid":"1978"},{"co_cnes":"2533642"},{"lat":"-13.0785691738125"},{"long":"-55.9295082092269"},{"no_fantasia":"POSTO DE SAUDE DA FAMILIA MENINO DEUS"},{"no_logradouro":"RUA CARAZINHO"},{"nu_endereco":"532"},{"no_bairro":"MENINO DEUS"},{"nu_telefone":"(65)549 4642"},{"co_cep":"78455000"},{"uf":"MT"},{"cidade":"Lucas do Rio Verde"},{"ano_ubs_det":"2016"},{"mes_ubs_det":"5"}],"geometry":{"type":"Point","coordinates":[-55.929508209227,-13.078569173813]}},{"type":"Feature","properties":[{"gid":"1937"},{"co_cnes":"2604248"},{"lat":"-15.6182670593257"},{"long":"-56.082072257994"},{"no_fantasia":"USF CAMPO VELHO"},{"no_logradouro":"RUA PRESIDENTE MEDICI"},{"nu_endereco":"515"},{"no_bairro":"CAMPO VELHO"},{"nu_telefone":"(65) 3617-1601"},{"co_cep":"78090000"},{"uf":"MT"},{"cidade":"Cuiabá"},{"ano_ubs_det":"2016"},{"mes_ubs_det":"5"}],"geometry":{"type":"Point","coordinates":[-56.082072257994,-15.618267059326]}},{"type":"Feature","properties":[{"gid":"1856"},{"co_cnes":"3317099"},{"lat":"-11.136585474014"},{"long":"-58.6135196685774"},{"no_fantasia":"UNIDADE DE SAUDE DA FAMILIA VALE DO SERINGAL"},{"no_logradouro":"RUA DAS GARCAS"},{"nu_endereco":"10"},{"no_bairro":"BOSQUE DA SAUDE"},{"nu_telefone":"66 3581 1296"},{"co_cep":"78345000"},{"uf":"MT"},{"cidade":"Castanheira"},{"ano_ubs_det":"2016"},{"mes_ubs_det":"5"}],"geometry":{"type":"Point","coordinates":[-58.613519668577,-11.136585474014]}},{"type":"Feature","properties":[{"gid":"1716"},{"co_cnes":"6226124"},{"lat":"-15.6605708599086"},{"long":"-56.0558080673202"},{"no_fantasia":"USF PARQUE ATALAIA"},{"no_logradouro":"RUA D"},{"nu_endereco":"S/N"},{"no_bairro":"PARQUE ATALAIA"},{"nu_telefone":"36177339"},{"co_cep":"78080000"},{"uf":"MT"},{"cidade":"Cuiabá"},{"ano_ubs_det":"2016"},{"mes_ubs_det":"5"}],"geometry":{"type":"Point","coordinates":[-56.05580806732,-15.660570859909]}},{"type":"Feature","properties":[{"gid":"2369"},{"co_cnes":"2396734"},{"lat":"-16.4329612255092"},{"long":"-54.6412754058822"},{"no_fantasia":"CENTRO DE SAUDE C SAO JOSE I"},{"no_logradouro":"RUA FAUSTINO F DOS SANTOS"},{"nu_endereco":"S/N"},{"no_bairro":"CONJUNTO SAO JOSE I"},{"nu_telefone":"(66) 34115160"},{"co_cep":"78715418"},{"uf":"MT"},{"cidade":"Rondonópolis"},{"ano_ubs_det":"2016"},{"mes_ubs_det":"5"}],"geometry":{"type":"Point","coordinates":[-54.641275405882,-16.432961225509]}},{"type":"Feature","properties":[{"gid":"2261"},{"co_cnes":"5476577"},{"lat":"-9.94786262512178"},{"long":"-54.9177789688094"},{"no_fantasia":"UNID SAUDE DA FAMILIA CIDADE NOVA PSF II"},{"no_logradouro":"AVENIDA DOS CAJUEIROS"},{"nu_endereco":"1580"},{"no_bairro":"CIDADE NOVA"},{"nu_telefone":"(66)35524242"},{"co_cep":"78520000"},{"uf":"MT"},{"cidade":"Guarantã do Norte"},{"ano_ubs_det":"2016"},{"mes_ubs_det":"5"}],"geometry":{"type":"Point","coordinates":[-54.917778968809,-9.9478626251218]}},{"type":"Feature","properties":[{"gid":"2249"},{"co_cnes":"2396491"},{"lat":"-16.4627122879024"},{"long":"-54.6124577522262"},{"no_fantasia":"CENTRO DE SAUDE N S DO AMPARO"},{"no_logradouro":"RUA DOS ESTUDANTES"},{"nu_endereco":"S/N"},{"no_bairro":"N SENHORA DO AMPARO"},{"nu_telefone":"(66) 3422 2280"},{"co_cep":"78730690"},{"uf":"MT"},{"cidade":"Rondonópolis"},{"ano_ubs_det":"2016"},{"mes_ubs_det":"5"}],"geometry":{"type":"Point","coordinates":[-54.612457752226,-16.462712287902]}},{"type":"Feature","properties":[{"gid":"2326"},{"co_cnes":"2394456"},{"lat":"-15.2419638633724"},{"long":"-59.3344545364363"},{"no_fantasia":"CENTRO DE SAUDE DE PONTES E LACERDA"},{"no_logradouro":"BR 174"},{"nu_endereco":"S/N"},{"no_bairro":"BOA VISTA"},{"nu_telefone":"(65) 32666423"},{"co_cep":"78250000"},{"uf":"MT"},{"cidade":"Pontes e Lacerda"},{"ano_ubs_det":"2016"},{"mes_ubs_det":"5"}],"geometry":{"type":"Point","coordinates":[-59.334454536436,-15.241963863372]}},{"type":"Feature","properties":[{"gid":"2356"},{"co_cnes":"2394812"},{"lat":"-16.0738673033239"},{"long":"-57.694608271122"},{"no_fantasia":"CENTRO DE SAUDE REFERENCIAL"},{"no_logradouro":"AV CASTELO BRANCO"},{"nu_endereco":"S/N"},{"no_bairro":"SAO MIGUEL"},{"nu_telefone":"(65)32231764"},{"co_cep":"78200000"},{"uf":"MT"},{"cidade":"Cáceres"},{"ano_ubs_det":"2016"},{"mes_ubs_det":"5"}],"geometry":{"type":"Point","coordinates":[-57.694608271122,-16.073867303324]}},{"type":"Feature","properties":[{"gid":"2574"},{"co_cnes":"3669688"},{"lat":"-15.3314349590974"},{"long":"-57.2029030323029"},{"no_fantasia":"PSF NOVA ESPERANCA"},{"no_logradouro":"RUA PERNAMBUCO"},{"nu_endereco":"S/N"},{"no_bairro":"CENTRO"},{"nu_telefone":"65 3384 1159"},{"co_cep":"78398000"},{"uf":"MT"},{"cidade":"Porto Estrela"},{"ano_ubs_det":"2016"},{"mes_ubs_det":"5"}],"geometry":{"type":"Point","coordinates":[-57.202903032303,-15.331434959097]}},{"type":"Feature","properties":[{"gid":"2573"},{"co_cnes":"2534177"},{"lat":"-11.8580053080776"},{"long":"-55.5009220023867"},{"no_fantasia":"UNIDADE BASICA DE SAUDE EDUARDO GABRIEL CRIVELARO"},{"no_logradouro":"BEIJA FLOR"},{"nu_endereco":"S/N"},{"no_bairro":"JARDIM DAS NACOES II"},{"nu_telefone":"6635207286/999986327"},{"co_cep":"78556408"},{"uf":"MT"},{"cidade":"Sinop"},{"ano_ubs_det":"2016"},{"mes_ubs_det":"5"}],"geometry":{"type":"Point","coordinates":[-55.500922002387,-11.858005308078]}},{"type":"Feature","properties":[{"gid":"2450"},{"co_cnes":"6556507"},{"lat":"-12.5511825084683"},{"long":"-55.7034301757796"},{"no_fantasia":"UNIDADE DE SAUDE DA FAMILIA FRATERNIDADE USF XVI"},{"no_logradouro":"RUA AURELIANO PEREIRA DA SILVA"},{"nu_endereco":"S/N"},{"no_bairro":"INDUSTRIAL II"},{"nu_telefone":"66 35440197"},{"co_cep":"78890000"},{"uf":"MT"},{"cidade":"Sorriso"},{"ano_ubs_det":"2016"},{"mes_ubs_det":"5"}],"geometry":{"type":"Point","coordinates":[-55.70343017578,-12.551182508468]}},{"type":"Feature","properties":[{"gid":"2408"},{"co_cnes":"2795914"},{"lat":"-13.559229509583"},{"long":"-52.2734568634775"},{"no_fantasia":"PSF JARDIM TROPICAL"},{"no_logradouro":"RUA CAMPO NOVO"},{"nu_endereco":"S/N"},{"no_bairro":"JARDIM TROPICAL"},{"nu_telefone":"(66) 4782155"},{"co_cep":"78640000"},{"uf":"MT"},{"cidade":"Canarana"},{"ano_ubs_det":"2016"},{"mes_ubs_det":"5"}],"geometry":{"type":"Point","coordinates":[-52.273456863477,-13.559229509583]}},{"type":"Feature","properties":[{"gid":"2517"},{"co_cnes":"2311666"},{"lat":"-10.8002641630325"},{"long":"-52.7397936398726"},{"no_fantasia":"CENT SAUDE LUZIA SOARES GUIMARAES UNID SAUDE DA FAMILIA I"},{"no_logradouro":"AV HUMBERTO NUNES DE REZENDE"},{"nu_endereco":"119"},{"no_bairro":"CENTRO"},{"nu_telefone":"(66) 35681060"},{"co_cep":"78663000"},{"uf":"MT"},{"cidade":"São José do Xingu"},{"ano_ubs_det":"2016"},{"mes_ubs_det":"5"}],"geometry":{"type":"Point","coordinates":[-52.739793639873,-10.800264163032]}},{"type":"Feature","properties":[{"gid":"3110"},{"co_cnes":"3503003"},{"lat":"-12.54049"},{"long":"-55.71627"},{"no_fantasia":"UNIDADE DE SAUDE DA FAMILIA JOSE ALVES DE OLIVEIRA USF XII"},{"no_logradouro":"TRAVESSA ESTRELA"},{"nu_endereco":"S/N"},{"no_bairro":"BOM JESUS"},{"nu_telefone":"66 35443014"},{"co_cep":"78890000"},{"uf":"MT"},{"cidade":"Sorriso"},{"ano_ubs_det":"2016"},{"mes_ubs_det":"5"}],"geometry":{"type":"Point","coordinates":[-55.71627,-12.54049]}},{"type":"Feature","properties":[{"gid":"2872"},{"co_cnes":"3094901"},{"lat":"-15.594047760894"},{"long":"-56.0944921345711"},{"no_fantasia":"USF ALTOS DA SERRA I"},{"no_logradouro":"RUA RUI BARBOSA"},{"nu_endereco":"34"},{"no_bairro":"ALTOS DA SERRA"},{"nu_telefone":"(65) 3617-1339"},{"co_cep":"78010000"},{"uf":"MT"},{"cidade":"Cuiabá"},{"ano_ubs_det":"2016"},{"mes_ubs_det":"5"}],"geometry":{"type":"Point","coordinates":[-56.094492134571,-15.594047760894]}},{"type":"Feature","properties":[{"gid":"3009"},{"co_cnes":"2394928"},{"lat":"-16.1076414585109"},{"long":"-57.6735877990706"},{"no_fantasia":"UNID SAUDE DA FAMILIA VITORIA REGIA"},{"no_logradouro":"RUA AMAZONAS"},{"nu_endereco":"S/N"},{"no_bairro":"JARDIM POPULAR"},{"nu_telefone":"(65)32238614"},{"co_cep":"78200000"},{"uf":"MT"},{"cidade":"Cáceres"},{"ano_ubs_det":"2016"},{"mes_ubs_det":"5"}],"geometry":{"type":"Point","coordinates":[-57.673587799071,-16.107641458511]}},{"type":"Feature","properties":[{"gid":"3074"},{"co_cnes":"2393913"},{"lat":"-15.1224095311856"},{"long":"-58.3853645299516"},{"no_fantasia":"EAS ADALTO RIBEIRO RESERVA"},{"no_logradouro":"AVN DAS AMERICAS"},{"nu_endereco":"S/N"},{"no_bairro":"JARDIM ATLANTA"},{"nu_telefone":"(65)32471149"},{"co_cep":"78265000"},{"uf":"MT"},{"cidade":"Reserva do Cabaçal"},{"ano_ubs_det":"2016"},{"mes_ubs_det":"5"}],"geometry":{"type":"Point","coordinates":[-58.385364529952,-15.122409531186]}},{"type":"Feature","properties":[{"gid":"2837"},{"co_cnes":"2391678"},{"lat":"-10.2448420827713"},{"long":"-54.9922974013688"},{"no_fantasia":"PSF 05 ADAO FRANCISCO VELOSO"},{"no_logradouro":"AVENIDA LIONS INTERNACIONAL"},{"nu_endereco":"2401"},{"no_bairro":"CENTRO"},{"nu_telefone":"06635751031"},{"co_cep":"78530000"},{"uf":"MT"},{"cidade":"Peixoto de Azevedo"},{"ano_ubs_det":"2016"},{"mes_ubs_det":"5"}],"geometry":{"type":"Point","coordinates":[-54.992297401369,-10.244842082771]}},{"type":"Feature","properties":[{"gid":"2961"},{"co_cnes":"2397064"},{"lat":"-17.8347436507218"},{"long":"-53.2819931222741"},{"no_fantasia":"UNIDADE DE SAUDE DA FAMILIA DE ALTO TAQUARI 13 PONTOS"},{"no_logradouro":"RUA DOS PIONEIROS"},{"nu_endereco":"170"},{"no_bairro":"13 PONTOS"},{"nu_telefone":"(66)34962036"},{"co_cep":"78785000"},{"uf":"MT"},{"cidade":"Alto Taquari"},{"ano_ubs_det":"2016"},{"mes_ubs_det":"5"}],"geometry":{"type":"Point","coordinates":[-53.281993122274,-17.834743650722]}},{"type":"Feature","properties":[{"gid":"2850"},{"co_cnes":"6225861"},{"lat":"-15.6177949905391"},{"long":"-55.9961128234847"},{"no_fantasia":"USF JARDIM FORTALEZA"},{"no_logradouro":"RUA F12"},{"nu_endereco":"S/N"},{"no_bairro":"JARDIM FORTALEZA"},{"nu_telefone":"(65) 3617-1638"},{"co_cep":"78080000"},{"uf":"MT"},{"cidade":"Cuiabá"},{"ano_ubs_det":"2016"},{"mes_ubs_det":"5"}],"geometry":{"type":"Point","coordinates":[-55.996112823485,-15.617794990539]}},{"type":"Feature","properties":[{"gid":"3153"},{"co_cnes":"2699338"},{"lat":"-10.6575858592984"},{"long":"-51.5746521949753"},{"no_fantasia":"UNIDADE DE SAUDE DA FAMILIA DE VILA NOVA"},{"no_logradouro":"RUA TAPIRAPE"},{"nu_endereco":"S/N"},{"no_bairro":"VILA NOVA"},{"nu_telefone":"(66) 3564-1235"},{"co_cep":"78652000"},{"uf":"MT"},{"cidade":"Confresa"},{"ano_ubs_det":"2016"},{"mes_ubs_det":"5"}],"geometry":{"type":"Point","coordinates":[-51.574652194975,-10.657585859298]}},{"type":"Feature","properties":[{"gid":"3106"},{"co_cnes":"2655322"},{"lat":"-14.1842937469478"},{"long":"-57.5093507766707"},{"no_fantasia":"ESTRATEGIA SAUDE DA FAMILIA DECIOLANDIA"},{"no_logradouro":"BR364"},{"nu_endereco":"S/N"},{"no_bairro":"ZONA RURAL"},{"nu_telefone":"(65)3336 1145"},{"co_cep":"78400000"},{"uf":"MT"},{"cidade":"Diamantino"},{"ano_ubs_det":"2016"},{"mes_ubs_det":"5"}],"geometry":{"type":"Point","coordinates":[-57.509350776671,-14.184293746948]}},{"type":"Feature","properties":[{"gid":"2840"},{"co_cnes":"2752670"},{"lat":"-15.885404348373"},{"long":"-52.2931623458847"},{"no_fantasia":"PSF JARDIM OURO FINO"},{"no_logradouro":"RUA 29 ESQUINA COM RUA 31"},{"nu_endereco":"S/N"},{"no_bairro":"JD OURO FINO"},{"nu_telefone":"(66) 34014559"},{"co_cep":"78600000"},{"uf":"MT"},{"cidade":"Barra do Garças"},{"ano_ubs_det":"2016"},{"mes_ubs_det":"5"}],"geometry":{"type":"Point","coordinates":[-52.293162345885,-15.885404348373]}},{"type":"Feature","properties":[{"gid":"3460"},{"co_cnes":"2391309"},{"lat":"-16.1950994476433"},{"long":"-55.9671211336846"},{"no_fantasia":"CENTRO DE SAUDE DA FAMILIA BARAO DE MELGACO PSF URBANO"},{"no_logradouro":"RUA ALIPIO DUARTE"},{"nu_endereco":"S/N"},{"no_bairro":"CENTRO"},{"nu_telefone":"(65)03311155"},{"co_cep":"78190000"},{"uf":"MT"},{"cidade":"Barão de Melgaço"},{"ano_ubs_det":"2016"},{"mes_ubs_det":"5"}],"geometry":{"type":"Point","coordinates":[-55.967121133685,-16.195099447643]}},{"type":"Feature","properties":[{"gid":"3596"},{"co_cnes":"2396629"},{"lat":"-16.470930576324"},{"long":"-54.6435070037826"},{"no_fantasia":"CENTRO DE SAUDE SAO FRANCISCO"},{"no_logradouro":"RUA JERONIMO JACOB DAS CHAGAS"},{"nu_endereco":"S/N"},{"no_bairro":"VILA SAO FRANCISCO"},{"nu_telefone":"(66) 34115122"},{"co_cep":"78710010"},{"uf":"MT"},{"cidade":"Rondonópolis"},{"ano_ubs_det":"2016"},{"mes_ubs_det":"5"}],"geometry":{"type":"Point","coordinates":[-54.643507003783,-16.470930576324]}},{"type":"Feature","properties":[{"gid":"3394"},{"co_cnes":"2472600"},{"lat":"-15.1105034351344"},{"long":"-56.8575310707076"},{"no_fantasia":"POSTO DE SAUDE CURRUPIRA BARRA DO BUGRES"},{"no_logradouro":"RUA PRINCIPAL"},{"nu_endereco":"S/N"},{"no_bairro":"CURRIPIRA"},{"nu_telefone":""},{"co_cep":"78390000"},{"uf":"MT"},{"cidade":"Barra do Bugres"},{"ano_ubs_det":"2016"},{"mes_ubs_det":"5"}],"geometry":{"type":"Point","coordinates":[-56.857531070708,-15.110503435134]}},{"type":"Feature","properties":[{"gid":"3350"},{"co_cnes":"2398389"},{"lat":"-12.2891852002682"},{"long":"-57.341423034668"},{"no_fantasia":"UNIDADE DE SAUDE DA FAMILIA RURAL DE BRIANORTE DAURI RIVA"},{"no_logradouro":"RUA DA PALMEIRAS"},{"nu_endereco":"S/N"},{"no_bairro":"ZONA RURAL"},{"nu_telefone":"(66) 3537-1083"},{"co_cep":"78445000"},{"uf":"MT"},{"cidade":"Nova Maringá"},{"ano_ubs_det":"2016"},{"mes_ubs_det":"5"}],"geometry":{"type":"Point","coordinates":[-57.341423034668,-12.289185200268]}},{"type":"Feature","properties":[{"gid":"3597"},{"co_cnes":"2767643"},{"lat":"-14.7824800014492"},{"long":"-57.2913622856124"},{"no_fantasia":"USF HORTENCIO BORGES"},{"no_logradouro":"RUA TEOFILO BARBALHO DE OLIVEIRA"},{"nu_endereco":"S/N"},{"no_bairro":"JARDIM ITAMARATI"},{"nu_telefone":""},{"co_cep":"78370000"},{"uf":"MT"},{"cidade":"Nova Olímpia"},{"ano_ubs_det":"2016"},{"mes_ubs_det":"5"}],"geometry":{"type":"Point","coordinates":[-57.291362285612,-14.782480001449]}},{"type":"Feature","properties":[{"gid":"3406"},{"co_cnes":"2795825"},{"lat":"-12.55091"},{"long":"-55.72644"},{"no_fantasia":"UNIDADE DE SAUDE DA FAMILIA ANA NERI USF VI"},{"no_logradouro":"RUA ALENCAR BORTOLANZA"},{"nu_endereco":"S/N"},{"no_bairro":"INDUSTRIAL"},{"nu_telefone":"66 3544-4577"},{"co_cep":"78890000"},{"uf":"MT"},{"cidade":"Sorriso"},{"ano_ubs_det":"2016"},{"mes_ubs_det":"5"}],"geometry":{"type":"Point","coordinates":[-55.72644,-12.55091]}},{"type":"Feature","properties":[{"gid":"3234"},{"co_cnes":"2394030"},{"lat":"-13.6499333381649"},{"long":"-59.9133396148664"},{"no_fantasia":"UNIDADE DE SAUDE FAMILIAR PSF NOVA ALVORADA"},{"no_logradouro":"RUA PRINCIPAL"},{"nu_endereco":"S/N"},{"no_bairro":"DISTRITO DE NOVA ALV"},{"nu_telefone":"(65 )3283-2402"},{"co_cep":"78310000"},{"uf":"MT"},{"cidade":"Comodoro"},{"ano_ubs_det":"2016"},{"mes_ubs_det":"5"}],"geometry":{"type":"Point","coordinates":[-59.913339614866,-13.649933338165]}},{"type":"Feature","properties":[{"gid":"3527"},{"co_cnes":"2397404"},{"lat":"-15.5522935931141"},{"long":"-54.3000532591227"},{"no_fantasia":"UNIDADE EQUIPE 6 DE SAUDE DA FAMILIA DE PRIMAVERA DO LESTE"},{"no_logradouro":"AVENIDA CUIABA"},{"nu_endereco":"2232"},{"no_bairro":"PRIMAVERA II"},{"nu_telefone":""},{"co_cep":"78850000"},{"uf":"MT"},{"cidade":"Primavera do Leste"},{"ano_ubs_det":"2016"},{"mes_ubs_det":"5"}],"geometry":{"type":"Point","coordinates":[-54.300053259123,-15.552293593114]}},{"type":"Feature","properties":[{"gid":"3293"},{"co_cnes":"7342454"},{"lat":"-15.7165861160712"},{"long":"-52.7304267883301"},{"no_fantasia":"UNIDADE BASICA DE SAUDE SELMA MORAES"},{"no_logradouro":"AVENIDA DELSON RODRIGUES"},{"nu_endereco":"999"},{"no_bairro":"CENTRO"},{"nu_telefone":"66.34161057"},{"co_cep":"78620000"},{"uf":"MT"},{"cidade":"General Carneiro"},{"ano_ubs_det":"2016"},{"mes_ubs_det":"5"}],"geometry":{"type":"Point","coordinates":[-52.73042678833,-15.716586116071]}},{"type":"Feature","properties":[{"gid":"3656"},{"co_cnes":"2397536"},{"lat":"-15.8629703521724"},{"long":"-53.513610363005"},{"no_fantasia":"CENTRO DE SAUDE JOSE MARTINS VIEIRA BATOVI"},{"no_logradouro":"RUA DO COMERCIO"},{"nu_endereco":"S/N"},{"no_bairro":"DISTRITO BATOVI"},{"nu_telefone":""},{"co_cep":"78775000"},{"uf":"MT"},{"cidade":"Tesouro"},{"ano_ubs_det":"2016"},{"mes_ubs_det":"5"}],"geometry":{"type":"Point","coordinates":[-53.513610363005,-15.862970352172]}},{"type":"Feature","properties":[{"gid":"3698"},{"co_cnes":"2392682"},{"lat":"-10.3954099736953"},{"long":"-57.7180972290039"},{"no_fantasia":"PSF PARANORTE APARECIDA LOURENCO DA SILVA"},{"no_logradouro":"KM 150 DISTRITO PARANORTE"},{"nu_endereco":"S/N"},{"no_bairro":"ZONA RURAL"},{"nu_telefone":"(66)3596-1075"},{"co_cep":"78575000"},{"uf":"MT"},{"cidade":"Juara"},{"ano_ubs_det":"2016"},{"mes_ubs_det":"5"}],"geometry":{"type":"Point","coordinates":[-57.718097229004,-10.395409973695]}},{"type":"Feature","properties":[{"gid":"3947"},{"co_cnes":"2391708"},{"lat":"-10.4277741909024"},{"long":"-54.4497227668746"},{"no_fantasia":"PSF 06 JOAO BORGES SOBRINHO"},{"no_logradouro":"BR 080 DISTRITO UNIAO DO NORTE"},{"nu_endereco":"S/N"},{"no_bairro":"ZONA RURAL"},{"nu_telefone":"06635041033"},{"co_cep":"78530000"},{"uf":"MT"},{"cidade":"Peixoto de Azevedo"},{"ano_ubs_det":"2016"},{"mes_ubs_det":"5"}],"geometry":{"type":"Point","coordinates":[-54.449722766875,-10.427774190902]}},{"type":"Feature","properties":[{"gid":"3632"},{"co_cnes":"2654822"},{"lat":"-11.054461226405"},{"long":"-51.8312537670135"},{"no_fantasia":"UNIDADE SAUDE DA FAMILIA II RURAL"},{"no_logradouro":"RUA TAPIRAPE"},{"nu_endereco":"S/N"},{"no_bairro":"CENTRO"},{"nu_telefone":""},{"co_cep":"78658000"},{"uf":"MT"},{"cidade":"Canabrava do Norte"},{"ano_ubs_det":"2016"},{"mes_ubs_det":"5"}],"geometry":{"type":"Point","coordinates":[-51.831253767014,-11.054461226405]}},{"type":"Feature","properties":[{"gid":"3697"},{"co_cnes":"3189805"},{"lat":"-9.814"},{"long":"-57.862"},{"no_fantasia":"POSTO DE SAUDE PARAISO DO NORTE"},{"no_logradouro":"ASSENTAMENTO JAPURANA I"},{"nu_endereco":"S/N"},{"no_bairro":"ZONA RURAL"},{"nu_telefone":""},{"co_cep":"78565000"},{"uf":"MT"},{"cidade":"Nova Bandeirantes"},{"ano_ubs_det":"2016"},{"mes_ubs_det":"5"}],"geometry":{"type":"Point","coordinates":[-57.862,-9.814]}},{"type":"Feature","properties":[{"gid":"3826"},{"co_cnes":"2654318"},{"lat":"-15.3387594223018"},{"long":"-58.876225948332"},{"no_fantasia":"UNIDADE DE SAUDE DA FAMILIA II JAURU ELIAS BARBOSA LOURO"},{"no_logradouro":"RUA JOSE DE ALENCAR"},{"nu_endereco":"1503"},{"no_bairro":"BOA ESPERANCA"},{"nu_telefone":"(65)32441814"},{"co_cep":"78255000"},{"uf":"MT"},{"cidade":"Jauru"},{"ano_ubs_det":"2016"},{"mes_ubs_det":"5"}],"geometry":{"type":"Point","coordinates":[-58.876225948332,-15.338759422302]}},{"type":"Feature","properties":[{"gid":"3692"},{"co_cnes":"3703517"},{"lat":"-16.3913011550899"},{"long":"-54.153156280516"},{"no_fantasia":"USF ESTER ALVES DE SOUZA GUIRATINGA"},{"no_logradouro":"RUA SAO SALVADOR"},{"nu_endereco":"273"},{"no_bairro":"VALE RICO"},{"nu_telefone":"(66) 3469 1063"},{"co_cep":"78760000"},{"uf":"MT"},{"cidade":"Guiratinga"},{"ano_ubs_det":"2016"},{"mes_ubs_det":"5"}],"geometry":{"type":"Point","coordinates":[-54.153156280516,-16.39130115509]}},{"type":"Feature","properties":[{"gid":"3980"},{"co_cnes":"2767198"},{"lat":"-16.44323"},{"long":"-54.65117"},{"no_fantasia":"PSF MONTE LIBANO"},{"no_logradouro":"AV CASSIMIRO DE ABREU"},{"nu_endereco":"S/N"},{"no_bairro":"JARDIM MONTE LIBANO"},{"nu_telefone":"(66) 34115079"},{"co_cep":"78710240"},{"uf":"MT"},{"cidade":"Rondonópolis"},{"ano_ubs_det":"2016"},{"mes_ubs_det":"5"}],"geometry":{"type":"Point","coordinates":[-54.65117,-16.44323]}},{"type":"Feature","properties":[{"gid":"4152"},{"co_cnes":"3427528"},{"lat":"-16.0623228549953"},{"long":"-54.8244380950912"},{"no_fantasia":"UNIDADE DE SAUDE DA FAMILIA EQ 04 DARIO MOREIRA DE SOUZA"},{"no_logradouro":"RUA CUIABA"},{"nu_endereco":"S/N"},{"no_bairro":"DIST DE IRENOPOLIS"},{"nu_telefone":"(66)4121515"},{"co_cep":"78810000"},{"uf":"MT"},{"cidade":"Juscimeira"},{"ano_ubs_det":"2016"},{"mes_ubs_det":"5"}],"geometry":{"type":"Point","coordinates":[-54.824438095091,-16.062322854995]}},{"type":"Feature","properties":[{"gid":"4203"},{"co_cnes":"2534029"},{"lat":"-11.8580053080776"},{"long":"-55.5009220023867"},{"no_fantasia":"UNIDADE DE SAUDE DA FAMILIA SAO CRISTOVAO"},{"no_logradouro":"ESTRADA JACINTA"},{"nu_endereco":"255"},{"no_bairro":"SAO CRISTOVAO"},{"nu_telefone":"663520727557/9929993"},{"co_cep":"78558000"},{"uf":"MT"},{"cidade":"Sinop"},{"ano_ubs_det":"2016"},{"mes_ubs_det":"5"}],"geometry":{"type":"Point","coordinates":[-55.500922002387,-11.858005308078]}},{"type":"Feature","properties":[{"gid":"4144"},{"co_cnes":"2397811"},{"lat":"-14.4537245567653"},{"long":"-56.8020689751516"},{"no_fantasia":"ESTRATEGIA SAUDE DA FAMILIA I OLIMPIO DE SOUZA"},{"no_logradouro":"AVENIDA DEPUTADO WELINGTON FAGUNDES"},{"nu_endereco":"S/N"},{"no_bairro":"NOVO HORIZONTE"},{"nu_telefone":""},{"co_cep":"78430000"},{"uf":"MT"},{"cidade":"Nortelândia"},{"ano_ubs_det":"2016"},{"mes_ubs_det":"5"}],"geometry":{"type":"Point","coordinates":[-56.802068975152,-14.453724556765]}},{"type":"Feature","properties":[{"gid":"4181"},{"co_cnes":"2767368"},{"lat":"-16.3483892680665"},{"long":"-53.7609640294195"},{"no_fantasia":"USF MARIO MORAES DA COSTA GUIRATINGA"},{"no_logradouro":"AV RIO DAS GARCAS"},{"nu_endereco":"1167"},{"no_bairro":"SAO SEBASTIAO"},{"nu_telefone":"( )"},{"co_cep":"78760000"},{"uf":"MT"},{"cidade":"Guiratinga"},{"ano_ubs_det":"2016"},{"mes_ubs_det":"5"}],"geometry":{"type":"Point","coordinates":[-53.760964029419,-16.348389268067]}},{"type":"Feature","properties":[{"gid":"4214"},{"co_cnes":"2390671"},{"lat":"-15.4605696789084"},{"long":"-55.745004517892"},{"no_fantasia":"UNIDADE DA SAUDE DA FAMILIA CENTRO"},{"no_logradouro":"RUA HOMERO MOUSSER"},{"nu_endereco":"S/N"},{"no_bairro":"CENTRO"},{"nu_telefone":""},{"co_cep":"78195000"},{"uf":"MT"},{"cidade":"Chapada dos Guimarães"},{"ano_ubs_det":"2016"},{"mes_ubs_det":"5"}],"geometry":{"type":"Point","coordinates":[-55.745004517892,-15.460569678908]}},{"type":"Feature","properties":[{"gid":"4259"},{"co_cnes":"5154979"},{"lat":"-11.5053107376486"},{"long":"-54.8741824477688"},{"no_fantasia":"UNIDADE DE SAUDE JOSE CELONI"},{"no_logradouro":"RUA SANTA CATARINA"},{"nu_endereco":"00"},{"no_bairro":"HABITAR BRASIL"},{"nu_telefone":"6699668-1669"},{"co_cep":"78540000"},{"uf":"MT"},{"cidade":"Cláudia"},{"ano_ubs_det":"2016"},{"mes_ubs_det":"5"}],"geometry":{"type":"Point","coordinates":[-54.874182447769,-11.505310737649]}},{"type":"Feature","properties":[{"gid":"4289"},{"co_cnes":"2654539"},{"lat":"-12.24009"},{"long":"-56.15119"},{"no_fantasia":"PSF I IPIRANGA"},{"no_logradouro":"RUA DAS ACEROLAS"},{"nu_endereco":"190"},{"no_bairro":"CENTRO"},{"nu_telefone":"(66) 3588 1202"},{"co_cep":"78578000"},{"uf":"MT"},{"cidade":"Ipiranga do Norte"},{"ano_ubs_det":"2016"},{"mes_ubs_det":"5"}],"geometry":{"type":"Point","coordinates":[-56.15119,-12.24009]}},{"type":"Feature","properties":[{"gid":"4117"},{"co_cnes":"5310164"},{"lat":"-9.86042261123629"},{"long":"-56.092350482939"},{"no_fantasia":"PSF X ENF GILENO FARIAS TEOFILO"},{"no_logradouro":"AV AYRTON SENA"},{"nu_endereco":"S/N"},{"no_bairro":"SAO JOSE OPERARIO"},{"nu_telefone":"66-3903-1158"},{"co_cep":"78580000"},{"uf":"MT"},{"cidade":"Alta Floresta"},{"ano_ubs_det":"2016"},{"mes_ubs_det":"5"}],"geometry":{"type":"Point","coordinates":[-56.092350482939,-9.8604226112363]}},{"type":"Feature","properties":[{"gid":"4075"},{"co_cnes":"2655489"},{"lat":"-15.6218504905696"},{"long":"-56.0808920860274"},{"no_fantasia":"CENTRO DE SAUDE GRANDE TERCEIRO"},{"no_logradouro":"RUA TELES PIRES"},{"nu_endereco":"S/N"},{"no_bairro":"GRANDE TERCEIRO"},{"nu_telefone":"(65) 3617-1328"},{"co_cep":"78060000"},{"uf":"MT"},{"cidade":"Cuiabá"},{"ano_ubs_det":"2016"},{"mes_ubs_det":"5"}],"geometry":{"type":"Point","coordinates":[-56.080892086027,-15.62185049057]}},{"type":"Feature","properties":[{"gid":"4218"},{"co_cnes":"2472279"},{"lat":"-14.6600639820095"},{"long":"-57.4690318107588"},{"no_fantasia":"USF ALTO DA BOA VISTA TANGARA DA SERRA"},{"no_logradouro":"AV TANGARA"},{"nu_endereco":"S/N"},{"no_bairro":"ALTO DA BOA VISTA"},{"nu_telefone":"(065) 3311-5191"},{"co_cep":"78300000"},{"uf":"MT"},{"cidade":"Tangará da Serra"},{"ano_ubs_det":"2016"},{"mes_ubs_det":"5"}],"geometry":{"type":"Point","coordinates":[-57.469031810759,-14.66006398201]}},{"type":"Feature","properties":[{"gid":"4285"},{"co_cnes":"6566944"},{"lat":"-12.5517767078455"},{"long":"-55.7259136750913"},{"no_fantasia":"UNIDADE DE SAUDE DA FAMILIA NOVA ALIANCA USF XVII"},{"no_logradouro":"RUA D"},{"nu_endereco":"S/N"},{"no_bairro":"NOVA ALIANCA"},{"nu_telefone":"66 35443807"},{"co_cep":"78890000"},{"uf":"MT"},{"cidade":"Sorriso"},{"ano_ubs_det":"2016"},{"mes_ubs_det":"5"}],"geometry":{"type":"Point","coordinates":[-55.725913675091,-12.551776707845]}},{"type":"Feature","properties":[{"gid":"4267"},{"co_cnes":"2396270"},{"lat":"-16.6222104158825"},{"long":"-54.4713956382101"},{"no_fantasia":"UNIDADE DE SAUDE DA FAMILIA JOAO DE BARRO DE PRETA"},{"no_logradouro":"AV ARTUR ORLATO"},{"nu_endereco":"22"},{"no_bairro":"JOAO DE BARRO"},{"nu_telefone":"0(66) 3486-2500"},{"co_cep":"78795000"},{"uf":"MT"},{"cidade":"Pedra Preta"},{"ano_ubs_det":"2016"},{"mes_ubs_det":"5"}],"geometry":{"type":"Point","coordinates":[-54.47139563821,-16.622210415882]}},{"type":"Feature","properties":[{"gid":"4534"},{"co_cnes":"2396467"},{"lat":"-16.4564895629878"},{"long":"-54.6156120300277"},{"no_fantasia":"PSF VILA CARDOSO"},{"no_logradouro":"RUA PAPA ADRIANO"},{"nu_endereco":"S/N"},{"no_bairro":"VILA CARDOSO"},{"nu_telefone":"(66) 34227407"},{"co_cep":"78730103"},{"uf":"MT"},{"cidade":"Rondonópolis"},{"ano_ubs_det":"2016"},{"mes_ubs_det":"5"}],"geometry":{"type":"Point","coordinates":[-54.615612030028,-16.456489562988]}},{"type":"Feature","properties":[{"gid":"4565"},{"co_cnes":"2767333"},{"lat":"-15.46478"},{"long":"-55.75035"},{"no_fantasia":"UNIDADE DE SAUDE DA FAMILIA JOAO CARRO"},{"no_logradouro":"COMUNIDADE"},{"nu_endereco":"S/N"},{"no_bairro":"JOAO CARRO"},{"nu_telefone":""},{"co_cep":"78195000"},{"uf":"MT"},{"cidade":"Chapada dos Guimarães"},{"ano_ubs_det":"2016"},{"mes_ubs_det":"5"}],"geometry":{"type":"Point","coordinates":[-55.75035,-15.46478]}},{"type":"Feature","properties":[{"gid":"4532"},{"co_cnes":"2534134"},{"lat":"-11.8326294422146"},{"long":"-55.5216836929305"},{"no_fantasia":"UNIDADE DE SAUDE DA FAMILIA BOA ESPERANCA"},{"no_logradouro":"RUA PADRE ANTONIO HAIDLER"},{"nu_endereco":"S/N"},{"no_bairro":"BOA ESPERANCA"},{"nu_telefone":"6635207289/992320644"},{"co_cep":"78553857"},{"uf":"MT"},{"cidade":"Sinop"},{"ano_ubs_det":"2016"},{"mes_ubs_det":"5"}],"geometry":{"type":"Point","coordinates":[-55.521683692931,-11.832629442215]}},{"type":"Feature","properties":[{"gid":"4661"},{"co_cnes":"2311488"},{"lat":"-11.2280970998312"},{"long":"-50.6632015831694"},{"no_fantasia":"CENTRO DE SAUDE DE LUCIARA"},{"no_logradouro":"RUA D"},{"nu_endereco":"S/N"},{"no_bairro":"SETOR UNIVERSITARIO"},{"nu_telefone":"(66) 3528-1346"},{"co_cep":"78660000"},{"uf":"MT"},{"cidade":"Luciara"},{"ano_ubs_det":"2016"},{"mes_ubs_det":"5"}],"geometry":{"type":"Point","coordinates":[-50.663201583169,-11.228097099831]}},{"type":"Feature","properties":[{"gid":"4674"},{"co_cnes":"3055574"},{"lat":"-15.0747013092037"},{"long":"-57.1948456764205"},{"no_fantasia":"CENTRO INTEGRADO DE SAUDE ORIENTE"},{"no_logradouro":"RUA DA ALEGRIA"},{"nu_endereco":"S/N"},{"no_bairro":"JARDIM REPUBLICA"},{"nu_telefone":"(65) 3612133"},{"co_cep":"78390000"},{"uf":"MT"},{"cidade":"Barra do Bugres"},{"ano_ubs_det":"2016"},{"mes_ubs_det":"5"}],"geometry":{"type":"Point","coordinates":[-57.19484567642,-15.074701309204]}},{"type":"Feature","properties":[{"gid":"5713"},{"co_cnes":"2571870"},{"lat":"-13.5644459724422"},{"long":"-52.2569203376755"},{"no_fantasia":"PSF MUTIRAO"},{"no_logradouro":"RUA LAGOA VERMELHA"},{"nu_endereco":"S/N"},{"no_bairro":"SOL NASCENTE"},{"nu_telefone":"(66)4782121"},{"co_cep":"78640000"},{"uf":"MT"},{"cidade":"Canarana"},{"ano_ubs_det":"2016"},{"mes_ubs_det":"5"}],"geometry":{"type":"Point","coordinates":[-52.256920337676,-13.564445972442]}},{"type":"Feature","properties":[{"gid":"5186"},{"co_cnes":"6152902"},{"lat":"-15.9181058406825"},{"long":"-52.2686576843247"},{"no_fantasia":"UNIDADE SAUDE DA FAMILIA BENJAMIN CORREA DE MIRANDA"},{"no_logradouro":"RUA FLORENCIO MARQUES DOS REIS"},{"nu_endereco":"S/N"},{"no_bairro":"MARIA JOAQUINA"},{"nu_telefone":""},{"co_cep":"78698000"},{"uf":"MT"},{"cidade":"Pontal do Araguaia"},{"ano_ubs_det":"2016"},{"mes_ubs_det":"5"}],"geometry":{"type":"Point","coordinates":[-52.268657684325,-15.918105840683]}},{"type":"Feature","properties":[{"gid":"4901"},{"co_cnes":"6938019"},{"lat":"-13.0457818508144"},{"long":"-55.9224486350997"},{"no_fantasia":"POSTO DE SAUDE DA FAMILIA XI TESSELE JUNIOR"},{"no_logradouro":"RUA AMAZONITA"},{"nu_endereco":"39"},{"no_bairro":"LUIZ CARLOS TESSELE"},{"nu_telefone":"65-3549-2757"},{"co_cep":"78455000"},{"uf":"MT"},{"cidade":"Lucas do Rio Verde"},{"ano_ubs_det":"2016"},{"mes_ubs_det":"5"}],"geometry":{"type":"Point","coordinates":[-55.9224486351,-13.045781850814]}},{"type":"Feature","properties":[{"gid":"5106"},{"co_cnes":"2472864"},{"lat":"-14.0278029441829"},{"long":"-52.1698665618881"},{"no_fantasia":"ESF CRISTALINO"},{"no_logradouro":"AVENIDA A"},{"nu_endereco":"285"},{"no_bairro":"CRISTALINO"},{"nu_telefone":"(66) 3468-3688"},{"co_cep":"78635000"},{"uf":"MT"},{"cidade":"Água Boa"},{"ano_ubs_det":"2016"},{"mes_ubs_det":"5"}],"geometry":{"type":"Point","coordinates":[-52.169866561888,-14.027802944183]}},{"type":"Feature","properties":[{"gid":"5173"},{"co_cnes":"2655144"},{"lat":"-15.5847287178035"},{"long":"-56.0591125488265"},{"no_fantasia":"USF BELA VISTA"},{"no_logradouro":"RUA PRINCIPAL"},{"nu_endereco":"S/N"},{"no_bairro":"BELA VISTA"},{"nu_telefone":"(65) 3617-1338"},{"co_cep":"78050000"},{"uf":"MT"},{"cidade":"Cuiabá"},{"ano_ubs_det":"2016"},{"mes_ubs_det":"5"}],"geometry":{"type":"Point","coordinates":[-56.059112548826,-15.584728717804]}},{"type":"Feature","properties":[{"gid":"4925"},{"co_cnes":"5775191"},{"lat":"-15.9610759"},{"long":"-54.9724939"},{"no_fantasia":"UNIDADE DE SAUDE DA FAMILIA CENTRO"},{"no_logradouro":"AVENIDA PAJE"},{"nu_endereco":"S/N"},{"no_bairro":"CENTRO"},{"nu_telefone":"(66) 3461-5809"},{"co_cep":"78820000"},{"uf":"MT"},{"cidade":"Jaciara"},{"ano_ubs_det":"2016"},{"mes_ubs_det":"5"}],"geometry":{"type":"Point","coordinates":[-54.9724939,-15.9610759]}},{"type":"Feature","properties":[{"gid":"4826"},{"co_cnes":"2391465"},{"lat":"-16.2595094669667"},{"long":"-56.626509352735"},{"no_fantasia":"PSF CENTRAL"},{"no_logradouro":"RUA PADRE MANOEL FRANCISCO"},{"nu_endereco":"00"},{"no_bairro":"CENTRO"},{"nu_telefone":"(65)33453020"},{"co_cep":"78175000"},{"uf":"MT"},{"cidade":"Poconé"},{"ano_ubs_det":"2016"},{"mes_ubs_det":"5"}],"geometry":{"type":"Point","coordinates":[-56.626509352735,-16.259509466967]}},{"type":"Feature","properties":[{"gid":"5588"},{"co_cnes":"7336934"},{"lat":"-12.5913826998427"},{"long":"-52.2134786634445"},{"no_fantasia":"ESF SETOR F"},{"no_logradouro":"RUA F 15 QD20"},{"nu_endereco":"32"},{"no_bairro":"SETOR F"},{"nu_telefone":"6635291294"},{"co_cep":"78643000"},{"uf":"MT"},{"cidade":"Querência"},{"ano_ubs_det":"2016"},{"mes_ubs_det":"5"}],"geometry":{"type":"Point","coordinates":[-52.213478663445,-12.591382699843]}},{"type":"Feature","properties":[{"gid":"5538"},{"co_cnes":"2471175"},{"lat":"-10.1792943477628"},{"long":"-55.8154392242415"},{"no_fantasia":"POSTO DE SAUDE DEL REY"},{"no_logradouro":"SETOR DEL REY COMUN ESTRELA DO MAR"},{"nu_endereco":"S/N"},{"no_bairro":"ZONA RURAL"},{"nu_telefone":"(66)98434-4717"},{"co_cep":"78587000"},{"uf":"MT"},{"cidade":"Carlinda"},{"ano_ubs_det":"2016"},{"mes_ubs_det":"5"}],"geometry":{"type":"Point","coordinates":[-55.815439224242,-10.179294347763]}},{"type":"Feature","properties":[{"gid":"5457"},{"co_cnes":"5420997"},{"lat":"-12.306"},{"long":"-55.317"},{"no_fantasia":"POSTO DE SAUDE BLAIRO MAGGI"},{"no_logradouro":"ASSENTAMENTO CALIFORNIA"},{"nu_endereco":"S/N"},{"no_bairro":"RURAL"},{"nu_telefone":""},{"co_cep":"78880000"},{"uf":"MT"},{"cidade":"Vera"},{"ano_ubs_det":"2016"},{"mes_ubs_det":"5"}],"geometry":{"type":"Point","coordinates":[-55.317,-12.306]}},{"type":"Feature","properties":[{"gid":"5503"},{"co_cnes":"2655497"},{"lat":"-15.5992877483363"},{"long":"-56.0749483108504"},{"no_fantasia":"CENTRO DE SAUDE JARDIM LEBLON"},{"no_logradouro":"RUA PROJETADA"},{"nu_endereco":"S/N"},{"no_bairro":"JARDIM LEBLON"},{"nu_telefone":"(65) 3617-1661"},{"co_cep":"78020000"},{"uf":"MT"},{"cidade":"Cuiabá"},{"ano_ubs_det":"2016"},{"mes_ubs_det":"5"}],"geometry":{"type":"Point","coordinates":[-56.07494831085,-15.599287748336]}},{"type":"Feature","properties":[{"gid":"5621"},{"co_cnes":"2392771"},{"lat":"-11.5338400294576"},{"long":"-57.408353838005"},{"no_fantasia":"POSTO DE SAUDE DA FAMILIA GLEBA SAO JOAO"},{"no_logradouro":"RUA FORTALEZA"},{"nu_endereco":"S/N"},{"no_bairro":"GLEBA SAO JOAO"},{"nu_telefone":"6635671080"},{"co_cep":"78560000"},{"uf":"MT"},{"cidade":"Porto dos Gaúchos"},{"ano_ubs_det":"2016"},{"mes_ubs_det":"5"}],"geometry":{"type":"Point","coordinates":[-57.408353838005,-11.533840029458]}},{"type":"Feature","properties":[{"gid":"5972"},{"co_cnes":"2396254"},{"lat":"-16.6222104158825"},{"long":"-54.4713956382101"},{"no_fantasia":"UNIDADE DE SAUDE DA FAMILIA GARCA BRANCA DE PEDRA PRETA"},{"no_logradouro":"VILA GARCA BRANCA"},{"nu_endereco":"S/N"},{"no_bairro":"TATUAPE"},{"nu_telefone":""},{"co_cep":"78795000"},{"uf":"MT"},{"cidade":"Pedra Preta"},{"ano_ubs_det":"2016"},{"mes_ubs_det":"5"}],"geometry":{"type":"Point","coordinates":[-54.47139563821,-16.622210415882]}},{"type":"Feature","properties":[{"gid":"5937"},{"co_cnes":"2392798"},{"lat":"-11.5338400294576"},{"long":"-57.408353838005"},{"no_fantasia":"UNIDADE DE SAUDE DA FAMILIA URBANO"},{"no_logradouro":"RUA PAULO REZER"},{"nu_endereco":"791"},{"no_bairro":"CENTRO"},{"nu_telefone":"6635261625"},{"co_cep":"78560000"},{"uf":"MT"},{"cidade":"Porto dos Gaúchos"},{"ano_ubs_det":"2016"},{"mes_ubs_det":"5"}],"geometry":{"type":"Point","coordinates":[-57.408353838005,-11.533840029458]}},{"type":"Feature","properties":[{"gid":"5808"},{"co_cnes":"2494825"},{"lat":"-15.5646872520442"},{"long":"-56.0398221015914"},{"no_fantasia":"CENTRO DE SAUDE DO CPA III"},{"no_logradouro":"RUA 39 QD 2"},{"nu_endereco":"S/N"},{"no_bairro":"CPIII SETOR 2"},{"nu_telefone":"(65) 3646-5161"},{"co_cep":"78050000"},{"uf":"MT"},{"cidade":"Cuiabá"},{"ano_ubs_det":"2016"},{"mes_ubs_det":"5"}],"geometry":{"type":"Point","coordinates":[-56.039822101591,-15.564687252044]}},{"type":"Feature","properties":[{"gid":"5769"},{"co_cnes":"2699796"},{"lat":"-14.8020738872643"},{"long":"-53.6146773397923"},{"no_fantasia":"CENTRO MUNICIPAL DE SAUDE DE SANTO ANTONIO DO LESTE"},{"no_logradouro":"RUA DAS FLORES"},{"nu_endereco":"677"},{"no_bairro":"NOVO CAMPO"},{"nu_telefone":"(66)9242-9596"},{"co_cep":"78628000"},{"uf":"MT"},{"cidade":"Santo Antônio do Leste"},{"ano_ubs_det":"2016"},{"mes_ubs_det":"5"}],"geometry":{"type":"Point","coordinates":[-53.614677339792,-14.802073887264]}},{"type":"Feature","properties":[{"gid":"5997"},{"co_cnes":"3040240"},{"lat":"-15.3957939147945"},{"long":"-55.9916496276839"},{"no_fantasia":"USF RIO DOS PEIXES"},{"no_logradouro":"RODOVIA EMANUAL PINHEIRO"},{"nu_endereco":"S/N"},{"no_bairro":"RIO DOS PEIXES"},{"nu_telefone":"(65) 99624-0595"},{"co_cep":"78008000"},{"uf":"MT"},{"cidade":"Cuiabá"},{"ano_ubs_det":"2016"},{"mes_ubs_det":"5"}],"geometry":{"type":"Point","coordinates":[-55.991649627684,-15.395793914795]}},{"type":"Feature","properties":[{"gid":"5636"},{"co_cnes":"2396939"},{"lat":"-17.3154616355891"},{"long":"-53.2195115089401"},{"no_fantasia":"CENTRO DE SAUDE LAURINDO PIRES DE MORAIS"},{"no_logradouro":"RUA QUINTINO BOCAIUVA"},{"nu_endereco":"682"},{"no_bairro":"CENTRO"},{"nu_telefone":"(66)481 1777"},{"co_cep":"78780000"},{"uf":"MT"},{"cidade":"Alto Araguaia"},{"ano_ubs_det":"2016"},{"mes_ubs_det":"5"}],"geometry":{"type":"Point","coordinates":[-53.21951150894,-17.315461635589]}},{"type":"Feature","properties":[{"gid":"5695"},{"co_cnes":"2391139"},{"lat":"-15.7721722126003"},{"long":"-56.3417315483077"},{"no_fantasia":"UNIDADE DE SAUDE DA FAMILIA RURAL SUL NORTE"},{"no_logradouro":"RUA CORONEL MANOEL FELIX"},{"nu_endereco":"S/N"},{"no_bairro":"CENTRO"},{"nu_telefone":"(65)3351-1293"},{"co_cep":"78170000"},{"uf":"MT"},{"cidade":"Nossa Senhora do Livramento"},{"ano_ubs_det":"2016"},{"mes_ubs_det":"5"}],"geometry":{"type":"Point","coordinates":[-56.341731548308,-15.7721722126]}},{"type":"Feature","properties":[{"gid":"6396"},{"co_cnes":"5513103"},{"lat":"-14.4697889940042"},{"long":"-59.5903305027945"},{"no_fantasia":"PSF 01 DERCIDES DIAS DE MORAES NOVA LACERDA"},{"no_logradouro":"AVENIDA UIRAPURU"},{"nu_endereco":"743"},{"no_bairro":"CENTRO"},{"nu_telefone":"(65) 3259 4326"},{"co_cep":"78243000"},{"uf":"MT"},{"cidade":"Nova Lacerda"},{"ano_ubs_det":"2016"},{"mes_ubs_det":"5"}],"geometry":{"type":"Point","coordinates":[-59.590330502795,-14.469788994004]}},{"type":"Feature","properties":[{"gid":"6044"},{"co_cnes":"2682737"},{"lat":"-14.1977047920223"},{"long":"-56.4223480224593"},{"no_fantasia":"UNIDADE DE SAUDE DA FAMILIA RURAL"},{"no_logradouro":"ZONA RURAL"},{"nu_endereco":"S/N"},{"no_bairro":"ZONA RURAL"},{"nu_telefone":"65 3336-1357"},{"co_cep":"78400000"},{"uf":"MT"},{"cidade":"Diamantino"},{"ano_ubs_det":"2016"},{"mes_ubs_det":"5"}],"geometry":{"type":"Point","coordinates":[-56.422348022459,-14.197704792022]}},{"type":"Feature","properties":[{"gid":"6263"},{"co_cnes":"2396645"},{"lat":"-16.4525306224818"},{"long":"-54.622693061827"},{"no_fantasia":"PSF JARDIM ASSUNCAO"},{"no_logradouro":"AV MANOEL DOS SANTOS BORGES"},{"nu_endereco":"194"},{"no_bairro":"JARDIM ASSUNCAO"},{"nu_telefone":"(66)4115306"},{"co_cep":"78720250"},{"uf":"MT"},{"cidade":"Rondonópolis"},{"ano_ubs_det":"2016"},{"mes_ubs_det":"5"}],"geometry":{"type":"Point","coordinates":[-54.622693061827,-16.452530622482]}},{"type":"Feature","properties":[{"gid":"6201"},{"co_cnes":"7078013"},{"lat":"-12.5477866930391"},{"long":"-55.71088672732"},{"no_fantasia":"UNIDADE DE SAUDE DA FAMILIA ROTA DO SOL USF XX"},{"no_logradouro":"RUA CAMINHO DO SOL"},{"nu_endereco":"S/N"},{"no_bairro":"ROTA DO SOL"},{"nu_telefone":"66 35450130"},{"co_cep":"78890000"},{"uf":"MT"},{"cidade":"Sorriso"},{"ano_ubs_det":"2016"},{"mes_ubs_det":"5"}],"geometry":{"type":"Point","coordinates":[-55.71088672732,-12.547786693039]}},{"type":"Feature","properties":[{"gid":"6352"},{"co_cnes":"3316505"},{"lat":"-15.63893"},{"long":"-56.15057"},{"no_fantasia":"ESF VILA ARTHUR MARIA GALDINA DA SILVA"},{"no_logradouro":"AVENIDA 07 DE SETEMBRO QD 26 LT 09"},{"nu_endereco":"S/N"},{"no_bairro":"VILA ARTHUR"},{"nu_telefone":"3684-9893/98443-3723"},{"co_cep":"78140425"},{"uf":"MT"},{"cidade":"Várzea Grande"},{"ano_ubs_det":"2016"},{"mes_ubs_det":"5"}],"geometry":{"type":"Point","coordinates":[-56.15057,-15.63893]}},{"type":"Feature","properties":[{"gid":"6143"},{"co_cnes":"2392852"},{"lat":"-11.0693585872647"},{"long":"-57.5674366950972"},{"no_fantasia":"POSTO DE SAUDE AGUAS CLARAS"},{"no_logradouro":"KM 30 COMUNIDADE DE AGUAS CLARAS"},{"nu_endereco":"S/N"},{"no_bairro":"ZONA RURAL"},{"nu_telefone":"(66)3556-1501"},{"co_cep":"78575000"},{"uf":"MT"},{"cidade":"Juara"},{"ano_ubs_det":"2016"},{"mes_ubs_det":"5"}],"geometry":{"type":"Point","coordinates":[-57.567436695097,-11.069358587265]}},{"type":"Feature","properties":[{"gid":"6277"},{"co_cnes":"7334494"},{"lat":"-11.8381186781225"},{"long":"-55.5202674865723"},{"no_fantasia":"UNIDADE DE SAUDE DA FAMILIA MARIA VINDILINA"},{"no_logradouro":"AVENIDA DOS XINGUS"},{"nu_endereco":"S/N"},{"no_bairro":"MARIA VINDIINA III"},{"nu_telefone":"6635207294/992362023"},{"co_cep":"78553195"},{"uf":"MT"},{"cidade":"Sinop"},{"ano_ubs_det":"2016"},{"mes_ubs_det":"5"}],"geometry":{"type":"Point","coordinates":[-55.520267486572,-11.838118678123]}},{"type":"Feature","properties":[{"gid":"6466"},{"co_cnes":"4069056"},{"lat":"-14.4592416286464"},{"long":"-56.8483901023848"},{"no_fantasia":"PSF II VILA RICA ARENAPOLIS"},{"no_logradouro":"RUA GLICERIO MARTINS PINTO"},{"nu_endereco":"S/N"},{"no_bairro":"VILA RICA"},{"nu_telefone":"( )"},{"co_cep":"78420000"},{"uf":"MT"},{"cidade":"Arenápolis"},{"ano_ubs_det":"2016"},{"mes_ubs_det":"5"}],"geometry":{"type":"Point","coordinates":[-56.848390102385,-14.459241628646]}},{"type":"Feature","properties":[{"gid":"6712"},{"co_cnes":"2395630"},{"lat":"-15.730362829726"},{"long":"-51.8341049551964"},{"no_fantasia":"UNIDADE SAUDE DA FAMILIA RENASCER"},{"no_logradouro":"RUA MANOEL INACIO"},{"nu_endereco":"S/N"},{"no_bairro":"CENTRO"},{"nu_telefone":"(65)4991260"},{"co_cep":"78685000"},{"uf":"MT"},{"cidade":"Araguaiana"},{"ano_ubs_det":"2016"},{"mes_ubs_det":"5"}],"geometry":{"type":"Point","coordinates":[-51.834104955196,-15.730362829726]}},{"type":"Feature","properties":[{"gid":"6666"},{"co_cnes":"5554950"},{"lat":"-10.1721074662032"},{"long":"-54.9318057201458"},{"no_fantasia":"UNIDADE DE SAUDE DA FAMILIA UNIAO"},{"no_logradouro":"RUA 04"},{"nu_endereco":"S/N"},{"no_bairro":"UNIAO"},{"nu_telefone":"66 3595 2264"},{"co_cep":"78525000"},{"uf":"MT"},{"cidade":"Matupá"},{"ano_ubs_det":"2016"},{"mes_ubs_det":"5"}],"geometry":{"type":"Point","coordinates":[-54.931805720146,-10.172107466203]}},{"type":"Feature","properties":[{"gid":"6824"},{"co_cnes":"2471779"},{"lat":"-13.6547331732023"},{"long":"-57.8885464788371"},{"no_fantasia":"USF JARDIM DAS PALMEIRAS CAMPO NOVO"},{"no_logradouro":"AV MINAS GERAIS"},{"nu_endereco":"1439"},{"no_bairro":"JARDIM DAS PALMEIRAS"},{"nu_telefone":"(65) 3382-3031"},{"co_cep":"78360000"},{"uf":"MT"},{"cidade":"Campo Novo do Parecis"},{"ano_ubs_det":"2016"},{"mes_ubs_det":"5"}],"geometry":{"type":"Point","coordinates":[-57.888546478837,-13.654733173202]}},{"type":"Feature","properties":[{"gid":"7077"},{"co_cnes":"2699346"},{"lat":"-15.8074551507897"},{"long":"-54.9174807825692"},{"no_fantasia":"UNIDADE DE SAUDE DA FAMILIA VILA ESPORTIVA EQUIPE 02"},{"no_logradouro":"AV JOAO FURTADO DE MENDONCA"},{"nu_endereco":"S/N"},{"no_bairro":"VILA ESPORTIVA"},{"nu_telefone":"66 34511236"},{"co_cep":"78830000"},{"uf":"MT"},{"cidade":"Dom Aquino"},{"ano_ubs_det":"2016"},{"mes_ubs_det":"5"}],"geometry":{"type":"Point","coordinates":[-54.917480782569,-15.80745515079]}},{"type":"Feature","properties":[{"gid":"7174"},{"co_cnes":"2655403"},{"lat":"-14.4570636749263"},{"long":"-56.8424248695357"},{"no_fantasia":"ESF SAO MATEUS"},{"no_logradouro":"LEONIDIO VILAS BOAS SAMPAIO"},{"nu_endereco":"S/N"},{"no_bairro":"SAO MATEUS"},{"nu_telefone":"(65) 3431002"},{"co_cep":"78420000"},{"uf":"MT"},{"cidade":"Arenápolis"},{"ano_ubs_det":"2016"},{"mes_ubs_det":"5"}],"geometry":{"type":"Point","coordinates":[-56.842424869536,-14.457063674926]}},{"type":"Feature","properties":[{"gid":"7089"},{"co_cnes":"2394642"},{"lat":"-15.3418963815145"},{"long":"-58.879838397363"},{"no_fantasia":"UNIDADE DE SAUDE DA FAMILIA I JAURU ENEIAS RODRIGUES"},{"no_logradouro":"AV ANGELINA BERGAMACH"},{"nu_endereco":"S/N"},{"no_bairro":"VISTA ALEGRE"},{"nu_telefone":"( )"},{"co_cep":"78255000"},{"uf":"MT"},{"cidade":"Jauru"},{"ano_ubs_det":"2016"},{"mes_ubs_det":"5"}],"geometry":{"type":"Point","coordinates":[-58.879838397363,-15.341896381515]}},{"type":"Feature","properties":[{"gid":"6986"},{"co_cnes":"6226159"},{"lat":"-15.6506037712093"},{"long":"-55.9802556037887"},{"no_fantasia":"USF JARDIM INDUSTRIARIO"},{"no_logradouro":"RUA 20 QDR 17"},{"nu_endereco":"S/N"},{"no_bairro":"JARDIM INDUSTRIARIO"},{"nu_telefone":"(65) 3617-1308/1309"},{"co_cep":"78080000"},{"uf":"MT"},{"cidade":"Cuiabá"},{"ano_ubs_det":"2016"},{"mes_ubs_det":"5"}],"geometry":{"type":"Point","coordinates":[-55.980255603789,-15.650603771209]}},{"type":"Feature","properties":[{"gid":"7007"},{"co_cnes":"3078167"},{"lat":"-15.63963"},{"long":"-56.04046"},{"no_fantasia":"USF DR FABIO I"},{"no_logradouro":"RUA RONDONOPOLIS"},{"nu_endereco":"14"},{"no_bairro":"DOUTOR FABIO"},{"nu_telefone":"(65) 3649-2150"},{"co_cep":"78080000"},{"uf":"MT"},{"cidade":"Cuiabá"},{"ano_ubs_det":"2016"},{"mes_ubs_det":"5"}],"geometry":{"type":"Point","coordinates":[-56.04046,-15.63963]}},{"type":"Feature","properties":[{"gid":"6928"},{"co_cnes":"7413874"},{"lat":"-13.0931889503488"},{"long":"-55.9068489074707"},{"no_fantasia":"PSF XIII PARQUE DAS AMERICAS"},{"no_logradouro":"AVENIDA DAS NACOES"},{"nu_endereco":"10"},{"no_bairro":"PARQUE DAS AMERICAS"},{"nu_telefone":"6535487100"},{"co_cep":"78455000"},{"uf":"MT"},{"cidade":"Lucas do Rio Verde"},{"ano_ubs_det":"2016"},{"mes_ubs_det":"5"}],"geometry":{"type":"Point","coordinates":[-55.906848907471,-13.093188950349]}},{"type":"Feature","properties":[{"gid":"7191"},{"co_cnes":"2393409"},{"lat":"-10.3340451642675"},{"long":"-58.5050296783447"},{"no_fantasia":"UNIDADE DE SAUDE DA FAMILIA VILA NOVA"},{"no_logradouro":"RUA C 4"},{"nu_endereco":"S/N"},{"no_bairro":"VILA NOVA"},{"nu_telefone":"66-35531932"},{"co_cep":"78340000"},{"uf":"MT"},{"cidade":"Juruena"},{"ano_ubs_det":"2016"},{"mes_ubs_det":"5"}],"geometry":{"type":"Point","coordinates":[-58.505029678345,-10.334045164267]}},{"type":"Feature","properties":[{"gid":"7192"},{"co_cnes":"2392836"},{"lat":"-11.3069486618039"},{"long":"-56.8236064910872"},{"no_fantasia":"UNIDADE BASICA DE SAUDE PSF I"},{"no_logradouro":"RUA VILAS BOAS"},{"nu_endereco":"276"},{"no_bairro":"CENTRO"},{"nu_telefone":"(66)05571201"},{"co_cep":"78563000"},{"uf":"MT"},{"cidade":"Tabaporã"},{"ano_ubs_det":"2016"},{"mes_ubs_det":"5"}],"geometry":{"type":"Point","coordinates":[-56.823606491087,-11.306948661804]}},{"type":"Feature","properties":[{"gid":"7289"},{"co_cnes":"7825293"},{"lat":"-12.289816"},{"long":"-51.7677972"},{"no_fantasia":"UBS RURAL BJA"},{"no_logradouro":"RUA GARCES"},{"nu_endereco":"S/N"},{"no_bairro":"CENTRO"},{"nu_telefone":""},{"co_cep":"78678000"},{"uf":"MT"},{"cidade":"Bom Jesus do Araguaia"},{"ano_ubs_det":"2016"},{"mes_ubs_det":"5"}],"geometry":{"type":"Point","coordinates":[-51.7677972,-12.289816]}},{"type":"Feature","properties":[{"gid":"7300"},{"co_cnes":"2654865"},{"lat":"-10.8417359677047"},{"long":"-51.5984916687012"},{"no_fantasia":"UNIDADE SAUDE DA FAMILIA I PAN"},{"no_logradouro":"AV GOIAS"},{"nu_endereco":"S/N"},{"no_bairro":"CENTRO"},{"nu_telefone":""},{"co_cep":"78655000"},{"uf":"MT"},{"cidade":"Porto Alegre do Norte"},{"ano_ubs_det":"2016"},{"mes_ubs_det":"5"}],"geometry":{"type":"Point","coordinates":[-51.598491668701,-10.841735967705]}},{"type":"Feature","properties":[{"gid":"7483"},{"co_cnes":"7559623"},{"lat":"-10.8054544519226"},{"long":"-55.4625960159302"},{"no_fantasia":"PSF DA TORRE"},{"no_logradouro":"TIRADENTES"},{"nu_endereco":"S/N"},{"no_bairro":"TORRE"},{"nu_telefone":""},{"co_cep":"78500000"},{"uf":"MT"},{"cidade":"Colíder"},{"ano_ubs_det":"2016"},{"mes_ubs_det":"5"}],"geometry":{"type":"Point","coordinates":[-55.46259601593,-10.805454451923]}},{"type":"Feature","properties":[{"gid":"7239"},{"co_cnes":"2393441"},{"lat":"-15.3563332557674"},{"long":"-56.2327909469588"},{"no_fantasia":"USF DA GUIA"},{"no_logradouro":"RUA VICENTE FIGUEIREDO"},{"nu_endereco":"S/N"},{"no_bairro":"NOSSA SRA GUIA"},{"nu_telefone":"(65) 3353-4013"},{"co_cep":"78050000"},{"uf":"MT"},{"cidade":"Cuiabá"},{"ano_ubs_det":"2016"},{"mes_ubs_det":"5"}],"geometry":{"type":"Point","coordinates":[-56.232790946959,-15.356333255767]}},{"type":"Feature","properties":[{"gid":"7447"},{"co_cnes":"2571293"},{"lat":"-10.23665"},{"long":"-55.0125"},{"no_fantasia":"PSF 04 ANTONIO AMARO"},{"no_logradouro":"RUA AFONSO BONILHA"},{"nu_endereco":"268"},{"no_bairro":"CENTRO ANTIGO"},{"nu_telefone":"( )"},{"co_cep":"78530000"},{"uf":"MT"},{"cidade":"Peixoto de Azevedo"},{"ano_ubs_det":"2016"},{"mes_ubs_det":"5"}],"geometry":{"type":"Point","coordinates":[-55.0125,-10.23665]}},{"type":"Feature","properties":[{"gid":"7507"},{"co_cnes":"7764561"},{"lat":"-12.5699782975834"},{"long":"-55.6875514984131"},{"no_fantasia":"UNIDADE DE SAUDE DA FAMILIA JONAS PINHEIRO USF XXI"},{"no_logradouro":"ESTRADA PACHECO"},{"nu_endereco":"S/N"},{"no_bairro":"ASSENTAMENTO JONAS P"},{"nu_telefone":"66 35458000"},{"co_cep":"78890000"},{"uf":"MT"},{"cidade":"Sorriso"},{"ano_ubs_det":"2016"},{"mes_ubs_det":"5"}],"geometry":{"type":"Point","coordinates":[-55.687551498413,-12.569978297583]}},{"type":"Feature","properties":[{"gid":"7513"},{"co_cnes":"5739373"},{"lat":"-15.2297275711099"},{"long":"-59.3380018443657"},{"no_fantasia":"UNIDADE DE SAUDE DA FAMILIA PARQUE SANTA CRUZ JARDIM MARILIA"},{"no_logradouro":"AVENIDA PARANA"},{"nu_endereco":"1412"},{"no_bairro":"PARQUE SANTA CRUZ"},{"nu_telefone":"65-32665688"},{"co_cep":"78250000"},{"uf":"MT"},{"cidade":"Pontes e Lacerda"},{"ano_ubs_det":"2016"},{"mes_ubs_det":"5"}],"geometry":{"type":"Point","coordinates":[-59.338001844366,-15.22972757111]}},{"type":"Feature","properties":[{"gid":"7766"},{"co_cnes":"2397145"},{"lat":"-16.4663303087873"},{"long":"-54.2562463683381"},{"no_fantasia":"CENTRO DE SAUDE DE SAO JOSE DO POVO"},{"no_logradouro":"RUA CASTELO BRANCO"},{"nu_endereco":"773"},{"no_bairro":"CENTRO"},{"nu_telefone":"(66)494 1123"},{"co_cep":"78773000"},{"uf":"MT"},{"cidade":"São José do Povo"},{"ano_ubs_det":"2016"},{"mes_ubs_det":"5"}],"geometry":{"type":"Point","coordinates":[-54.256246368338,-16.466330308787]}},{"type":"Feature","properties":[{"gid":"7707"},{"co_cnes":"2394154"},{"lat":"-15.13009"},{"long":"-58.12638"},{"no_fantasia":"UNID DE SAUDE DA FAMILIA II SALTO DO CEU CS"},{"no_logradouro":"RUA DAS OLIVEIRAS"},{"nu_endereco":"S/N"},{"no_bairro":"BELA VISTA"},{"nu_telefone":"(65)02331210"},{"co_cep":"78270000"},{"uf":"MT"},{"cidade":"Salto do Céu"},{"ano_ubs_det":"2016"},{"mes_ubs_det":"5"}],"geometry":{"type":"Point","coordinates":[-58.12638,-15.13009]}},{"type":"Feature","properties":[{"gid":"7726"},{"co_cnes":"3039196"},{"lat":"-9.814"},{"long":"-57.862"},{"no_fantasia":"UNIDADE DE SAUDE DA FAMILIA RURAL DE JAPURANA ESFII"},{"no_logradouro":"RUA VENERANDA DA SPERANZA"},{"nu_endereco":"S/N"},{"no_bairro":"RURAL"},{"nu_telefone":"(66) 35981021"},{"co_cep":"78565000"},{"uf":"MT"},{"cidade":"Nova Bandeirantes"},{"ano_ubs_det":"2016"},{"mes_ubs_det":"5"}],"geometry":{"type":"Point","coordinates":[-57.862,-9.814]}},{"type":"Feature","properties":[{"gid":"7654"},{"co_cnes":"2390558"},{"lat":"-16.2467300891872"},{"long":"-56.6182780265792"},{"no_fantasia":"PSF JOAO GODOFREDO"},{"no_logradouro":"R DAS VIOLETAS"},{"nu_endereco":"S/N"},{"no_bairro":"JOAO GODOFREDO"},{"nu_telefone":"(65)33453020"},{"co_cep":"78175000"},{"uf":"MT"},{"cidade":"Poconé"},{"ano_ubs_det":"2016"},{"mes_ubs_det":"5"}],"geometry":{"type":"Point","coordinates":[-56.618278026579,-16.246730089187]}},{"type":"Feature","properties":[{"gid":"7954"},{"co_cnes":"2394464"},{"lat":"-15.2275228500362"},{"long":"-59.3453550338728"},{"no_fantasia":"UNIDADE SAUDE DA FAMILIA GETULIO ARANTES"},{"no_logradouro":"AV CENTRAL"},{"nu_endereco":"86"},{"no_bairro":"VILA GUAPORE"},{"nu_telefone":"(65) 3266-1835"},{"co_cep":"78250000"},{"uf":"MT"},{"cidade":"Pontes e Lacerda"},{"ano_ubs_det":"2016"},{"mes_ubs_det":"5"}],"geometry":{"type":"Point","coordinates":[-59.345355033873,-15.227522850036]}},{"type":"Feature","properties":[{"gid":"8268"},{"co_cnes":"2472422"},{"lat":"-14.797"},{"long":"-57.288"},{"no_fantasia":"USF OURO VERDE NOVA OLIMPIA"},{"no_logradouro":"RUA JUCELINO KUBSTCHEK"},{"nu_endereco":"S/N"},{"no_bairro":"OURO VERDE"},{"nu_telefone":""},{"co_cep":"78370000"},{"uf":"MT"},{"cidade":"Nova Olímpia"},{"ano_ubs_det":"2016"},{"mes_ubs_det":"5"}],"geometry":{"type":"Point","coordinates":[-57.288,-14.797]}},{"type":"Feature","properties":[{"gid":"8168"},{"co_cnes":"2655500"},{"lat":"-15.5384981632228"},{"long":"-56.0712575912459"},{"no_fantasia":"USF JARDIM VITORIA I"},{"no_logradouro":"AV B"},{"nu_endereco":"S/N"},{"no_bairro":"JD VITORIA"},{"nu_telefone":"(65) 3617-1616"},{"co_cep":"78030000"},{"uf":"MT"},{"cidade":"Cuiabá"},{"ano_ubs_det":"2016"},{"mes_ubs_det":"5"}],"geometry":{"type":"Point","coordinates":[-56.071257591246,-15.538498163223]}},{"type":"Feature","properties":[{"gid":"8761"},{"co_cnes":"2604302"},{"lat":"-15.6136000156398"},{"long":"-56.0985517501815"},{"no_fantasia":"CENTRO DE SAUDE ANA POUPINA"},{"no_logradouro":"AV CARMINDO DE CAMPOS"},{"nu_endereco":"S/N"},{"no_bairro":"DOM AQUINO"},{"nu_telefone":"(65) 3617-1253"},{"co_cep":"78005000"},{"uf":"MT"},{"cidade":"Cuiabá"},{"ano_ubs_det":"2016"},{"mes_ubs_det":"5"}],"geometry":{"type":"Point","coordinates":[-56.098551750181,-15.61360001564]}},{"type":"Feature","properties":[{"gid":"8402"},{"co_cnes":"2654652"},{"lat":"-13.0315339565273"},{"long":"-55.2501368522628"},{"no_fantasia":"USF I"},{"no_logradouro":"AVN TANCREDO NEVES"},{"nu_endereco":"S/N"},{"no_bairro":"CENTRO"},{"nu_telefone":"(66) 5791162"},{"co_cep":"78888000"},{"uf":"MT"},{"cidade":"Nova Ubiratã"},{"ano_ubs_det":"2016"},{"mes_ubs_det":"5"}],"geometry":{"type":"Point","coordinates":[-55.250136852263,-13.031533956527]}},{"type":"Feature","properties":[{"gid":"8792"},{"co_cnes":"2533952"},{"lat":"-11.0778450965878"},{"long":"-54.5121431350692"},{"no_fantasia":"PROGRAMA DE SAUDE DA FAMILIA 03"},{"no_logradouro":"RUA DOMINGOS MARTINS"},{"nu_endereco":"900"},{"no_bairro":"CENTRO"},{"nu_telefone":"(66)3536 2983"},{"co_cep":"78535000"},{"uf":"MT"},{"cidade":"Marcelândia"},{"ano_ubs_det":"2016"},{"mes_ubs_det":"5"}],"geometry":{"type":"Point","coordinates":[-54.512143135069,-11.077845096588]}},{"type":"Feature","properties":[{"gid":"8437"},{"co_cnes":"2394049"},{"lat":"-13.6556196212765"},{"long":"-59.8034763336164"},{"no_fantasia":"UNIDADE DE SAUDE FAMILIAR PSF CIDADE VERDE"},{"no_logradouro":"RUA ANGELA PRESTES ZANON"},{"nu_endereco":"123"},{"no_bairro":"CIDADE VERDE"},{"nu_telefone":"(65)02831926"},{"co_cep":"78310000"},{"uf":"MT"},{"cidade":"Comodoro"},{"ano_ubs_det":"2016"},{"mes_ubs_det":"5"}],"geometry":{"type":"Point","coordinates":[-59.803476333616,-13.655619621277]}},{"type":"Feature","properties":[{"gid":"8668"},{"co_cnes":"2795876"},{"lat":"-11.864"},{"long":"-55.504"},{"no_fantasia":"UNIDADE DE SAUDE DA FAMILIA MENINO JESUS"},{"no_logradouro":"RUA JOAO PEDRO MOREIRA DE CARVALHO"},{"nu_endereco":"513"},{"no_bairro":"MENINO JESUS"},{"nu_telefone":"6635207237/35312192"},{"co_cep":"78557195"},{"uf":"MT"},{"cidade":"Sinop"},{"ano_ubs_det":"2016"},{"mes_ubs_det":"5"}],"geometry":{"type":"Point","coordinates":[-55.504,-11.864]}},{"type":"Feature","properties":[{"gid":"8413"},{"co_cnes":"2655225"},{"lat":"-14.8239147663112"},{"long":"-56.4242577552779"},{"no_fantasia":"UNIDADE DE SAUDE DA FAMILIA II N SRA APARECIDA"},{"no_logradouro":"RUA WC"},{"nu_endereco":"S/N"},{"no_bairro":"NOSSA SRA APARECIDA"},{"nu_telefone":""},{"co_cep":"78470000"},{"uf":"MT"},{"cidade":"Rosário Oeste"},{"ano_ubs_det":"2016"},{"mes_ubs_det":"5"}],"geometry":{"type":"Point","coordinates":[-56.424257755278,-14.823914766311]}},{"type":"Feature","properties":[{"gid":"8672"},{"co_cnes":"2394367"},{"lat":"-15.467934608459"},{"long":"-58.3507490158064"},{"no_fantasia":"CENTRO DE ESPECIALIDADES EM SAUDE DE ARAPUTANGA"},{"no_logradouro":"RUA ARTUR FRANCISCO XAVIER"},{"nu_endereco":"S/N"},{"no_bairro":"CENTRO"},{"nu_telefone":"(65)032611889"},{"co_cep":"78260000"},{"uf":"MT"},{"cidade":"Araputanga"},{"ano_ubs_det":"2016"},{"mes_ubs_det":"5"}],"geometry":{"type":"Point","coordinates":[-58.350749015806,-15.467934608459]}},{"type":"Feature","properties":[{"gid":"8470"},{"co_cnes":"2654849"},{"lat":"-11.61939"},{"long":"-50.6632"},{"no_fantasia":"UNIDADE DE SAUDE DA FAMILIA II SFA"},{"no_logradouro":"RUA 08"},{"nu_endereco":"S/N"},{"no_bairro":"CENTRO"},{"nu_telefone":""},{"co_cep":"78670000"},{"uf":"MT"},{"cidade":"São Félix do Araguaia"},{"ano_ubs_det":"2016"},{"mes_ubs_det":"5"}],"geometry":{"type":"Point","coordinates":[-50.6632,-11.61939]}},{"type":"Feature","properties":[{"gid":"8686"},{"co_cnes":"2470985"},{"lat":"-15.6023132801051"},{"long":"-56.0835528373702"},{"no_fantasia":"USF AREAO"},{"no_logradouro":"AV DESEMBARGADOR ANTONIO QUIRINO DE ARAUJO"},{"nu_endereco":"00001"},{"no_bairro":"AREAO"},{"nu_telefone":"(65) 3617-1760"},{"co_cep":"78010000"},{"uf":"MT"},{"cidade":"Cuiabá"},{"ano_ubs_det":"2016"},{"mes_ubs_det":"5"}],"geometry":{"type":"Point","coordinates":[-56.08355283737,-15.602313280105]}},{"type":"Feature","properties":[{"gid":"8722"},{"co_cnes":"2398532"},{"lat":"-12.2343599796292"},{"long":"-56.6440701484664"},{"no_fantasia":"PSF I UNIDADE SAUDE DA FAMILIA DE UNIAO DA VITORIA"},{"no_logradouro":"RUA FORTALEZA"},{"nu_endereco":"S/N"},{"no_bairro":"CENTRO"},{"nu_telefone":"66 3578 1288"},{"co_cep":"78579000"},{"uf":"MT"},{"cidade":"Itanhangá"},{"ano_ubs_det":"2016"},{"mes_ubs_det":"5"}],"geometry":{"type":"Point","coordinates":[-56.644070148466,-12.234359979629]}},{"type":"Feature","properties":[{"gid":"9105"},{"co_cnes":"3313220"},{"lat":"-15.5809628963466"},{"long":"-56.0328054428084"},{"no_fantasia":"USF NOVO HORIZONTE"},{"no_logradouro":"RUA BRASILIA"},{"nu_endereco":"220"},{"no_bairro":"NOVO HORIZONTE"},{"nu_telefone":"(65) 3646-2066"},{"co_cep":"78080000"},{"uf":"MT"},{"cidade":"Cuiabá"},{"ano_ubs_det":"2016"},{"mes_ubs_det":"5"}],"geometry":{"type":"Point","coordinates":[-56.032805442808,-15.580962896347]}},{"type":"Feature","properties":[{"gid":"9101"},{"co_cnes":"2817047"},{"lat":"-15.8831834793086"},{"long":"-52.2506761550888"},{"no_fantasia":"PSF JARDIM MANGUEIRAS"},{"no_logradouro":"AVENIDA SUL"},{"nu_endereco":"S/N"},{"no_bairro":"JD AMAZONIA II"},{"nu_telefone":"(66) 34071766"},{"co_cep":"78600000"},{"uf":"MT"},{"cidade":"Barra do Garças"},{"ano_ubs_det":"2016"},{"mes_ubs_det":"5"}],"geometry":{"type":"Point","coordinates":[-52.250676155089,-15.883183479309]}},{"type":"Feature","properties":[{"gid":"9125"},{"co_cnes":"2393476"},{"lat":"-15.6603348255153"},{"long":"-56.0490059852584"},{"no_fantasia":"CENTRO DE SAUDE PARQUE CUIABA"},{"no_logradouro":"RUA D 4"},{"nu_endereco":"S/N"},{"no_bairro":"PARQUE CUIABA"},{"nu_telefone":"(65) 3617-1640"},{"co_cep":"78095300"},{"uf":"MT"},{"cidade":"Cuiabá"},{"ano_ubs_det":"2016"},{"mes_ubs_det":"5"}],"geometry":{"type":"Point","coordinates":[-56.049005985258,-15.660334825515]}},{"type":"Feature","properties":[{"gid":"9126"},{"co_cnes":"2655217"},{"lat":"-14.4075500965114"},{"long":"-56.4536762237532"},{"no_fantasia":"UNIDADE DE SAUDE DA FAMILIA BAIRRO DA PONTE"},{"no_logradouro":"RUA FREI MANOEL"},{"nu_endereco":"S/N"},{"no_bairro":"PONTE"},{"nu_telefone":"(65)3362823"},{"co_cep":"78400000"},{"uf":"MT"},{"cidade":"Diamantino"},{"ano_ubs_det":"2016"},{"mes_ubs_det":"5"}],"geometry":{"type":"Point","coordinates":[-56.453676223753,-14.407550096511]}},{"type":"Feature","properties":[{"gid":"9106"},{"co_cnes":"2471027"},{"lat":"-15.5480146408077"},{"long":"-56.1586761474593"},{"no_fantasia":"USF SUCURI"},{"no_logradouro":"ESTRADA VELHA DA GUIA KM 08"},{"nu_endereco":"S/N"},{"no_bairro":"SUCURI"},{"nu_telefone":"(65) 3617-1490"},{"co_cep":"78070000"},{"uf":"MT"},{"cidade":"Cuiabá"},{"ano_ubs_det":"2016"},{"mes_ubs_det":"5"}],"geometry":{"type":"Point","coordinates":[-56.158676147459,-15.548014640808]}},{"type":"Feature","properties":[{"gid":"9176"},{"co_cnes":"2397153"},{"lat":"-15.9648381841493"},{"long":"-54.9641881751901"},{"no_fantasia":"UNIDADE DE SAUDE DA FAMILIA SAO LOURENCO"},{"no_logradouro":"RUA 01 QUADRA 01"},{"nu_endereco":"50"},{"no_bairro":"SAO LOURENCO"},{"nu_telefone":"(66) 3461-1934"},{"co_cep":"78820000"},{"uf":"MT"},{"cidade":"Jaciara"},{"ano_ubs_det":"2016"},{"mes_ubs_det":"5"}],"geometry":{"type":"Point","coordinates":[-54.96418817519,-15.964838184149]}},{"type":"Feature","properties":[{"gid":"9008"},{"co_cnes":"2655691"},{"lat":"-15.8691823482509"},{"long":"-52.2756743431076"},{"no_fantasia":"PSF JARDIM ARAGUAIA"},{"no_logradouro":"RUA GERMANO BEZERRA"},{"nu_endereco":"S/N"},{"no_bairro":"JARDIM ARAGUAIA"},{"nu_telefone":"(66) 34014145"},{"co_cep":"78600000"},{"uf":"MT"},{"cidade":"Barra do Garças"},{"ano_ubs_det":"2016"},{"mes_ubs_det":"5"}],"geometry":{"type":"Point","coordinates":[-52.275674343108,-15.869182348251]}},{"type":"Feature","properties":[{"gid":"9181"},{"co_cnes":"2397838"},{"lat":"-14.4537245567653"},{"long":"-56.8020689751516"},{"no_fantasia":"ESTRATEGIA SAUDE DA FAMILIA II NORTELANDIA"},{"no_logradouro":"RUA CUIABA"},{"nu_endereco":"S/N"},{"no_bairro":"BANDEIRANTE"},{"nu_telefone":"(65)3461522"},{"co_cep":"78430000"},{"uf":"MT"},{"cidade":"Nortelândia"},{"ano_ubs_det":"2016"},{"mes_ubs_det":"5"}],"geometry":{"type":"Point","coordinates":[-56.802068975152,-14.453724556765]}},{"type":"Feature","properties":[{"gid":"9124"},{"co_cnes":"2659131"},{"lat":"-15.60633"},{"long":"-56.12119"},{"no_fantasia":"USF PRAEIRO"},{"no_logradouro":"AV GENERAL MELLO"},{"nu_endereco":"S/N"},{"no_bairro":"PRAEIRO"},{"nu_telefone":"(65) 3617-1605"},{"co_cep":"78030000"},{"uf":"MT"},{"cidade":"Cuiabá"},{"ano_ubs_det":"2016"},{"mes_ubs_det":"5"}],"geometry":{"type":"Point","coordinates":[-56.12119,-15.60633]}},{"type":"Feature","properties":[{"gid":"9189"},{"co_cnes":"2471582"},{"lat":"-10.6311042290192"},{"long":"-55.7148773060437"},{"no_fantasia":"UNIDADE DE SAUDE DA FAMILIA EVALDO JUNG"},{"no_logradouro":"AV PARA"},{"nu_endereco":"S/N"},{"no_bairro":"CENTRO"},{"nu_telefone":"(66) 551 1176"},{"co_cep":"78515000"},{"uf":"MT"},{"cidade":"Nova Canaã do Norte"},{"ano_ubs_det":"2016"},{"mes_ubs_det":"5"}],"geometry":{"type":"Point","coordinates":[-55.714877306044,-10.631104229019]}},{"type":"Feature","properties":[{"gid":"9156"},{"co_cnes":"2699257"},{"lat":"-9.95124"},{"long":"-54.91311"},{"no_fantasia":"UNID SAUDE DA FAMILIA CENTRO PSF III"},{"no_logradouro":"RUA DAS AMESCLAS"},{"nu_endereco":"90"},{"no_bairro":"CENTRO"},{"nu_telefone":"(66)35525137"},{"co_cep":"78520000"},{"uf":"MT"},{"cidade":"Guarantã do Norte"},{"ano_ubs_det":"2016"},{"mes_ubs_det":"5"}],"geometry":{"type":"Point","coordinates":[-54.91311,-9.95124]}},{"type":"Feature","properties":[{"gid":"8947"},{"co_cnes":"2390981"},{"lat":"-15.1998209953304"},{"long":"-56.3662147521956"},{"no_fantasia":"CENTRO DE SAUDE DE ACORIZAL"},{"no_logradouro":"AVN HONORATO PEDROSO DE BARROS"},{"nu_endereco":"01"},{"no_bairro":"CENTRO"},{"nu_telefone":"(65)33531226"},{"co_cep":"78480000"},{"uf":"MT"},{"cidade":"Acorizal"},{"ano_ubs_det":"2016"},{"mes_ubs_det":"5"}],"geometry":{"type":"Point","coordinates":[-56.366214752196,-15.19982099533]}},{"type":"Feature","properties":[{"gid":"8986"},{"co_cnes":"3904806"},{"lat":"-15.2297275711099"},{"long":"-59.3380018443657"},{"no_fantasia":"UNIDADE SAUDE DA FAMILIA 06 DE AGOSTO"},{"no_logradouro":"RUA AMAZONAS"},{"nu_endereco":"598"},{"no_bairro":"CENTRO"},{"nu_telefone":"(65) 3266-6219"},{"co_cep":"78250000"},{"uf":"MT"},{"cidade":"Pontes e Lacerda"},{"ano_ubs_det":"2016"},{"mes_ubs_det":"5"}],"geometry":{"type":"Point","coordinates":[-59.338001844366,-15.22972757111]}},{"type":"Feature","properties":[{"gid":"9180"},{"co_cnes":"3797457"},{"lat":"-11.2650525569913"},{"long":"-57.4960041046126"},{"no_fantasia":"PSF JARDIM ALVORADA JUARA"},{"no_logradouro":"RUA ESPERANCA"},{"nu_endereco":"1784"},{"no_bairro":"JARDIM PARQUE ALVORA"},{"nu_telefone":"(66)3556-2347"},{"co_cep":"78575000"},{"uf":"MT"},{"cidade":"Juara"},{"ano_ubs_det":"2016"},{"mes_ubs_det":"5"}],"geometry":{"type":"Point","coordinates":[-57.496004104613,-11.265052556991]}},{"type":"Feature","properties":[{"gid":"9146"},{"co_cnes":"2395967"},{"lat":"-15.8074551507897"},{"long":"-54.9174807825692"},{"no_fantasia":"UNIDADE DE SAUDE DA FAMILIA VILA PLANALTINA EQUIPE 01"},{"no_logradouro":"AV DUQUE DE CAXIAS"},{"nu_endereco":"42"},{"no_bairro":"VILA PLANALTINA"},{"nu_telefone":"(66)451 1836"},{"co_cep":"78830000"},{"uf":"MT"},{"cidade":"Dom Aquino"},{"ano_ubs_det":"2016"},{"mes_ubs_det":"5"}],"geometry":{"type":"Point","coordinates":[-54.917480782569,-15.80745515079]}},{"type":"Feature","properties":[{"gid":"9104"},{"co_cnes":"3310094"},{"lat":"-15.5783879756923"},{"long":"-56.039757728575"},{"no_fantasia":"USF NOVO MATO GROSSO"},{"no_logradouro":"RUA ANDRODINA"},{"nu_endereco":"S/N"},{"no_bairro":"NOVO MATO GROSSO"},{"nu_telefone":"(65) 3617-1330"},{"co_cep":"78080000"},{"uf":"MT"},{"cidade":"Cuiabá"},{"ano_ubs_det":"2016"},{"mes_ubs_det":"5"}],"geometry":{"type":"Point","coordinates":[-56.039757728575,-15.578387975692]}},{"type":"Feature","properties":[{"gid":"9035"},{"co_cnes":"3115968"},{"lat":"-15.8829796314235"},{"long":"-52.2615337371811"},{"no_fantasia":"PSF DR JOAO BENTO MARIA LUCIA"},{"no_logradouro":"RUA CALERINDA COSTA"},{"nu_endereco":"S/N"},{"no_bairro":"JARDIM MARIA LUCIA"},{"nu_telefone":"(66)3401-1026"},{"co_cep":"78600000"},{"uf":"MT"},{"cidade":"Barra do Garças"},{"ano_ubs_det":"2016"},{"mes_ubs_det":"5"}],"geometry":{"type":"Point","coordinates":[-52.261533737181,-15.882979631424]}},{"type":"Feature","properties":[{"gid":"9107"},{"co_cnes":"2494817"},{"lat":"-15.6104779243465"},{"long":"-56.1315965652449"},{"no_fantasia":"CENTRO DE SAUDE CIDADE VERDE"},{"no_logradouro":"RUA SANTA LUZIA"},{"nu_endereco":"S/N"},{"no_bairro":"CIDADE VERDE"},{"nu_telefone":"(65) 3617-1470"},{"co_cep":"78025750"},{"uf":"MT"},{"cidade":"Cuiabá"},{"ano_ubs_det":"2016"},{"mes_ubs_det":"5"}],"geometry":{"type":"Point","coordinates":[-56.131596565245,-15.610477924346]}},{"type":"Feature","properties":[{"gid":"9149"},{"co_cnes":"2392038"},{"lat":"-9.9540732336426"},{"long":"-54.9160573112722"},{"no_fantasia":"UNIDADE DE SAUDE DA FAMILIA COTREL"},{"no_logradouro":"RUA ANDORINHAS"},{"nu_endereco":"100"},{"no_bairro":"COTREL"},{"nu_telefone":"(66)35521082"},{"co_cep":"78520000"},{"uf":"MT"},{"cidade":"Guarantã do Norte"},{"ano_ubs_det":"2016"},{"mes_ubs_det":"5"}],"geometry":{"type":"Point","coordinates":[-54.916057311272,-9.9540732336426]}},{"type":"Feature","properties":[{"gid":"9103"},{"co_cnes":"2654474"},{"lat":"-9.45251815785947"},{"long":"-59.2223776259422"},{"no_fantasia":"UNIDADE DE SAUDE DA FAMILIA PSF NOVA VIDA COLNIZA"},{"no_logradouro":"AV 2000"},{"nu_endereco":"S/N"},{"no_bairro":"JARDIM BOM JESUS"},{"nu_telefone":"(66)5711316"},{"co_cep":"78335000"},{"uf":"MT"},{"cidade":"Colniza"},{"ano_ubs_det":"2016"},{"mes_ubs_det":"5"}],"geometry":{"type":"Point","coordinates":[-59.222377625942,-9.4525181578595]}},{"type":"Feature","properties":[{"gid":"8910"},{"co_cnes":"2654326"},{"lat":"-15.4645764827724"},{"long":"-58.3453631401045"},{"no_fantasia":"UNIDADE SAUDE FAMILIA SANTO ANTONIO"},{"no_logradouro":"RUA JUSCELINO KUBSTCHEK"},{"nu_endereco":"S/N"},{"no_bairro":"SANTO ANTONIO"},{"nu_telefone":"(65)2611889"},{"co_cep":"78260000"},{"uf":"MT"},{"cidade":"Araputanga"},{"ano_ubs_det":"2016"},{"mes_ubs_det":"5"}],"geometry":{"type":"Point","coordinates":[-58.345363140105,-15.464576482772]}},{"type":"Feature","properties":[{"gid":"9128"},{"co_cnes":"2395959"},{"lat":"-15.7991076489782"},{"long":"-54.9207465820313"},{"no_fantasia":"CENTRO DE SAUDE DE DOM AQUINO"},{"no_logradouro":"AV JULIO MULLER"},{"nu_endereco":"S/N"},{"no_bairro":"CENTRO"},{"nu_telefone":"(66)34511200"},{"co_cep":"78830000"},{"uf":"MT"},{"cidade":"Dom Aquino"},{"ano_ubs_det":"2016"},{"mes_ubs_det":"5"}],"geometry":{"type":"Point","coordinates":[-54.920746582031,-15.799107648978]}},{"type":"Feature","properties":[{"gid":"9155"},{"co_cnes":"8015953"},{"lat":"-9.95206832885713"},{"long":"-54.9019217491134"},{"no_fantasia":"UNID SAUDE DA FAMILIA JARDIM VITORIA PSF IV"},{"no_logradouro":"AVENIDA CURITIBA"},{"nu_endereco":"136"},{"no_bairro":"JARDIM VITORIA"},{"nu_telefone":"(66)35525137"},{"co_cep":"78520000"},{"uf":"MT"},{"cidade":"Guarantã do Norte"},{"ano_ubs_det":"2016"},{"mes_ubs_det":"5"}],"geometry":{"type":"Point","coordinates":[-54.901921749113,-9.9520683288571]}},{"type":"Feature","properties":[{"gid":"9084"},{"co_cnes":"2654512"},{"lat":"-13.8114931180424"},{"long":"-55.2762106060982"},{"no_fantasia":"PROGRAMA DE SAUDE DA FAMILIA"},{"no_logradouro":"RUA MOROCO"},{"nu_endereco":"S/N"},{"no_bairro":"CENTRO"},{"nu_telefone":"(65)35296240"},{"co_cep":"78453000"},{"uf":"MT"},{"cidade":"Santa Rita do Trivelato"},{"ano_ubs_det":"2016"},{"mes_ubs_det":"5"}],"geometry":{"type":"Point","coordinates":[-55.276210606098,-13.811493118042]}},{"type":"Feature","properties":[{"gid":"9132"},{"co_cnes":"2395975"},{"lat":"-15.9055960178371"},{"long":"-54.8698854446395"},{"no_fantasia":"UNIDADE DE SAUDE RURAL ENTRE RIOS EQUIPE 03"},{"no_logradouro":"RUA ARI LEITE DE CAMPOS"},{"nu_endereco":"S/N"},{"no_bairro":"CENTRO"},{"nu_telefone":""},{"co_cep":"78830000"},{"uf":"MT"},{"cidade":"Dom Aquino"},{"ano_ubs_det":"2016"},{"mes_ubs_det":"5"}],"geometry":{"type":"Point","coordinates":[-54.86988544464,-15.905596017837]}},{"type":"Feature","properties":[{"gid":"9210"},{"co_cnes":"2391473"},{"lat":"-16.2697112560267"},{"long":"-56.6444778442366"},{"no_fantasia":"PSF COHAB NOVA"},{"no_logradouro":"RUA 03"},{"nu_endereco":"00"},{"no_bairro":"COHAB NOVA"},{"nu_telefone":"(65)33453020"},{"co_cep":"78175000"},{"uf":"MT"},{"cidade":"Poconé"},{"ano_ubs_det":"2016"},{"mes_ubs_det":"5"}],"geometry":{"type":"Point","coordinates":[-56.644477844237,-16.269711256027]}},{"type":"Feature","properties":[{"gid":"9231"},{"co_cnes":"2655314"},{"lat":"-13.4444761276241"},{"long":"-56.719107627867"},{"no_fantasia":"UNIDADE DE SAUDE DA FAMILIA III"},{"no_logradouro":"RUA ANISIO CASTILHO FONSECA"},{"nu_endereco":"S/N"},{"no_bairro":"JARDIM RIO CLARO"},{"nu_telefone":"(65)996686411"},{"co_cep":"78435000"},{"uf":"MT"},{"cidade":"São José do Rio Claro"},{"ano_ubs_det":"2016"},{"mes_ubs_det":"5"}],"geometry":{"type":"Point","coordinates":[-56.719107627867,-13.444476127624]}},{"type":"Feature","properties":[{"gid":"9236"},{"co_cnes":"2311593"},{"lat":"-12.089271838886"},{"long":"-51.3995934077539"},{"no_fantasia":"CENTRO DE SAUDE SERRA NOVA DOURADA UNIDADE SAUDE DA FAMILIA"},{"no_logradouro":"RUA SAO PAULO"},{"nu_endereco":"S/N"},{"no_bairro":"CENTRO"},{"nu_telefone":"(66) 3473-1008"},{"co_cep":"78668000"},{"uf":"MT"},{"cidade":"Serra Nova Dourada"},{"ano_ubs_det":"2016"},{"mes_ubs_det":"5"}],"geometry":{"type":"Point","coordinates":[-51.399593407754,-12.089271838886]}},{"type":"Feature","properties":[{"gid":"9211"},{"co_cnes":"2569523"},{"lat":"-11.61939"},{"long":"-50.6632"},{"no_fantasia":"UNIDADE DE SAUDE DA FAMILIA III RURAL SFA"},{"no_logradouro":"AVENIDA DOM PEDRO CASALDALIGA"},{"nu_endereco":"790"},{"no_bairro":"VILA SANTO ANTONIO"},{"nu_telefone":""},{"co_cep":"78670000"},{"uf":"MT"},{"cidade":"São Félix do Araguaia"},{"ano_ubs_det":"2016"},{"mes_ubs_det":"5"}],"geometry":{"type":"Point","coordinates":[-50.6632,-11.61939]}},{"type":"Feature","properties":[{"gid":"9562"},{"co_cnes":"2391414"},{"lat":"-16.2595094669667"},{"long":"-56.626509352735"},{"no_fantasia":"PSF SAO BENEDITO"},{"no_logradouro":"RUA MARIANO CATARINO DA COSTA"},{"nu_endereco":"S/N"},{"no_bairro":"CENTRO"},{"nu_telefone":"(65)33453020"},{"co_cep":"78175000"},{"uf":"MT"},{"cidade":"Poconé"},{"ano_ubs_det":"2016"},{"mes_ubs_det":"5"}],"geometry":{"type":"Point","coordinates":[-56.626509352735,-16.259509466967]}},{"type":"Feature","properties":[{"gid":"46976"},{"co_cnes":"2397757"},{"lat":"-13.43167"},{"long":"-56.71387"},{"no_fantasia":"LAR DOS IDOSOS SANTANA"},{"no_logradouro":"RUA ESPIRITO SANTO"},{"nu_endereco":"S/N"},{"no_bairro":"CENTRO"},{"nu_telefone":"(65) 3386-2556"},{"co_cep":"78435000"},{"uf":"MT"},{"cidade":"São José do Rio Claro"},{"ano_ubs_det":"2016"},{"mes_ubs_det":"5"}],"geometry":{"type":"Point","coordinates":[-56.71387,-13.43167]}},{"type":"Feature","properties":[{"gid":"9320"},{"co_cnes":"2534401"},{"lat":"-12.5947856881866"},{"long":"-52.2052120952606"},{"no_fantasia":"CENTRO DE SAUDE DE QUERENCIA"},{"no_logradouro":"AV CENTRAL"},{"nu_endereco":"935"},{"no_bairro":"SETOR A"},{"nu_telefone":"(66) 35292032"},{"co_cep":"78643000"},{"uf":"MT"},{"cidade":"Querência"},{"ano_ubs_det":"2016"},{"mes_ubs_det":"5"}],"geometry":{"type":"Point","coordinates":[-52.205212095261,-12.594785688187]}},{"type":"Feature","properties":[{"gid":"9208"},{"co_cnes":"2391481"},{"lat":"-16.2595094669667"},{"long":"-56.626509352735"},{"no_fantasia":"PSF BOM PASTOR"},{"no_logradouro":"RUA PINHEIRO MACHADO"},{"nu_endereco":"00"},{"no_bairro":"BOM PASTOR"},{"nu_telefone":"(65)33452534"},{"co_cep":"78175000"},{"uf":"MT"},{"cidade":"Poconé"},{"ano_ubs_det":"2016"},{"mes_ubs_det":"5"}],"geometry":{"type":"Point","coordinates":[-56.626509352735,-16.259509466967]}},{"type":"Feature","properties":[{"gid":"9242"},{"co_cnes":"2397528"},{"lat":"-16.0752374012224"},{"long":"-53.5558439620298"},{"no_fantasia":"UNIDADE DE SAUDE DA FAMILIA MARIA JOSE DE SA ARAUJO TESOURO"},{"no_logradouro":"RUA PONCE DE ARRUDA"},{"nu_endereco":"S/N"},{"no_bairro":"CENTRO"},{"nu_telefone":"66 3435-1274"},{"co_cep":"78775000"},{"uf":"MT"},{"cidade":"Tesouro"},{"ano_ubs_det":"2016"},{"mes_ubs_det":"5"}],"geometry":{"type":"Point","coordinates":[-53.55584396203,-16.075237401222]}},{"type":"Feature","properties":[{"gid":"9207"},{"co_cnes":"3758885"},{"lat":"-14.9173200130458"},{"long":"-53.0172944068893"},{"no_fantasia":"PSF JOAQUIM RODRIGUES ALVES"},{"no_logradouro":"RUA PRES TANCREDO NEVES"},{"nu_endereco":"105"},{"no_bairro":"BOA ESPERANCA"},{"nu_telefone":"(66)34791199"},{"co_cep":"78625000"},{"uf":"MT"},{"cidade":"Novo São Joaquim"},{"ano_ubs_det":"2016"},{"mes_ubs_det":"5"}],"geometry":{"type":"Point","coordinates":[-53.017294406889,-14.917320013046]}},{"type":"Feature","properties":[{"gid":"9362"},{"co_cnes":"2654598"},{"lat":"-12.90666103363"},{"long":"-54.8555302619918"},{"no_fantasia":"POSTO DE SAUDE NOVO MATO GROSSO"},{"no_logradouro":"NOVO MATO GROSSO"},{"nu_endereco":"S/N"},{"no_bairro":"ZONA RURAL"},{"nu_telefone":"6635052046"},{"co_cep":"78888000"},{"uf":"MT"},{"cidade":"Nova Ubiratã"},{"ano_ubs_det":"2016"},{"mes_ubs_det":"5"}],"geometry":{"type":"Point","coordinates":[-54.855530261992,-12.90666103363]}},{"type":"Feature","properties":[{"gid":"9527"},{"co_cnes":"6546773"},{"lat":"-12.1235847473141"},{"long":"-58.0051302909834"},{"no_fantasia":"PSF RURAL BRASNORTE"},{"no_logradouro":"RUA IGUATEMI"},{"nu_endereco":"S/N"},{"no_bairro":"NOSSO LAR"},{"nu_telefone":"66-3592-2156"},{"co_cep":"78350970"},{"uf":"MT"},{"cidade":"Brasnorte"},{"ano_ubs_det":"2016"},{"mes_ubs_det":"5"}],"geometry":{"type":"Point","coordinates":[-58.005130290983,-12.123584747314]}},{"type":"Feature","properties":[{"gid":"9523"},{"co_cnes":"2471701"},{"lat":"-13.6648786067959"},{"long":"-57.8841948509199"},{"no_fantasia":"CENTRO DE SAUDE DE CAMPO NOVO DO PARECIS CAMPO NOVO"},{"no_logradouro":"AV MATO GROSSO"},{"nu_endereco":"206"},{"no_bairro":"CENTRO"},{"nu_telefone":"(65)33824076"},{"co_cep":"78360000"},{"uf":"MT"},{"cidade":"Campo Novo do Parecis"},{"ano_ubs_det":"2016"},{"mes_ubs_det":"5"}],"geometry":{"type":"Point","coordinates":[-57.88419485092,-13.664878606796]}},{"type":"Feature","properties":[{"gid":"9546"},{"co_cnes":"2654563"},{"lat":"-13.0299139022823"},{"long":"-55.2569818496688"},{"no_fantasia":"CENTRO DE SAUDE DE NOVA UBIRATA"},{"no_logradouro":"RUA RENE MURAD"},{"nu_endereco":"141"},{"no_bairro":"CENTRO"},{"nu_telefone":"(66)3579 1162"},{"co_cep":"78888000"},{"uf":"MT"},{"cidade":"Nova Ubiratã"},{"ano_ubs_det":"2016"},{"mes_ubs_det":"5"}],"geometry":{"type":"Point","coordinates":[-55.256981849669,-13.029913902282]}},{"type":"Feature","properties":[{"gid":"9450"},{"co_cnes":"2767163"},{"lat":"-16.4462971687312"},{"long":"-54.6157836914047"},{"no_fantasia":"PSF JARDIM PRIMAVERA"},{"no_logradouro":"RUA LIDIA MAGALHAES"},{"nu_endereco":"S/N"},{"no_bairro":"JARDIM PRIMAVERA"},{"nu_telefone":"(66)34115170"},{"co_cep":"78725250"},{"uf":"MT"},{"cidade":"Rondonópolis"},{"ano_ubs_det":"2016"},{"mes_ubs_det":"5"}],"geometry":{"type":"Point","coordinates":[-54.615783691405,-16.446297168731]}},{"type":"Feature","properties":[{"gid":"9420"},{"co_cnes":"5874270"},{"lat":"-16.4701628734998"},{"long":"-54.6335870401784"},{"no_fantasia":"PSF PARQUE SAO JORGE"},{"no_logradouro":"RUA 07 QUADRA 29"},{"nu_endereco":"S/N"},{"no_bairro":"RES PARQUE SAO JORGE"},{"nu_telefone":""},{"co_cep":"78710010"},{"uf":"MT"},{"cidade":"Rondonópolis"},{"ano_ubs_det":"2016"},{"mes_ubs_det":"5"}],"geometry":{"type":"Point","coordinates":[-54.633587040178,-16.4701628735]}},{"type":"Feature","properties":[{"gid":"9203"},{"co_cnes":"2795795"},{"lat":"-14.78423"},{"long":"-57.28995"},{"no_fantasia":"USF OURO VERDE II NOVA OLIMPIA"},{"no_logradouro":"RUA PEDRO PEDROSSIAN"},{"nu_endereco":"105"},{"no_bairro":"JD OURO VERDE"},{"nu_telefone":"(65)3321824"},{"co_cep":"78370000"},{"uf":"MT"},{"cidade":"Nova Olímpia"},{"ano_ubs_det":"2016"},{"mes_ubs_det":"5"}],"geometry":{"type":"Point","coordinates":[-57.28995,-14.78423]}},{"type":"Feature","properties":[{"gid":"9206"},{"co_cnes":"2395401"},{"lat":"-14.6631538867946"},{"long":"-52.3561406135544"},{"no_fantasia":"UNIDADE BASICA DE SAUDE 05 UBS EMILIA MENDES CUNHA"},{"no_logradouro":"AVENIDA CAMPO GRANDE"},{"nu_endereco":"230"},{"no_bairro":"CENTRO"},{"nu_telefone":"(66) 3438-1690"},{"co_cep":"78690000"},{"uf":"MT"},{"cidade":"Nova Xavantina"},{"ano_ubs_det":"2016"},{"mes_ubs_det":"5"}],"geometry":{"type":"Point","coordinates":[-52.356140613554,-14.663153886795]}},{"type":"Feature","properties":[{"gid":"9239"},{"co_cnes":"5047455"},{"lat":"-10.5971280931496"},{"long":"-55.1159514886165"},{"no_fantasia":"UNIDADE DE SAUDE DA FAMILIA ANA NERI TERRA NOVA DO NORTE"},{"no_logradouro":"RUA PEDRO ALVARES CABRAL"},{"nu_endereco":"007"},{"no_bairro":"UNIAO"},{"nu_telefone":"(66) 35342216"},{"co_cep":"78505000"},{"uf":"MT"},{"cidade":"Terra Nova do Norte"},{"ano_ubs_det":"2016"},{"mes_ubs_det":"5"}],"geometry":{"type":"Point","coordinates":[-55.115951488617,-10.59712809315]}},{"type":"Feature","properties":[{"gid":"9311"},{"co_cnes":"2390809"},{"lat":"-15.6657850742336"},{"long":"-56.1359524726851"},{"no_fantasia":"CENTRO DE SAUDE NOSSA SENHORA DA GUIA"},{"no_logradouro":"RUA JOAO PEDRO MOLINA"},{"nu_endereco":"S/N"},{"no_bairro":"NOSSA SENHORA GUIA"},{"nu_telefone":"3688-3094/98443-8839"},{"co_cep":"78130100"},{"uf":"MT"},{"cidade":"Várzea Grande"},{"ano_ubs_det":"2016"},{"mes_ubs_det":"5"}],"geometry":{"type":"Point","coordinates":[-56.135952472685,-15.665785074234]}},{"type":"Feature","properties":[{"gid":"9204"},{"co_cnes":"2395436"},{"lat":"-14.6757602691646"},{"long":"-52.3541665077194"},{"no_fantasia":"UNIDADE BASICA DE SAUDE 01 UBS JOSE FREDERICO FERNANDES"},{"no_logradouro":"RUA VEREADOR FRANCISCO ALBUQUERQUE MILHOMEM"},{"nu_endereco":"290"},{"no_bairro":"CENTRO"},{"nu_telefone":"(66) 3438-1589"},{"co_cep":"78690000"},{"uf":"MT"},{"cidade":"Nova Xavantina"},{"ano_ubs_det":"2016"},{"mes_ubs_det":"5"}],"geometry":{"type":"Point","coordinates":[-52.354166507719,-14.675760269165]}},{"type":"Feature","properties":[{"gid":"9405"},{"co_cnes":"2655721"},{"lat":"-15.8657598495479"},{"long":"-52.3234820365891"},{"no_fantasia":"PSF JARDIM PALMARES"},{"no_logradouro":"RUA OLIVIO ROBERTO BARBOSA"},{"nu_endereco":"S/N"},{"no_bairro":"JARDIM PALMARES"},{"nu_telefone":"(66) 34056842"},{"co_cep":"78600000"},{"uf":"MT"},{"cidade":"Barra do Garças"},{"ano_ubs_det":"2016"},{"mes_ubs_det":"5"}],"geometry":{"type":"Point","coordinates":[-52.323482036589,-15.865759849548]}},{"type":"Feature","properties":[{"gid":"9826"},{"co_cnes":"2391694"},{"lat":"-10.237873792648"},{"long":"-55.0020432472213"},{"no_fantasia":"PSF 01 IRMA ADELIS"},{"no_logradouro":"QUADRA 17 LOTES 07 E 08"},{"nu_endereco":"S/N"},{"no_bairro":"MAE DE DEUS"},{"nu_telefone":"06635752041"},{"co_cep":"78530000"},{"uf":"MT"},{"cidade":"Peixoto de Azevedo"},{"ano_ubs_det":"2016"},{"mes_ubs_det":"5"}],"geometry":{"type":"Point","coordinates":[-55.002043247221,-10.237873792648]}},{"type":"Feature","properties":[{"gid":"9856"},{"co_cnes":"2533944"},{"lat":"-11.0978436470029"},{"long":"-54.5066070556625"},{"no_fantasia":"PROGRAMA DE SAUDE DA FAMILIA 01"},{"no_logradouro":"AVENIDA COLONIZADOR JOSE BIANCHINE"},{"nu_endereco":"0"},{"no_bairro":"AREA INDUSTRIAL"},{"nu_telefone":"6635362449"},{"co_cep":"78535000"},{"uf":"MT"},{"cidade":"Marcelândia"},{"ano_ubs_det":"2016"},{"mes_ubs_det":"5"}],"geometry":{"type":"Point","coordinates":[-54.506607055662,-11.097843647003]}},{"type":"Feature","properties":[{"gid":"9781"},{"co_cnes":"3493245"},{"lat":"-16.2566864490504"},{"long":"-56.6277408599837"},{"no_fantasia":"PSF SANTA TEREZA"},{"no_logradouro":"RUA MANOEL BENEDITO DA COSTA"},{"nu_endereco":"S/N"},{"no_bairro":"SANTA TEREZA"},{"nu_telefone":"(65)33453020"},{"co_cep":"78175000"},{"uf":"MT"},{"cidade":"Poconé"},{"ano_ubs_det":"2016"},{"mes_ubs_det":"5"}],"geometry":{"type":"Point","coordinates":[-56.627740859984,-16.25668644905]}},{"type":"Feature","properties":[{"gid":"9828"},{"co_cnes":"2571285"},{"lat":"-10.25029"},{"long":"-54.98818"},{"no_fantasia":"PSF 03 RAIMUNDO NONATO DE PAULA"},{"no_logradouro":"AVENIDA MARANHAO"},{"nu_endereco":"S/N"},{"no_bairro":"LIBERDADE"},{"nu_telefone":"066999169083"},{"co_cep":"78530000"},{"uf":"MT"},{"cidade":"Peixoto de Azevedo"},{"ano_ubs_det":"2016"},{"mes_ubs_det":"5"}],"geometry":{"type":"Point","coordinates":[-54.98818,-10.25029]}},{"type":"Feature","properties":[{"gid":"9878"},{"co_cnes":"2391252"},{"lat":"-15.8691790439574"},{"long":"-56.0941622007565"},{"no_fantasia":"USF MANOEL JULIO PEDROSO"},{"no_logradouro":"RUA XV DE NOVEMBRO"},{"nu_endereco":"S/N"},{"no_bairro":"CENTRO"},{"nu_telefone":"65 3341-1629"},{"co_cep":"78180000"},{"uf":"MT"},{"cidade":"Santo Antônio do Leverger"},{"ano_ubs_det":"2016"},{"mes_ubs_det":"5"}],"geometry":{"type":"Point","coordinates":[-56.094162200757,-15.869179043957]}},{"type":"Feature","properties":[{"gid":"9675"},{"co_cnes":"2472406"},{"lat":"-14.7854304313655"},{"long":"-57.2745823860152"},{"no_fantasia":"USF BOA ESPERANCA NOVA OLIMPIA"},{"no_logradouro":"RUA PEDRO PEDROSSIAN"},{"nu_endereco":"S/N"},{"no_bairro":"BOA ESPERANCA"},{"nu_telefone":"(65)3321367"},{"co_cep":"78370000"},{"uf":"MT"},{"cidade":"Nova Olímpia"},{"ano_ubs_det":"2016"},{"mes_ubs_det":"5"}],"geometry":{"type":"Point","coordinates":[-57.274582386015,-14.785430431365]}},{"type":"Feature","properties":[{"gid":"10072"},{"co_cnes":"2392771"},{"lat":"-11.5338400294576"},{"long":"-57.408353838005"},{"no_fantasia":"POSTO DE SAUDE DA FAMILIA GLEBA SAO JOAO"},{"no_logradouro":"RUA FORTALEZA"},{"nu_endereco":"S/N"},{"no_bairro":"GLEBA SAO JOAO"},{"nu_telefone":"6635671080"},{"co_cep":"78560000"},{"uf":"MT"},{"cidade":"Porto dos Gaúchos"},{"ano_ubs_det":"2016"},{"mes_ubs_det":"5"}],"geometry":{"type":"Point","coordinates":[-57.408353838005,-11.533840029458]}},{"type":"Feature","properties":[{"gid":"10131"},{"co_cnes":"2395355"},{"lat":"-15.6225800514217"},{"long":"-58.1844520568831"},{"no_fantasia":"UNIDADE SAUDE FAMILIA JAD BELA VISTA"},{"no_logradouro":"RUA NITEROI"},{"nu_endereco":"142"},{"no_bairro":"JAD DAS OLIVEIRAS II"},{"nu_telefone":"(65)02512943"},{"co_cep":"78285000"},{"uf":"MT"},{"cidade":"São José dos Quatro Marcos"},{"ano_ubs_det":"2016"},{"mes_ubs_det":"5"}],"geometry":{"type":"Point","coordinates":[-58.184452056883,-15.622580051422]}},{"type":"Feature","properties":[{"gid":"10254"},{"co_cnes":"2395622"},{"lat":"-15.9024713438392"},{"long":"-52.2585111119354"},{"no_fantasia":"UNIDADE SAUDE DA FAMILIA GERALDO PIMENTA DE ALMEIDA"},{"no_logradouro":"AVENIDA DANTE MARTINS DE OLIVEIRA"},{"nu_endereco":"0"},{"no_bairro":"ARAGUAIA CENTER"},{"nu_telefone":"(66) 3401-3326"},{"co_cep":"78698000"},{"uf":"MT"},{"cidade":"Pontal do Araguaia"},{"ano_ubs_det":"2016"},{"mes_ubs_det":"5"}],"geometry":{"type":"Point","coordinates":[-52.258511111935,-15.902471343839]}},{"type":"Feature","properties":[{"gid":"10129"},{"co_cnes":"2396688"},{"lat":"-17.3881387710566"},{"long":"-54.7601723670943"},{"no_fantasia":"UNIDADE DE SAUDE DA FAMILIA ADROALDO GATTO"},{"no_logradouro":"RUA ARAPONGAS"},{"nu_endereco":"S/N"},{"no_bairro":"OURO BRANCO"},{"nu_telefone":""},{"co_cep":"78790000"},{"uf":"MT"},{"cidade":"Itiquira"},{"ano_ubs_det":"2016"},{"mes_ubs_det":"5"}],"geometry":{"type":"Point","coordinates":[-54.760172367094,-17.388138771057]}},{"type":"Feature","properties":[{"gid":"10155"},{"co_cnes":"2396114"},{"lat":"-15.5537042703149"},{"long":"-55.1716554148957"},{"no_fantasia":"UNIDADE DE SAUDE DA FAMILIA SAO LOURENCO"},{"no_logradouro":"RUA AMAZONAS"},{"nu_endereco":"S/N"},{"no_bairro":"BOM CLIMA"},{"nu_telefone":""},{"co_cep":"78840000"},{"uf":"MT"},{"cidade":"Campo Verde"},{"ano_ubs_det":"2016"},{"mes_ubs_det":"5"}],"geometry":{"type":"Point","coordinates":[-55.171655414896,-15.553704270315]}},{"type":"Feature","properties":[{"gid":"10655"},{"co_cnes":"3790940"},{"lat":"-10.6407305770376"},{"long":"-51.5710336178614"},{"no_fantasia":"UNIDADE DE SAUDE DA FAMILIA JARDIM PLANALTO"},{"no_logradouro":"RUA PORTO SEGURO"},{"nu_endereco":"S/N"},{"no_bairro":"JARDIM PLANALTO"},{"nu_telefone":"(66) 3564-1235"},{"co_cep":"78652000"},{"uf":"MT"},{"cidade":"Confresa"},{"ano_ubs_det":"2016"},{"mes_ubs_det":"5"}],"geometry":{"type":"Point","coordinates":[-51.571033617861,-10.640730577038]}},{"type":"Feature","properties":[{"gid":"10534"},{"co_cnes":"2311658"},{"lat":"-12.2946934832423"},{"long":"-50.9691726452052"},{"no_fantasia":"CENTRO DE SAUDE DE NOVO SANTO ANTONIO"},{"no_logradouro":"R M EME"},{"nu_endereco":"S/N"},{"no_bairro":"CENTRO"},{"nu_telefone":"(66) 35481081"},{"co_cep":"78674000"},{"uf":"MT"},{"cidade":"Novo Santo Antônio"},{"ano_ubs_det":"2016"},{"mes_ubs_det":"5"}],"geometry":{"type":"Point","coordinates":[-50.969172645205,-12.294693483242]}},{"type":"Feature","properties":[{"gid":"10543"},{"co_cnes":"3752615"},{"lat":"-15.2297275711099"},{"long":"-59.3380018443657"},{"no_fantasia":"UNIDADE DE SAUDE DA FAMILIA PARQUE SAO CRISTOVAO"},{"no_logradouro":"RUA PEDRO MILAO SANCHES"},{"nu_endereco":"S/N"},{"no_bairro":"PARQUE SAO CRISTOVAO"},{"nu_telefone":"(65)32662303"},{"co_cep":"78250000"},{"uf":"MT"},{"cidade":"Pontes e Lacerda"},{"ano_ubs_det":"2016"},{"mes_ubs_det":"5"}],"geometry":{"type":"Point","coordinates":[-59.338001844366,-15.22972757111]}},{"type":"Feature","properties":[{"gid":"10735"},{"co_cnes":"2311461"},{"lat":"-10.0105077578509"},{"long":"-51.1111436784267"},{"no_fantasia":"UNIDADE SAUDE DA FAMILIA II VR"},{"no_logradouro":"PERIMETRAL NORTE"},{"nu_endereco":"S/N"},{"no_bairro":"BELA VISTA"},{"nu_telefone":""},{"co_cep":"78645000"},{"uf":"MT"},{"cidade":"Vila Rica"},{"ano_ubs_det":"2016"},{"mes_ubs_det":"5"}],"geometry":{"type":"Point","coordinates":[-51.111143678427,-10.010507757851]}},{"type":"Feature","properties":[{"gid":"10644"},{"co_cnes":"2394022"},{"lat":"-13.426086902618"},{"long":"-60.1032400131208"},{"no_fantasia":"POSTO DE SAUDE GLEBA LIMAO NOROAGRO"},{"no_logradouro":"GLEBA LIMAO NOROAGRO"},{"nu_endereco":"S/N"},{"no_bairro":"ZONA RURAL"},{"nu_telefone":"( )"},{"co_cep":"78310000"},{"uf":"MT"},{"cidade":"Comodoro"},{"ano_ubs_det":"2016"},{"mes_ubs_det":"5"}],"geometry":{"type":"Point","coordinates":[-60.103240013121,-13.426086902618]}},{"type":"Feature","properties":[{"gid":"10731"},{"co_cnes":"2472910"},{"lat":"-14.0517067909237"},{"long":"-52.1662831306442"},{"no_fantasia":"ESF GUARUJA"},{"no_logradouro":"AVENIDA TROPICAL ESQ RUA 15"},{"nu_endereco":"906"},{"no_bairro":"GUARUJA"},{"nu_telefone":"(66)3468-2016"},{"co_cep":"78635000"},{"uf":"MT"},{"cidade":"Água Boa"},{"ano_ubs_det":"2016"},{"mes_ubs_det":"5"}],"geometry":{"type":"Point","coordinates":[-52.166283130644,-14.051706790924]}},{"type":"Feature","properties":[{"gid":"10444"},{"co_cnes":"2395894"},{"lat":"-15.7053530216212"},{"long":"-52.7565193176254"},{"no_fantasia":"LABORATORIO DE ANALISES CLINICAS ETELVINA VIEIRA DOS SANTOS"},{"no_logradouro":"RUA DR JOAO PONCE DE ARRUDA"},{"nu_endereco":"312"},{"no_bairro":"CENTRO"},{"nu_telefone":"6634161148"},{"co_cep":"78620000"},{"uf":"MT"},{"cidade":"General Carneiro"},{"ano_ubs_det":"2016"},{"mes_ubs_det":"5"}],"geometry":{"type":"Point","coordinates":[-52.756519317625,-15.705353021621]}},{"type":"Feature","properties":[{"gid":"10601"},{"co_cnes":"2390566"},{"lat":"-16.0789096355434"},{"long":"-56.5683460235579"},{"no_fantasia":"PSF DO DISTRITO DE CANGAS"},{"no_logradouro":"DISTRITO DE CANGAS"},{"nu_endereco":"00"},{"no_bairro":"CENTRO"},{"nu_telefone":"(65)33453020"},{"co_cep":"78175000"},{"uf":"MT"},{"cidade":"Poconé"},{"ano_ubs_det":"2016"},{"mes_ubs_det":"5"}],"geometry":{"type":"Point","coordinates":[-56.568346023558,-16.078909635543]}},{"type":"Feature","properties":[{"gid":"11113"},{"co_cnes":"2393263"},{"lat":"-11.4220180322681"},{"long":"-58.7622171517695"},{"no_fantasia":"UNIDADE DE SAUDE DA FAMILIA SAO JOSE OPERARIO DE JUINA"},{"no_logradouro":"AVENIDA PRESIDENTE TANCREDO NEVES"},{"nu_endereco":"676"},{"no_bairro":"SAO JOSE OPERARIO"},{"nu_telefone":"(66)3566-2265"},{"co_cep":"78320000"},{"uf":"MT"},{"cidade":"Juína"},{"ano_ubs_det":"2016"},{"mes_ubs_det":"5"}],"geometry":{"type":"Point","coordinates":[-58.762217151769,-11.422018032268]}},{"type":"Feature","properties":[{"gid":"11061"},{"co_cnes":"2571293"},{"lat":"-10.23665"},{"long":"-55.0125"},{"no_fantasia":"PSF 04 ANTONIO AMARO"},{"no_logradouro":"RUA AFONSO BONILHA"},{"nu_endereco":"268"},{"no_bairro":"CENTRO ANTIGO"},{"nu_telefone":"( )"},{"co_cep":"78530000"},{"uf":"MT"},{"cidade":"Peixoto de Azevedo"},{"ano_ubs_det":"2016"},{"mes_ubs_det":"5"}],"geometry":{"type":"Point","coordinates":[-55.0125,-10.23665]}},{"type":"Feature","properties":[{"gid":"11033"},{"co_cnes":"5049911"},{"lat":"-13.4026122093197"},{"long":"-54.7519540786727"},{"no_fantasia":"POSTO DE SAUDE PARQUE AGUA LIMPA"},{"no_logradouro":"DISTRITO PARQUE AGUA LIMPA"},{"nu_endereco":"S/N"},{"no_bairro":"ZONA RURAL"},{"nu_telefone":"(66)35051093"},{"co_cep":"78888000"},{"uf":"MT"},{"cidade":"Nova Ubiratã"},{"ano_ubs_det":"2016"},{"mes_ubs_det":"5"}],"geometry":{"type":"Point","coordinates":[-54.751954078673,-13.40261220932]}},{"type":"Feature","properties":[{"gid":"11597"},{"co_cnes":"3008193"},{"lat":"-15.22479"},{"long":"-59.34644"},{"no_fantasia":"UNIDADE SAUDE FAMILIA MORADA DA SERRA"},{"no_logradouro":"RUA DOS IPES"},{"nu_endereco":"S/N"},{"no_bairro":"MORADA DA SERRA"},{"nu_telefone":"(65)32665809"},{"co_cep":"78250000"},{"uf":"MT"},{"cidade":"Pontes e Lacerda"},{"ano_ubs_det":"2016"},{"mes_ubs_det":"5"}],"geometry":{"type":"Point","coordinates":[-59.34644,-15.22479]}},{"type":"Feature","properties":[{"gid":"11293"},{"co_cnes":"7112424"},{"lat":"-11.8390112315541"},{"long":"-55.5271607637405"},{"no_fantasia":"UNIDADE BASICA DE SAUDE JOACIR RODRIGUES"},{"no_logradouro":"RUA DOS MOGNOS"},{"nu_endereco":"S/N"},{"no_bairro":"JARDIM VITORIA REGIA"},{"nu_telefone":"6635207287/999967502"},{"co_cep":"78555100"},{"uf":"MT"},{"cidade":"Sinop"},{"ano_ubs_det":"2016"},{"mes_ubs_det":"5"}],"geometry":{"type":"Point","coordinates":[-55.527160763741,-11.839011231554]}},{"type":"Feature","properties":[{"gid":"11236"},{"co_cnes":"2391023"},{"lat":"-15.1555752754207"},{"long":"-56.414730548857"},{"no_fantasia":"POSTO DE SAUDE DE ENGENHO"},{"no_logradouro":"ENGENHO"},{"nu_endereco":"000"},{"no_bairro":"ZONA RURAL"},{"nu_telefone":"(65)03531226"},{"co_cep":"78480000"},{"uf":"MT"},{"cidade":"Acorizal"},{"ano_ubs_det":"2016"},{"mes_ubs_det":"5"}],"geometry":{"type":"Point","coordinates":[-56.414730548857,-15.155575275421]}},{"type":"Feature","properties":[{"gid":"11506"},{"co_cnes":"2655233"},{"lat":"-13.4578013420101"},{"long":"-56.7239356040938"},{"no_fantasia":"UNIDADE DE SAUDE DA FAMILIA II"},{"no_logradouro":"RUA JOAO GUILHERME SEELENT"},{"nu_endereco":"S/N"},{"no_bairro":"JARDIM PLANALTO"},{"nu_telefone":"(65) 3386-1642"},{"co_cep":"78435000"},{"uf":"MT"},{"cidade":"São José do Rio Claro"},{"ano_ubs_det":"2016"},{"mes_ubs_det":"5"}],"geometry":{"type":"Point","coordinates":[-56.723935604094,-13.45780134201]}},{"type":"Feature","properties":[{"gid":"11248"},{"co_cnes":"2397196"},{"lat":"-15.9648381841493"},{"long":"-54.9641881751901"},{"no_fantasia":"UNIDADE DE SAUDE DA FAMILIA SANTO ANTONIO 02"},{"no_logradouro":"RUA TABAJARA"},{"nu_endereco":"410"},{"no_bairro":"SANTO ANTONIO"},{"nu_telefone":"(66) 3461-4145"},{"co_cep":"78820000"},{"uf":"MT"},{"cidade":"Jaciara"},{"ano_ubs_det":"2016"},{"mes_ubs_det":"5"}],"geometry":{"type":"Point","coordinates":[-54.96418817519,-15.964838184149]}},{"type":"Feature","properties":[{"gid":"11750"},{"co_cnes":"2390957"},{"lat":"-14.445830583572"},{"long":"-54.0557813644393"},{"no_fantasia":"UNIDADE DE SAUDE DA FAMILIA DE VILA CONCORDIA PSF I"},{"no_logradouro":"AVENIDA BANDEIRANTES"},{"nu_endereco":"S/N"},{"no_bairro":"VILA CONCORDIA"},{"nu_telefone":""},{"co_cep":"78870000"},{"uf":"MT"},{"cidade":"Paranatinga"},{"ano_ubs_det":"2016"},{"mes_ubs_det":"5"}],"geometry":{"type":"Point","coordinates":[-54.055781364439,-14.445830583572]}},{"type":"Feature","properties":[{"gid":"11676"},{"co_cnes":"2604191"},{"lat":"-10.1973520254749"},{"long":"-59.4301986694336"},{"no_fantasia":"UNIDADE DE SAUDE DA FAMILIA JARDIM PLANALTO ARIPUANA"},{"no_logradouro":"RUA JP 20"},{"nu_endereco":"16"},{"no_bairro":"JARDIM PLANALTO"},{"nu_telefone":"(66) 5651804"},{"co_cep":"78325000"},{"uf":"MT"},{"cidade":"Aripuanã"},{"ano_ubs_det":"2016"},{"mes_ubs_det":"5"}],"geometry":{"type":"Point","coordinates":[-59.430198669434,-10.197352025475]}},{"type":"Feature","properties":[{"gid":"11768"},{"co_cnes":"2470977"},{"lat":"-15.5605137348171"},{"long":"-56.1083149909957"},{"no_fantasia":"USF DR JOSE EDUARDO FARIA"},{"no_logradouro":"RUA ORIVALDO DE SOUZA"},{"nu_endereco":"0001"},{"no_bairro":"RIBEIRAO DO LIPA"},{"nu_telefone":"(65) 3617-1687"},{"co_cep":"78040060"},{"uf":"MT"},{"cidade":"Cuiabá"},{"ano_ubs_det":"2016"},{"mes_ubs_det":"5"}],"geometry":{"type":"Point","coordinates":[-56.108314990996,-15.560513734817]}},{"type":"Feature","properties":[{"gid":"11703"},{"co_cnes":"3752607"},{"lat":"-17.2065746784205"},{"long":"-54.1406249999984"},{"no_fantasia":"UNIDADE DE SAUDE DA FAMILIA ELISIO DE SOUZA BRITO"},{"no_logradouro":"AV ALVARO JOSE MONTEIRO"},{"nu_endereco":"S/N"},{"no_bairro":"JOAO DE BARRO"},{"nu_telefone":""},{"co_cep":"78790000"},{"uf":"MT"},{"cidade":"Itiquira"},{"ano_ubs_det":"2016"},{"mes_ubs_det":"5"}],"geometry":{"type":"Point","coordinates":[-54.140624999998,-17.20657467842]}},{"type":"Feature","properties":[{"gid":"11826"},{"co_cnes":"2394219"},{"lat":"-15.6225049495692"},{"long":"-58.1706762313826"},{"no_fantasia":"UNIDADE DE SAUDE DA FAMILIA ZEFERINO I"},{"no_logradouro":"RUA FORTALEZA"},{"nu_endereco":"195"},{"no_bairro":"JARDIM ZEFERINO I"},{"nu_telefone":"(65) 8422-5301"},{"co_cep":"78285000"},{"uf":"MT"},{"cidade":"São José dos Quatro Marcos"},{"ano_ubs_det":"2016"},{"mes_ubs_det":"5"}],"geometry":{"type":"Point","coordinates":[-58.170676231383,-15.622504949569]}},{"type":"Feature","properties":[{"gid":"11629"},{"co_cnes":"2390531"},{"lat":"-16.2595094669667"},{"long":"-56.626509352735"},{"no_fantasia":"PSF DO DISTRITO DO CHUMBO"},{"no_logradouro":"CENTRO"},{"nu_endereco":"S/N"},{"no_bairro":"DISTRITO DO CHUMBO"},{"nu_telefone":"(65)33453020"},{"co_cep":"78175000"},{"uf":"MT"},{"cidade":"Poconé"},{"ano_ubs_det":"2016"},{"mes_ubs_det":"5"}],"geometry":{"type":"Point","coordinates":[-56.626509352735,-16.259509466967]}},{"type":"Feature","properties":[{"gid":"11651"},{"co_cnes":"2471108"},{"lat":"-9.88660097122164"},{"long":"-55.8161473274215"},{"no_fantasia":"POSTO DE SAUDE CANA PSF"},{"no_logradouro":"LINHA 15 SETOR CANA"},{"nu_endereco":"S/N"},{"no_bairro":"ZONA RURAL"},{"nu_telefone":"(66)98434-2417"},{"co_cep":"78587000"},{"uf":"MT"},{"cidade":"Carlinda"},{"ano_ubs_det":"2016"},{"mes_ubs_det":"5"}],"geometry":{"type":"Point","coordinates":[-55.816147327421,-9.8866009712216]}},{"type":"Feature","properties":[{"gid":"12093"},{"co_cnes":"2396459"},{"lat":"-16.4448595046992"},{"long":"-54.6242165565475"},{"no_fantasia":"PSF LUZ DYARA"},{"no_logradouro":"RUA DOS ARTISTAS"},{"nu_endereco":"390"},{"no_bairro":"LUZ D YARA"},{"nu_telefone":"(66) 34115165"},{"co_cep":"78700040"},{"uf":"MT"},{"cidade":"Rondonópolis"},{"ano_ubs_det":"2016"},{"mes_ubs_det":"5"}],"geometry":{"type":"Point","coordinates":[-54.624216556548,-16.444859504699]}},{"type":"Feature","properties":[{"gid":"12071"},{"co_cnes":"3117014"},{"lat":"-15.5522935931141"},{"long":"-54.3000532591227"},{"no_fantasia":"UNIDADE EQUIPE 5 DE SAUDE DA FAMILIA DE PRIMAVERA DO LESTE"},{"no_logradouro":"RUA SANGA"},{"nu_endereco":"S/N"},{"no_bairro":"PONCHO VERDE"},{"nu_telefone":"(66) 3498-5141"},{"co_cep":"78850000"},{"uf":"MT"},{"cidade":"Primavera do Leste"},{"ano_ubs_det":"2016"},{"mes_ubs_det":"5"}],"geometry":{"type":"Point","coordinates":[-54.300053259123,-15.552293593114]}},{"type":"Feature","properties":[{"gid":"12357"},{"co_cnes":"2471620"},{"lat":"-9.79512691497774"},{"long":"-57.7430462837202"},{"no_fantasia":"POSTO DE SAUDE LIDIO MAZZO"},{"no_logradouro":"ESTRADA ROLANDIA"},{"nu_endereco":"S/N"},{"no_bairro":"ZONA RURAL"},{"nu_telefone":""},{"co_cep":"78565000"},{"uf":"MT"},{"cidade":"Nova Bandeirantes"},{"ano_ubs_det":"2016"},{"mes_ubs_det":"5"}],"geometry":{"type":"Point","coordinates":[-57.74304628372,-9.7951269149777]}},{"type":"Feature","properties":[{"gid":"12629"},{"co_cnes":"6300200"},{"lat":"-15.3676629066463"},{"long":"-56.6426110267623"},{"no_fantasia":"UNIDADE DE SAUDE DA FAMILIA MUTUM"},{"no_logradouro":"COMUNIDADE DO MUTUM"},{"nu_endereco":"0222"},{"no_bairro":"ZONA RURAL"},{"nu_telefone":"6533441155"},{"co_cep":"78490000"},{"uf":"MT"},{"cidade":"Jangada"},{"ano_ubs_det":"2016"},{"mes_ubs_det":"5"}],"geometry":{"type":"Point","coordinates":[-56.642611026762,-15.367662906646]}},{"type":"Feature","properties":[{"gid":"12705"},{"co_cnes":"2393484"},{"lat":"-15.538481877547"},