[{"type":"Feature","properties":[{"gid":"730"},{"co_cnes":"6747078"},{"lat":"-1.77361183291287"},{"long":"-49.2830671844482"},{"no_fantasia":"POSTO DE SAUDE DE TURUSSU"},{"no_logradouro":"RIO TURUSSU"},{"nu_endereco":"S/N"},{"no_bairro":"ZONA RURAL"},{"nu_telefone":"(91)36361404"},{"co_cep":"68415000"},{"uf":"PA"},{"cidade":"Limoeiro do Ajuru"},{"ano_ubs_det":"2016"},{"mes_ubs_det":"5"}],"geometry":{"type":"Point","coordinates":[-49.283067184448,-1.7736118329129]}},{"type":"Feature","properties":[{"gid":"618"},{"co_cnes":"7095929"},{"lat":"-2.15137630755239"},{"long":"-56.0780442059149"},{"no_fantasia":"UNIDADE DE SAUDE DA FAMILIA DO SAO MARCOS"},{"no_logradouro":"AVENIDA ALUISIO RUSSO DA FONSECA"},{"nu_endereco":"S/N"},{"no_bairro":"SAO MARCOS"},{"nu_telefone":""},{"co_cep":"68170000"},{"uf":"PA"},{"cidade":"Juruti"},{"ano_ubs_det":"2016"},{"mes_ubs_det":"5"}],"geometry":{"type":"Point","coordinates":[-56.078044205915,-2.1513763075524]}},{"type":"Feature","properties":[{"gid":"656"},{"co_cnes":"2621355"},{"lat":"-1.56721472740169"},{"long":"-48.3501005172715"},{"no_fantasia":"ESTRATEGIA DE SAUDE DA FAMILIA DE GENIPAUBA"},{"no_logradouro":"IG GENIPAUBA"},{"nu_endereco":"03"},{"no_bairro":"BAIXO ACARA"},{"nu_telefone":""},{"co_cep":"68690000"},{"uf":"PA"},{"cidade":"Acará"},{"ano_ubs_det":"2016"},{"mes_ubs_det":"5"}],"geometry":{"type":"Point","coordinates":[-48.350100517271,-1.5672147274017]}},{"type":"Feature","properties":[{"gid":"786"},{"co_cnes":"7163878"},{"lat":"-3.47127076888595"},{"long":"-51.1931455135345"},{"no_fantasia":"ESFSB DINORA TEREZINHA"},{"no_logradouro":"AV TRANSAMAZONICA"},{"nu_endereco":"S/N"},{"no_bairro":"VILA ACROLINA"},{"nu_telefone":""},{"co_cep":"68365000"},{"uf":"PA"},{"cidade":"Anapu"},{"ano_ubs_det":"2016"},{"mes_ubs_det":"5"}],"geometry":{"type":"Point","coordinates":[-51.193145513535,-3.4712707688859]}},{"type":"Feature","properties":[{"gid":"999"},{"co_cnes":"2317672"},{"lat":"-1.17052674293515"},{"long":"-50.4877567291245"},{"no_fantasia":"UNIDADE DE SAUDE DA FAMILIA AMANCIO P DA CRUZ SAO MIGUEL"},{"no_logradouro":"RIO MACACOS"},{"nu_endereco":"S/N"},{"no_bairro":"RURAL"},{"nu_telefone":""},{"co_cep":"68800000"},{"uf":"PA"},{"cidade":"Breves"},{"ano_ubs_det":"2016"},{"mes_ubs_det":"5"}],"geometry":{"type":"Point","coordinates":[-50.487756729124,-1.1705267429352]}},{"type":"Feature","properties":[{"gid":"1180"},{"co_cnes":"2336936"},{"lat":"-1.06531203440636"},{"long":"-48.3326125144958"},{"no_fantasia":"UNIDADE MUNICIPAL DE SAUDE BAIA DO SOL"},{"no_logradouro":"AV BEIRA MAR CAMBOINHA"},{"nu_endereco":"S/N"},{"no_bairro":"BAIA DO SOL"},{"nu_telefone":"91 3773 - 1166"},{"co_cep":"66010000"},{"uf":"PA"},{"cidade":"Belém"},{"ano_ubs_det":"2016"},{"mes_ubs_det":"5"}],"geometry":{"type":"Point","coordinates":[-48.332612514496,-1.0653120344064]}},{"type":"Feature","properties":[{"gid":"1485"},{"co_cnes":"2331373"},{"lat":"-2.16628159328779"},{"long":"-53.9011376607418"},{"no_fantasia":"ESTRATEGIA SAUDE DA FAMILIA BOA VISTA DO CUCARI"},{"no_logradouro":"BOA VISTA DO CUCARI"},{"nu_endereco":"S/N"},{"no_bairro":"CUCARI"},{"nu_telefone":""},{"co_cep":"68130000"},{"uf":"PA"},{"cidade":"Prainha"},{"ano_ubs_det":"2016"},{"mes_ubs_det":"5"}],"geometry":{"type":"Point","coordinates":[-53.901137660742,-2.1662815932878]}},{"type":"Feature","properties":[{"gid":"1381"},{"co_cnes":"5808324"},{"lat":"-1.35508121682464"},{"long":"-48.3863358199596"},{"no_fantasia":"UNIDADE BASICA DE SAUDE GUAJARA DO POLO II"},{"no_logradouro":"CONJUNTO VILLIA RUA C"},{"nu_endereco":"28"},{"no_bairro":"MAGUARI"},{"nu_telefone":""},{"co_cep":"67145750"},{"uf":"PA"},{"cidade":"Ananindeua"},{"ano_ubs_det":"2016"},{"mes_ubs_det":"5"}],"geometry":{"type":"Point","coordinates":[-48.38633581996,-1.3550812168246]}},{"type":"Feature","properties":[{"gid":"1295"},{"co_cnes":"2616009"},{"lat":"-6.9372928"},{"long":"-49.6917927"},{"no_fantasia":"UNIDADE DE SAUDE DA FAMILIA DE SAUDE VANY FURTADO"},{"no_logradouro":"RUA EUCALIPTOS"},{"nu_endereco":"152"},{"no_bairro":"BELA VISTA"},{"nu_telefone":""},{"co_cep":"68548000"},{"uf":"PA"},{"cidade":"Sapucaia"},{"ano_ubs_det":"2016"},{"mes_ubs_det":"5"}],"geometry":{"type":"Point","coordinates":[-49.6917927,-6.9372928]}},{"type":"Feature","properties":[{"gid":"1351"},{"co_cnes":"2312808"},{"lat":"-4.18542178371657"},{"long":"-49.0546980500221"},{"no_fantasia":"POSTO DE SAUDE RUI BARBOSA"},{"no_logradouro":"COMUNIDADE RIO DOURADO"},{"nu_endereco":"S/N"},{"no_bairro":"ZONA RURAL"},{"nu_telefone":""},{"co_cep":"68639000"},{"uf":"PA"},{"cidade":"Goianésia do Pará"},{"ano_ubs_det":"2016"},{"mes_ubs_det":"5"}],"geometry":{"type":"Point","coordinates":[-49.054698050022,-4.1854217837166]}},{"type":"Feature","properties":[{"gid":"1251"},{"co_cnes":"2313340"},{"lat":"-2.25440740585321"},{"long":"-49.508621692656"},{"no_fantasia":"UNIDADE BASICA DA FAMILIA DE NOVA CAMETA"},{"no_logradouro":"RUA BRAULIO MENDONCA"},{"nu_endereco":"S/N"},{"no_bairro":"NOVA CAMETA"},{"nu_telefone":"(0 )"},{"co_cep":"68400000"},{"uf":"PA"},{"cidade":"Cametá"},{"ano_ubs_det":"2016"},{"mes_ubs_det":"5"}],"geometry":{"type":"Point","coordinates":[-49.508621692656,-2.2544074058532]}},{"type":"Feature","properties":[{"gid":"1769"},{"co_cnes":"2329395"},{"lat":"-6.91037893295268"},{"long":"-50.0071907043443"},{"no_fantasia":"POSTO DE SAUDE VITORIA DA UNIAO"},{"no_logradouro":"RUA PRINCIPAL"},{"nu_endereco":"S/N"},{"no_bairro":"ZONA RURAL"},{"nu_telefone":"(91)4261743"},{"co_cep":"68533000"},{"uf":"PA"},{"cidade":"Água Azul do Norte"},{"ano_ubs_det":"2016"},{"mes_ubs_det":"5"}],"geometry":{"type":"Point","coordinates":[-50.007190704344,-6.9103789329527]}},{"type":"Feature","properties":[{"gid":"1861"},{"co_cnes":"2329999"},{"lat":"-2.57372975349419"},{"long":"-54.6376490592941"},{"no_fantasia":"UNIDADE DE SAUDE DA FAMILIA DO JACAMIN"},{"no_logradouro":"RODOVIA CURUAUNA KM"},{"nu_endereco":"20"},{"no_bairro":"PLANALTO"},{"nu_telefone":""},{"co_cep":"68005270"},{"uf":"PA"},{"cidade":"Santarém"},{"ano_ubs_det":"2016"},{"mes_ubs_det":"5"}],"geometry":{"type":"Point","coordinates":[-54.637649059294,-2.5737297534942]}},{"type":"Feature","properties":[{"gid":"1891"},{"co_cnes":"2333449"},{"lat":"-6.39741182327252"},{"long":"-48.5687112808213"},{"no_fantasia":"UNIDADE BASICA DE SAUDE CENTRO ALTO SOCORRO"},{"no_logradouro":"RUA LEOCADIA MARANHAO"},{"nu_endereco":"27"},{"no_bairro":"ALTO SOCORRO"},{"nu_telefone":""},{"co_cep":"68570000"},{"uf":"PA"},{"cidade":"São Geraldo do Araguaia"},{"ano_ubs_det":"2016"},{"mes_ubs_det":"5"}],"geometry":{"type":"Point","coordinates":[-48.568711280821,-6.3974118232725]}},{"type":"Feature","properties":[{"gid":"1928"},{"co_cnes":"2315920"},{"lat":"-0.0623130675499508"},{"long":"-50.6499767303467"},{"no_fantasia":"POSTO DE SAUDE SERRARIA PEQUENA"},{"no_logradouro":"SERRARIA PEQUENA"},{"nu_endereco":"S/N"},{"no_bairro":"ZONA RURAL"},{"nu_telefone":"(96)6891569"},{"co_cep":"68890000"},{"uf":"PA"},{"cidade":"Afuá"},{"ano_ubs_det":"2016"},{"mes_ubs_det":"5"}],"geometry":{"type":"Point","coordinates":[-50.649976730347,-0.062313067549951]}},{"type":"Feature","properties":[{"gid":"1818"},{"co_cnes":"3560058"},{"lat":"-7.84310102462746"},{"long":"-49.2919206619248"},{"no_fantasia":"ESTRATEGIA DE SAUDE DA FAMILIA JOAO BATISTA CARVALHO"},{"no_logradouro":"ASSENTAMENTO JONCON PA 449"},{"nu_endereco":"S/N"},{"no_bairro":"ZONA RURAL"},{"nu_telefone":""},{"co_cep":"68540000"},{"uf":"PA"},{"cidade":"Conceição do Araguaia"},{"ano_ubs_det":"2016"},{"mes_ubs_det":"5"}],"geometry":{"type":"Point","coordinates":[-49.291920661925,-7.8431010246275]}},{"type":"Feature","properties":[{"gid":"1922"},{"co_cnes":"2312956"},{"lat":"-1.52196049690242"},{"long":"-49.7504711151109"},{"no_fantasia":"POSTO DE SAUDE ARAMAQUIRI"},{"no_logradouro":"RIO CANATICU"},{"nu_endereco":"S/N"},{"no_bairro":"ZONA RURAL"},{"nu_telefone":""},{"co_cep":"68815000"},{"uf":"PA"},{"cidade":"Curralinho"},{"ano_ubs_det":"2016"},{"mes_ubs_det":"5"}],"geometry":{"type":"Point","coordinates":[-49.750471115111,-1.5219604969024]}},{"type":"Feature","properties":[{"gid":"1710"},{"co_cnes":"2615940"},{"lat":"-7.82256845824774"},{"long":"-50.8100509643555"},{"no_fantasia":"POSTO DE SAUDE ROMARIA"},{"no_logradouro":"VILA ROMARIA"},{"nu_endereco":"S/N"},{"no_bairro":"ZONA RURAL"},{"nu_telefone":"(94) 33091266"},{"co_cep":"68398000"},{"uf":"PA"},{"cidade":"Cumaru do Norte"},{"ano_ubs_det":"2016"},{"mes_ubs_det":"5"}],"geometry":{"type":"Point","coordinates":[-50.810050964355,-7.8225684582477]}},{"type":"Feature","properties":[{"gid":"1637"},{"co_cnes":"7722435"},{"lat":"-3.8649098"},{"long":"-47.6061625"},{"no_fantasia":"POSTO DE SAUDE BOM JESUS"},{"no_logradouro":"ASSENTAMENTO BOM JESUS"},{"nu_endereco":"S/N"},{"no_bairro":"ZONA RURAL"},{"nu_telefone":""},{"co_cep":"68632000"},{"uf":"PA"},{"cidade":"Ulianópolis"},{"ano_ubs_det":"2016"},{"mes_ubs_det":"5"}],"geometry":{"type":"Point","coordinates":[-47.6061625,-3.8649098]}},{"type":"Feature","properties":[{"gid":"1684"},{"co_cnes":"2676443"},{"lat":"-0.623638"},{"long":"-47.3531202631536"},{"no_fantasia":"USF PRAINHA"},{"no_logradouro":"RUA OSVALDO CRUZ"},{"nu_endereco":"S/N"},{"no_bairro":"PRAINHA"},{"nu_telefone":""},{"co_cep":"68721000"},{"uf":"PA"},{"cidade":"Salinópolis"},{"ano_ubs_det":"2016"},{"mes_ubs_det":"5"}],"geometry":{"type":"Point","coordinates":[-47.353120263154,-0.623638]}},{"type":"Feature","properties":[{"gid":"1831"},{"co_cnes":"2677679"},{"lat":"-1.83495034616706"},{"long":"-49.3030657348633"},{"no_fantasia":"POSTO DE SAUDE DE ARARAIM"},{"no_logradouro":"ILHA ARARAIM"},{"nu_endereco":"S/N"},{"no_bairro":"ZONA RURAL"},{"nu_telefone":"(91)36361404"},{"co_cep":"68415000"},{"uf":"PA"},{"cidade":"Limoeiro do Ajuru"},{"ano_ubs_det":"2016"},{"mes_ubs_det":"5"}],"geometry":{"type":"Point","coordinates":[-49.303065734863,-1.8349503461671]}},{"type":"Feature","properties":[{"gid":"1950"},{"co_cnes":"2315963"},{"lat":"-0.579518927216806"},{"long":"-50.6401062011719"},{"no_fantasia":"POSTO DE SAUDE DE JUPATY"},{"no_logradouro":"LOCALIDADE DE JUPATY"},{"nu_endereco":"S/N"},{"no_bairro":"ZONA RURAL"},{"nu_telefone":"(96)6891556"},{"co_cep":"68890000"},{"uf":"PA"},{"cidade":"Afuá"},{"ano_ubs_det":"2016"},{"mes_ubs_det":"5"}],"geometry":{"type":"Point","coordinates":[-50.640106201172,-0.57951892721681]}},{"type":"Feature","properties":[{"gid":"2268"},{"co_cnes":"3776603"},{"lat":"-4.09906539"},{"long":"-54.905862259869"},{"no_fantasia":"USF ALVORADA"},{"no_logradouro":"AV BRASIL TANCREDO NEVES"},{"nu_endereco":"S/N"},{"no_bairro":"ALVORADA"},{"nu_telefone":"(93) 3543-1328"},{"co_cep":"68165000"},{"uf":"PA"},{"cidade":"Rurópolis"},{"ano_ubs_det":"2016"},{"mes_ubs_det":"5"}],"geometry":{"type":"Point","coordinates":[-54.905862259869,-4.09906539]}},{"type":"Feature","properties":[{"gid":"2385"},{"co_cnes":"2677709"},{"lat":"-2.0509779453277"},{"long":"-47.5559949874864"},{"no_fantasia":"U S F JOEL NUNES DOS SANTOS"},{"no_logradouro":"RUA BERNARDO PEREIRA DE OLIVEIRA"},{"nu_endereco":"340"},{"no_bairro":"SAO SEBASTIAO"},{"nu_telefone":""},{"co_cep":"68675000"},{"uf":"PA"},{"cidade":"Mãe do Rio"},{"ano_ubs_det":"2016"},{"mes_ubs_det":"5"}],"geometry":{"type":"Point","coordinates":[-47.555994987486,-2.0509779453277]}},{"type":"Feature","properties":[{"gid":"2303"},{"co_cnes":"6049354"},{"lat":"-4.77893471717821"},{"long":"-48.0657863616929"},{"no_fantasia":"UNIDADE DE SAUDE DA FAMILIA DO CENTRO"},{"no_logradouro":"RUA CESAR BRASIL"},{"nu_endereco":"000"},{"no_bairro":"CENTRO"},{"nu_telefone":"9433261648"},{"co_cep":"68638000"},{"uf":"PA"},{"cidade":"Rondon do Pará"},{"ano_ubs_det":"2016"},{"mes_ubs_det":"5"}],"geometry":{"type":"Point","coordinates":[-48.065786361693,-4.7789347171782]}},{"type":"Feature","properties":[{"gid":"2147"},{"co_cnes":"2317907"},{"lat":"-1.46876692771907"},{"long":"-48.0192017555223"},{"no_fantasia":"UNIDADE SAUDE DA FAMILIA DE PERNAMBUCO"},{"no_logradouro":"VILA DE PERNAMBUCO"},{"nu_endereco":"S/N"},{"no_bairro":"ZONA RURAL"},{"nu_telefone":""},{"co_cep":"68770000"},{"uf":"PA"},{"cidade":"Inhangapi"},{"ano_ubs_det":"2016"},{"mes_ubs_det":"5"}],"geometry":{"type":"Point","coordinates":[-48.019201755522,-1.4687669277191]}},{"type":"Feature","properties":[{"gid":"2203"},{"co_cnes":"7299028"},{"lat":"-5.13505657893032"},{"long":"-49.3270683288574"},{"no_fantasia":"UNIDADE DE SAUDE BAIRRO VITORIA"},{"no_logradouro":"RUA SAO FRANCISCO"},{"nu_endereco":"S/N"},{"no_bairro":"VITORIA"},{"nu_telefone":""},{"co_cep":"68580000"},{"uf":"PA"},{"cidade":"Itupiranga"},{"ano_ubs_det":"2016"},{"mes_ubs_det":"5"}],"geometry":{"type":"Point","coordinates":[-49.327068328857,-5.1350565789303]}},{"type":"Feature","properties":[{"gid":"2330"},{"co_cnes":"2330431"},{"lat":"-3.18576351940357"},{"long":"-52.1904895305306"},{"no_fantasia":"UNIDADE DE SAUDE DA FAMILIA ALTA COLINA"},{"no_logradouro":"RUA ALTA COLINA"},{"nu_endereco":"S/N"},{"no_bairro":"COLINA"},{"nu_telefone":"(93)35152297"},{"co_cep":"68371970"},{"uf":"PA"},{"cidade":"Altamira"},{"ano_ubs_det":"2016"},{"mes_ubs_det":"5"}],"geometry":{"type":"Point","coordinates":[-52.190489530531,-3.1857635194036]}},{"type":"Feature","properties":[{"gid":"2173"},{"co_cnes":"7406460"},{"lat":"-1.69242084413406"},{"long":"-50.4751825332642"},{"no_fantasia":"UNIDADE DE SAUDE DA FAMILIA DONA BADICA"},{"no_logradouro":"AVENIDA ANAJAS"},{"nu_endereco":"S/N"},{"no_bairro":"CIDADE NOVA II"},{"nu_telefone":"(91) 37831988"},{"co_cep":"68800000"},{"uf":"PA"},{"cidade":"Breves"},{"ano_ubs_det":"2016"},{"mes_ubs_det":"5"}],"geometry":{"type":"Point","coordinates":[-50.475182533264,-1.6924208441341]}},{"type":"Feature","properties":[{"gid":"2231"},{"co_cnes":"2312824"},{"lat":"-1.936451"},{"long":"-50.822490442211"},{"no_fantasia":"UNIDADE SAUDE DA FAMILIA DO BOSQUE"},{"no_logradouro":"RUA PADRE ANTONIO VIEIRA"},{"nu_endereco":"S/N"},{"no_bairro":"BOSQUE"},{"nu_telefone":"( )"},{"co_cep":"68480000"},{"uf":"PA"},{"cidade":"Portel"},{"ano_ubs_det":"2016"},{"mes_ubs_det":"5"}],"geometry":{"type":"Point","coordinates":[-50.822490442211,-1.936451]}},{"type":"Feature","properties":[{"gid":"2221"},{"co_cnes":"3679373"},{"lat":"-1.29529"},{"long":"-47.92172"},{"no_fantasia":"USF DE TITANLANDIA"},{"no_logradouro":"RUA MANOEL ALVES PRADO"},{"nu_endereco":"36"},{"no_bairro":"TITANLANDIA"},{"nu_telefone":""},{"co_cep":"68745000"},{"uf":"PA"},{"cidade":"Castanhal"},{"ano_ubs_det":"2016"},{"mes_ubs_det":"5"}],"geometry":{"type":"Point","coordinates":[-47.92172,-1.29529]}},{"type":"Feature","properties":[{"gid":"2175"},{"co_cnes":"7382324"},{"lat":"-1.06327890171793"},{"long":"-46.7643096427918"},{"no_fantasia":"UNIDADE DE SAUDE DA FAMILIA PADRE LUIZ"},{"no_logradouro":"AV MARECHAL FLORIANO PEIXOTO"},{"nu_endereco":"S/N"},{"no_bairro":"PADRE LUIZ"},{"nu_telefone":""},{"co_cep":"68600000"},{"uf":"PA"},{"cidade":"Bragança"},{"ano_ubs_det":"2016"},{"mes_ubs_det":"5"}],"geometry":{"type":"Point","coordinates":[-46.764309642792,-1.0632789017179]}},{"type":"Feature","properties":[{"gid":"2491"},{"co_cnes":"2314681"},{"lat":"-1.21643543243405"},{"long":"-47.1807861328111"},{"no_fantasia":"UNIDADE DE SAUDE DA FAMILIA ARNOLDO TAVARES"},{"no_logradouro":"LOCALIDADE SAO JOSE"},{"nu_endereco":"S/N"},{"no_bairro":"SAO JOSE"},{"nu_telefone":""},{"co_cep":"68702180"},{"uf":"PA"},{"cidade":"Capanema"},{"ano_ubs_det":"2016"},{"mes_ubs_det":"5"}],"geometry":{"type":"Point","coordinates":[-47.180786132811,-1.2164354324341]}},{"type":"Feature","properties":[{"gid":"2679"},{"co_cnes":"6563244"},{"lat":"-1.3367144"},{"long":"-48.4049017"},{"no_fantasia":"UBS ICUI"},{"no_logradouro":"CONJUNTO TAURI QD 23"},{"nu_endereco":"53"},{"no_bairro":"ICUI GUAJARA"},{"nu_telefone":""},{"co_cep":"67125000"},{"uf":"PA"},{"cidade":"Ananindeua"},{"ano_ubs_det":"2016"},{"mes_ubs_det":"5"}],"geometry":{"type":"Point","coordinates":[-48.4049017,-1.3367144]}},{"type":"Feature","properties":[{"gid":"2561"},{"co_cnes":"2676370"},{"lat":"-0.763571262359597"},{"long":"-47.3642277717577"},{"no_fantasia":"USF SAO BENTO"},{"no_logradouro":"VILA DO SAO BENTO"},{"nu_endereco":"S/N"},{"no_bairro":"CENTRO"},{"nu_telefone":""},{"co_cep":"68721000"},{"uf":"PA"},{"cidade":"Salinópolis"},{"ano_ubs_det":"2016"},{"mes_ubs_det":"5"}],"geometry":{"type":"Point","coordinates":[-47.364227771758,-0.7635712623596]}},{"type":"Feature","properties":[{"gid":"2535"},{"co_cnes":"2328569"},{"lat":"-1.36871356826945"},{"long":"-48.372066654168"},{"no_fantasia":"UNIDADE BASICA DE SAUDE CURUCAMBA"},{"no_logradouro":"ESTRADA PRINCIPAL DO CURUCAMBA"},{"nu_endereco":"01"},{"no_bairro":"CURUCAMBA"},{"nu_telefone":""},{"co_cep":"67130040"},{"uf":"PA"},{"cidade":"Ananindeua"},{"ano_ubs_det":"2016"},{"mes_ubs_det":"5"}],"geometry":{"type":"Point","coordinates":[-48.372066654168,-1.3687135682695]}},{"type":"Feature","properties":[{"gid":"2653"},{"co_cnes":"2614383"},{"lat":"-5.91317653655989"},{"long":"-50.2274537086472"},{"no_fantasia":"UNIDADE BASICA DE SAUDE VILINHA"},{"no_logradouro":"ESTRADA PAULO FONTELES"},{"nu_endereco":"S/N"},{"no_bairro":"RURAL"},{"nu_telefone":"094 992016338"},{"co_cep":"68515000"},{"uf":"PA"},{"cidade":"Parauapebas"},{"ano_ubs_det":"2016"},{"mes_ubs_det":"5"}],"geometry":{"type":"Point","coordinates":[-50.227453708647,-5.9131765365599]}},{"type":"Feature","properties":[{"gid":"2780"},{"co_cnes":"7399928"},{"lat":"-7.55786592633358"},{"long":"-49.7172546386719"},{"no_fantasia":"ESTRATEGIA DE SAUDE DA FAMILIA VILA MENDONCA"},{"no_logradouro":"LOTE 01 QUADRA 14 SETOR 01 VILA MENDONCA"},{"nu_endereco":"S/N"},{"no_bairro":"MEIO RURAL"},{"nu_telefone":"9434321621"},{"co_cep":"68543000"},{"uf":"PA"},{"cidade":"Floresta do Araguaia"},{"ano_ubs_det":"2016"},{"mes_ubs_det":"5"}],"geometry":{"type":"Point","coordinates":[-49.717254638672,-7.5578659263336]}},{"type":"Feature","properties":[{"gid":"2781"},{"co_cnes":"7533853"},{"lat":"-2.47441726862317"},{"long":"-54.7184123353958"},{"no_fantasia":"UNIDADE BASICA DE SAUDE VITORIA REGIA"},{"no_logradouro":"TRAVESSA JADER BARBALHO COM 13 DE MAIO"},{"nu_endereco":"S/N"},{"no_bairro":"VITORIA REGIA"},{"nu_telefone":"21010100"},{"co_cep":"68041020"},{"uf":"PA"},{"cidade":"Santarém"},{"ano_ubs_det":"2016"},{"mes_ubs_det":"5"}],"geometry":{"type":"Point","coordinates":[-54.718412335396,-2.4744172686232]}},{"type":"Feature","properties":[{"gid":"2772"},{"co_cnes":"7231865"},{"lat":"-4.01756202190245"},{"long":"-49.4544768676758"},{"no_fantasia":"UBS NOVO PARAISO"},{"no_logradouro":"RUA DA PAZ"},{"nu_endereco":"S/N"},{"no_bairro":"NOVO PARAISO"},{"nu_telefone":"9437860788"},{"co_cep":"68488000"},{"uf":"PA"},{"cidade":"Breu Branco"},{"ano_ubs_det":"2016"},{"mes_ubs_det":"5"}],"geometry":{"type":"Point","coordinates":[-49.454476867676,-4.0175620219025]}},{"type":"Feature","properties":[{"gid":"2524"},{"co_cnes":"2330288"},{"lat":"-2.54526811802506"},{"long":"-54.7245660424232"},{"no_fantasia":"UNIDADE DE SAUDE DA FAMILIA DE CIPOAL"},{"no_logradouro":"BR 163"},{"nu_endereco":"S/N"},{"no_bairro":"CIPOAL"},{"nu_telefone":""},{"co_cep":"68005270"},{"uf":"PA"},{"cidade":"Santarém"},{"ano_ubs_det":"2016"},{"mes_ubs_det":"5"}],"geometry":{"type":"Point","coordinates":[-54.724566042423,-2.5452681180251]}},{"type":"Feature","properties":[{"gid":"2506"},{"co_cnes":"5711282"},{"lat":"-1.29902199728267"},{"long":"-48.1609725952148"},{"no_fantasia":"P S S TRINDADE"},{"no_logradouro":"COMUNIDADE TRINDADE"},{"nu_endereco":"000000000"},{"no_bairro":"RURAL"},{"nu_telefone":""},{"co_cep":"68790000"},{"uf":"PA"},{"cidade":"Santa Izabel do Pará"},{"ano_ubs_det":"2016"},{"mes_ubs_det":"5"}],"geometry":{"type":"Point","coordinates":[-48.160972595215,-1.2990219972827]}},{"type":"Feature","properties":[{"gid":"2525"},{"co_cnes":"4005554"},{"lat":"-1.73160195350642"},{"long":"-48.8871216773973"},{"no_fantasia":"UNIDADE DE SAUDE DA FAMILIA DO ALGODOAL"},{"no_logradouro":"RUA BERLINDO PINHEIRO"},{"nu_endereco":"530"},{"no_bairro":"ALGODOAL"},{"nu_telefone":"(91)37512003"},{"co_cep":"68440000"},{"uf":"PA"},{"cidade":"Abaetetuba"},{"ano_ubs_det":"2016"},{"mes_ubs_det":"5"}],"geometry":{"type":"Point","coordinates":[-48.887121677397,-1.7316019535064]}},{"type":"Feature","properties":[{"gid":"3089"},{"co_cnes":"6039073"},{"lat":"-6.06326222419721"},{"long":"-49.9088716506944"},{"no_fantasia":"UNIDADE BASICA DE SAUDE CIDADE NOVA"},{"no_logradouro":"RUA A"},{"nu_endereco":"1262"},{"no_bairro":"CIDADE NOVA"},{"nu_telefone":"9433468532"},{"co_cep":"68515000"},{"uf":"PA"},{"cidade":"Parauapebas"},{"ano_ubs_det":"2016"},{"mes_ubs_det":"5"}],"geometry":{"type":"Point","coordinates":[-49.908871650694,-6.0632622241972]}},{"type":"Feature","properties":[{"gid":"3061"},{"co_cnes":"2332124"},{"lat":"-2.6892"},{"long":"-54.99845"},{"no_fantasia":"UNIDADE SAUDE DA FAMILIA ARAMANAI"},{"no_logradouro":"COMUNIDADE DE ARAMANAI"},{"nu_endereco":"S/N"},{"no_bairro":"RIO TAPAJOS"},{"nu_telefone":""},{"co_cep":"68143000"},{"uf":"PA"},{"cidade":"Belterra"},{"ano_ubs_det":"2016"},{"mes_ubs_det":"5"}],"geometry":{"type":"Point","coordinates":[-54.99845,-2.6892]}},{"type":"Feature","properties":[{"gid":"3049"},{"co_cnes":"2316250"},{"lat":"-0.761124158757217"},{"long":"-48.5163116455078"},{"no_fantasia":"UNIDADE DE SAUDE DA FAMILIA CONDEIXA"},{"no_logradouro":"VIL DE CONDEIXAS"},{"nu_endereco":"S/N"},{"no_bairro":"CENTRO"},{"nu_telefone":""},{"co_cep":"68860000"},{"uf":"PA"},{"cidade":"Salvaterra"},{"ano_ubs_det":"2016"},{"mes_ubs_det":"5"}],"geometry":{"type":"Point","coordinates":[-48.516311645508,-0.76112415875722]}},{"type":"Feature","properties":[{"gid":"2952"},{"co_cnes":"6444261"},{"lat":"-4.22007903716998"},{"long":"-55.96435546875"},{"no_fantasia":"UNIDADE BASICA DE SAUDE CREPURIZINHO"},{"no_logradouro":"COMUNIDADE DE CREPURIZINHO"},{"nu_endereco":"S/N"},{"no_bairro":"ZONA RURAL"},{"nu_telefone":""},{"co_cep":"68181000"},{"uf":"PA"},{"cidade":"Itaituba"},{"ano_ubs_det":"2016"},{"mes_ubs_det":"5"}],"geometry":{"type":"Point","coordinates":[-55.96435546875,-4.22007903717]}},{"type":"Feature","properties":[{"gid":"3118"},{"co_cnes":"2675897"},{"lat":"-0.926724672317478"},{"long":"-46.8560886383043"},{"no_fantasia":"USF FLEXEIRA"},{"no_logradouro":"RAMAL DA FLEXEIRA"},{"nu_endereco":"S/N"},{"no_bairro":"FLEXEIRA"},{"nu_telefone":""},{"co_cep":"68647000"},{"uf":"PA"},{"cidade":"Tracuateua"},{"ano_ubs_det":"2016"},{"mes_ubs_det":"5"}],"geometry":{"type":"Point","coordinates":[-46.856088638304,-0.92672467231748]}},{"type":"Feature","properties":[{"gid":"3156"},{"co_cnes":"2615878"},{"lat":"-1.30612850189205"},{"long":"-48.3099961280809"},{"no_fantasia":"UNIDADE SAUDE DA FAMILIA DA PICARREIRA"},{"no_logradouro":"RUA MADRE SILVA"},{"nu_endereco":"S/N"},{"no_bairro":"BENFICA"},{"nu_telefone":""},{"co_cep":"68795000"},{"uf":"PA"},{"cidade":"Benevides"},{"ano_ubs_det":"2016"},{"mes_ubs_det":"5"}],"geometry":{"type":"Point","coordinates":[-48.309996128081,-1.3061285018921]}},{"type":"Feature","properties":[{"gid":"2882"},{"co_cnes":"3277763"},{"lat":"-1.61251187324519"},{"long":"-47.4761939048753"},{"no_fantasia":"UNIDADE DE SAUDE DA FAMILIA PERPETUO SOCORRO"},{"no_logradouro":"RUA FREI MIGUEL"},{"nu_endereco":"S/N"},{"no_bairro":"PERPETUO SOCORRO"},{"nu_telefone":"99355-2966"},{"co_cep":"68660000"},{"uf":"PA"},{"cidade":"São Miguel do Guamá"},{"ano_ubs_det":"2016"},{"mes_ubs_det":"5"}],"geometry":{"type":"Point","coordinates":[-47.476193904875,-1.6125118732452]}},{"type":"Feature","properties":[{"gid":"3081"},{"co_cnes":"3112322"},{"lat":"-1.77386920160134"},{"long":"-49.4898333129883"},{"no_fantasia":"POSTO DE SAUDE DE TERE"},{"no_logradouro":"RIO TERE"},{"nu_endereco":"S/N"},{"no_bairro":"ZONA RURAL"},{"nu_telefone":"(91)36361404"},{"co_cep":"68415000"},{"uf":"PA"},{"cidade":"Limoeiro do Ajuru"},{"ano_ubs_det":"2016"},{"mes_ubs_det":"5"}],"geometry":{"type":"Point","coordinates":[-49.489833312988,-1.7738692016013]}},{"type":"Feature","properties":[{"gid":"3164"},{"co_cnes":"2314118"},{"lat":"-1.48205995559688"},{"long":"-47.1798849105821"},{"no_fantasia":"UNIDADE DE SAUDE DA FAMILIA MIGUEL FERREIRA ROSA"},{"no_logradouro":"VILA DO PURAQUEQUARINHA"},{"nu_endereco":"S/N"},{"no_bairro":"PURAQUEQUARINHA"},{"nu_telefone":""},{"co_cep":"68640000"},{"uf":"PA"},{"cidade":"Ourém"},{"ano_ubs_det":"2016"},{"mes_ubs_det":"5"}],"geometry":{"type":"Point","coordinates":[-47.179884910582,-1.4820599555969]}},{"type":"Feature","properties":[{"gid":"3138"},{"co_cnes":"5624274"},{"lat":"-1.192441995"},{"long":"-47.1751261231344"},{"no_fantasia":"UNIDADE DE SAUDE DA FAMILIA DO INUSSUM"},{"no_logradouro":"INUSSUN"},{"nu_endereco":"S/N"},{"no_bairro":"INUSSUN"},{"nu_telefone":""},{"co_cep":"68701090"},{"uf":"PA"},{"cidade":"Capanema"},{"ano_ubs_det":"2016"},{"mes_ubs_det":"5"}],"geometry":{"type":"Point","coordinates":[-47.175126123134,-1.192441995]}},{"type":"Feature","properties":[{"gid":"3020"},{"co_cnes":"6746829"},{"lat":"-1.7234242609663"},{"long":"-49.3089022216797"},{"no_fantasia":"POSTO DE SAUDE DE AJURU"},{"no_logradouro":"RIO AJURU"},{"nu_endereco":"S/N"},{"no_bairro":"ZONA RURAL"},{"nu_telefone":"(91)36361404"},{"co_cep":"68415000"},{"uf":"PA"},{"cidade":"Limoeiro do Ajuru"},{"ano_ubs_det":"2016"},{"mes_ubs_det":"5"}],"geometry":{"type":"Point","coordinates":[-49.30890222168,-1.7234242609663]}},{"type":"Feature","properties":[{"gid":"3133"},{"co_cnes":"5381371"},{"lat":"-1.80942341966693"},{"long":"-49.7915228470854"},{"no_fantasia":"UNIDADE DE SAUDE DA FAMILIA DA MARAMBAIA"},{"no_logradouro":"TV SANTA ROSA"},{"nu_endereco":"S/N"},{"no_bairro":"MARAMBAIA"},{"nu_telefone":""},{"co_cep":"68815000"},{"uf":"PA"},{"cidade":"Curralinho"},{"ano_ubs_det":"2016"},{"mes_ubs_det":"5"}],"geometry":{"type":"Point","coordinates":[-49.791522847085,-1.8094234196669]}},{"type":"Feature","properties":[{"gid":"2838"},{"co_cnes":"2614774"},{"lat":"-5.37566184997543"},{"long":"-49.1310524940477"},{"no_fantasia":"CENTRO DE SAUDE LARANJEIRAS"},{"no_logradouro":"RUA JOSE BANDEIRA DE SOUZA"},{"nu_endereco":"2"},{"no_bairro":"LARANJEIRAS"},{"nu_telefone":"(94) 3242077"},{"co_cep":"68501160"},{"uf":"PA"},{"cidade":"Marabá"},{"ano_ubs_det":"2016"},{"mes_ubs_det":"5"}],"geometry":{"type":"Point","coordinates":[-49.131052494048,-5.3756618499754]}},{"type":"Feature","properties":[{"gid":"2877"},{"co_cnes":"3809315"},{"lat":"-7.26681232452371"},{"long":"-49.6225619316087"},{"no_fantasia":"ESTRATEGIA DE SAUDE DA FAMILIA DA VILA BETEL"},{"no_logradouro":"VILA BETEL"},{"nu_endereco":"10"},{"no_bairro":"CENTRO"},{"nu_telefone":""},{"co_cep":"68530000"},{"uf":"PA"},{"cidade":"Rio Maria"},{"ano_ubs_det":"2016"},{"mes_ubs_det":"5"}],"geometry":{"type":"Point","coordinates":[-49.622561931609,-7.2668123245237]}},{"type":"Feature","properties":[{"gid":"2975"},{"co_cnes":"7749732"},{"lat":"-0.988033913348983"},{"long":"-49.9398994445801"},{"no_fantasia":"POSTO DE SAUDE SAO FRANCISCO"},{"no_logradouro":"RUA ALVARO PAIVA"},{"nu_endereco":"S/N"},{"no_bairro":"SANTA QUITERIA"},{"nu_telefone":"91-36051123"},{"co_cep":"68810000"},{"uf":"PA"},{"cidade":"Anajás"},{"ano_ubs_det":"2016"},{"mes_ubs_det":"5"}],"geometry":{"type":"Point","coordinates":[-49.93989944458,-0.98803391334898]}},{"type":"Feature","properties":[{"gid":"2876"},{"co_cnes":"7757"},{"lat":"-1.09360098838803"},{"long":"-47.8458666801439"},{"no_fantasia":"USF DE BACABAL"},{"no_logradouro":"AGROVILA BACABAL"},{"nu_endereco":"S/N"},{"no_bairro":"AGROVILA BACABAL"},{"nu_telefone":""},{"co_cep":"68745000"},{"uf":"PA"},{"cidade":"Castanhal"},{"ano_ubs_det":"2016"},{"mes_ubs_det":"5"}],"geometry":{"type":"Point","coordinates":[-47.845866680144,-1.093600988388]}},{"type":"Feature","properties":[{"gid":"3185"},{"co_cnes":"2328674"},{"lat":"-1.35041713714596"},{"long":"-48.3752703666673"},{"no_fantasia":"CENTRO DE SAUDE MAGUARI DR CELSO LEAO"},{"no_logradouro":"RUA CLAUDIO SANDERS"},{"nu_endereco":"1784"},{"no_bairro":"MAGUARI"},{"nu_telefone":"(91)2553422"},{"co_cep":"67130500"},{"uf":"PA"},{"cidade":"Ananindeua"},{"ano_ubs_det":"2016"},{"mes_ubs_det":"5"}],"geometry":{"type":"Point","coordinates":[-48.375270366667,-1.350417137146]}},{"type":"Feature","properties":[{"gid":"3232"},{"co_cnes":"5462991"},{"lat":"-0.73249551"},{"long":"-47.8512650859351"},{"no_fantasia":"USF MURAJA"},{"no_logradouro":"LOCALIDADE DE MURAJA"},{"nu_endereco":"11"},{"no_bairro":"ZONA RURAL"},{"nu_telefone":"0913722 - 1236"},{"co_cep":"68750000"},{"uf":"PA"},{"cidade":"Curuçá"},{"ano_ubs_det":"2016"},{"mes_ubs_det":"5"}],"geometry":{"type":"Point","coordinates":[-47.851265085935,-0.73249551]}},{"type":"Feature","properties":[{"gid":"3280"},{"co_cnes":"2328941"},{"lat":"-8.28097701072669"},{"long":"-49.2783379554734"},{"no_fantasia":"ESTRATEGIA DE SAUDE DA FAMILIA ARENALDO P DE MIRANDA"},{"no_logradouro":"RUA 40"},{"nu_endereco":"S/N"},{"no_bairro":"VILA CRUZEIRO"},{"nu_telefone":"(91) 4212166"},{"co_cep":"68540000"},{"uf":"PA"},{"cidade":"Conceição do Araguaia"},{"ano_ubs_det":"2016"},{"mes_ubs_det":"5"}],"geometry":{"type":"Point","coordinates":[-49.278337955473,-8.2809770107267]}},{"type":"Feature","properties":[{"gid":"3239"},{"co_cnes":"2316056"},{"lat":"-0.728264510068784"},{"long":"-48.5123687982559"},{"no_fantasia":"CENTRO DE SAUDE DE SOURE"},{"no_logradouro":"TRAVESSA 13 ENTRE 8 E 9 RUAS"},{"nu_endereco":"1038"},{"no_bairro":"MATINHA"},{"nu_telefone":"(91)37411275"},{"co_cep":"68870000"},{"uf":"PA"},{"cidade":"Soure"},{"ano_ubs_det":"2016"},{"mes_ubs_det":"5"}],"geometry":{"type":"Point","coordinates":[-48.512368798256,-0.72826451006878]}},{"type":"Feature","properties":[{"gid":"3526"},{"co_cnes":"5548535"},{"lat":"-0.855532573667763"},{"long":"-48.1414985852069"},{"no_fantasia":"UNIDADE DE SAUDE DA FAMILIA DE SANTA RITA E NOVO HORIZONTE"},{"no_logradouro":"RUA JOAO PAULO II"},{"nu_endereco":"S/N"},{"no_bairro":"NOVO HORIZONTE"},{"nu_telefone":""},{"co_cep":"68780000"},{"uf":"PA"},{"cidade":"Vigia"},{"ano_ubs_det":"2016"},{"mes_ubs_det":"5"}],"geometry":{"type":"Point","coordinates":[-48.141498585207,-0.85553257366776]}},{"type":"Feature","properties":[{"gid":"3230"},{"co_cnes":"5462940"},{"lat":"-0.780662298202492"},{"long":"-47.834901809691"},{"no_fantasia":"USF BOA VISTA DE IRIRITEUA"},{"no_logradouro":"LOCALIDADE DE BOA VISTA DE IRIRITEUA"},{"nu_endereco":"11"},{"no_bairro":"ZONA RURAL"},{"nu_telefone":"0913722 - 1236"},{"co_cep":"68750000"},{"uf":"PA"},{"cidade":"Curuçá"},{"ano_ubs_det":"2016"},{"mes_ubs_det":"5"}],"geometry":{"type":"Point","coordinates":[-47.834901809691,-0.78066229820249]}},{"type":"Feature","properties":[{"gid":"3644"},{"co_cnes":"3030644"},{"lat":"-1.76570832049692"},{"long":"-55.8600175380707"},{"no_fantasia":"UNIDADE BASICA DE SAUDE DR LAURO CORREA PINTO"},{"no_logradouro":"RUA LAURO SODRE"},{"nu_endereco":"2506"},{"no_bairro":"PERPETUO SOCORRO"},{"nu_telefone":"93 3544-2136"},{"co_cep":"68270000"},{"uf":"PA"},{"cidade":"Oriximiná"},{"ano_ubs_det":"2016"},{"mes_ubs_det":"5"}],"geometry":{"type":"Point","coordinates":[-55.860017538071,-1.7657083204969]}},{"type":"Feature","properties":[{"gid":"3974"},{"co_cnes":"2318571"},{"lat":"-1.51546955108638"},{"long":"-48.6249089241014"},{"no_fantasia":"U B S PEDREIRA"},{"no_logradouro":"TV FRANCISCO DE OLIVEIRA DIAS"},{"nu_endereco":"S/N"},{"no_bairro":"PEDREIRA"},{"nu_telefone":"91 992301853"},{"co_cep":"68445000"},{"uf":"PA"},{"cidade":"Barcarena"},{"ano_ubs_det":"2016"},{"mes_ubs_det":"5"}],"geometry":{"type":"Point","coordinates":[-48.624908924101,-1.5154695510864]}},{"type":"Feature","properties":[{"gid":"3666"},{"co_cnes":"2317907"},{"lat":"-1.46876692771907"},{"long":"-48.0192017555223"},{"no_fantasia":"UNIDADE SAUDE DA FAMILIA DE PERNAMBUCO"},{"no_logradouro":"VILA DE PERNAMBUCO"},{"nu_endereco":"S/N"},{"no_bairro":"ZONA RURAL"},{"nu_telefone":""},{"co_cep":"68770000"},{"uf":"PA"},{"cidade":"Inhangapi"},{"ano_ubs_det":"2016"},{"mes_ubs_det":"5"}],"geometry":{"type":"Point","coordinates":[-48.019201755522,-1.4687669277191]}},{"type":"Feature","properties":[{"gid":"3952"},{"co_cnes":"3438260"},{"lat":"-1.36838793754574"},{"long":"-48.4218978881822"},{"no_fantasia":"CENTRO DE SAUDE DO COQUEIRO"},{"no_logradouro":"ROD MARIO COVAS"},{"nu_endereco":"01"},{"no_bairro":"COQUEIRO"},{"nu_telefone":""},{"co_cep":"67145130"},{"uf":"PA"},{"cidade":"Ananindeua"},{"ano_ubs_det":"2016"},{"mes_ubs_det":"5"}],"geometry":{"type":"Point","coordinates":[-48.421897888182,-1.3683879375457]}},{"type":"Feature","properties":[{"gid":"3652"},{"co_cnes":"2615622"},{"lat":"-1.30911111831661"},{"long":"-47.9241228103624"},{"no_fantasia":"USF MOACIR NOGUEIRA LIMA"},{"no_logradouro":"TV MAXIMINO PORPINO"},{"nu_endereco":"S/N"},{"no_bairro":"CARIRI"},{"nu_telefone":""},{"co_cep":"68745000"},{"uf":"PA"},{"cidade":"Castanhal"},{"ano_ubs_det":"2016"},{"mes_ubs_det":"5"}],"geometry":{"type":"Point","coordinates":[-47.924122810362,-1.3091111183166]}},{"type":"Feature","properties":[{"gid":"3721"},{"co_cnes":"2678608"},{"lat":"-2.12937601319444"},{"long":"-47.5561746036128"},{"no_fantasia":"ESF JOSE SOARES DAMASCENO"},{"no_logradouro":"RUA DO CAJUEIRO"},{"nu_endereco":"S/N"},{"no_bairro":"VILA NOVA"},{"nu_telefone":""},{"co_cep":"68658000"},{"uf":"PA"},{"cidade":"Aurora do Pará"},{"ano_ubs_det":"2016"},{"mes_ubs_det":"5"}],"geometry":{"type":"Point","coordinates":[-47.556174603613,-2.1293760131944]}},{"type":"Feature","properties":[{"gid":"3671"},{"co_cnes":"6813720"},{"lat":"-2.97672629356376"},{"long":"-47.3416757583604"},{"no_fantasia":"U E S F MORADA DO SOL"},{"no_logradouro":"PRACA MORADA DO SOL"},{"nu_endereco":"001"},{"no_bairro":"MORADA DO SOL"},{"nu_telefone":""},{"co_cep":"68625970"},{"uf":"PA"},{"cidade":"Paragominas"},{"ano_ubs_det":"2016"},{"mes_ubs_det":"5"}],"geometry":{"type":"Point","coordinates":[-47.34167575836,-2.9767262935638]}},{"type":"Feature","properties":[{"gid":"3663"},{"co_cnes":"2316595"},{"lat":"-1.00441"},{"long":"-48.95735"},{"no_fantasia":"POSTO DE SAUDE DE JAUACA"},{"no_logradouro":"VIL DE JAUACA"},{"nu_endereco":"S/N"},{"no_bairro":"JAUACA"},{"nu_telefone":""},{"co_cep":"68840000"},{"uf":"PA"},{"cidade":"Cachoeira do Arari"},{"ano_ubs_det":"2016"},{"mes_ubs_det":"5"}],"geometry":{"type":"Point","coordinates":[-48.95735,-1.00441]}},{"type":"Feature","properties":[{"gid":"3629"},{"co_cnes":"2677113"},{"lat":"-2.5943720340728"},{"long":"-49.5099949836717"},{"no_fantasia":"UNIDADE DE SAUDE DA FAMILIA DA VILA MONTE ALEGRE"},{"no_logradouro":"VILA MONTE ALEGRE"},{"nu_endereco":"S/N"},{"no_bairro":"MONTE ALEGRE"},{"nu_telefone":"(91)37961104"},{"co_cep":"68420000"},{"uf":"PA"},{"cidade":"Mocajuba"},{"ano_ubs_det":"2016"},{"mes_ubs_det":"5"}],"geometry":{"type":"Point","coordinates":[-49.509994983672,-2.5943720340728]}},{"type":"Feature","properties":[{"gid":"3678"},{"co_cnes":"5132223"},{"lat":"-1.06878519058224"},{"long":"-47.3736691474901"},{"no_fantasia":"USF VILA DA CURVA"},{"no_logradouro":"VILA DA CURVA"},{"nu_endereco":"S/N"},{"no_bairro":"ZONA RURAL"},{"nu_telefone":"(91) 3856-3009"},{"co_cep":"68730000"},{"uf":"PA"},{"cidade":"Nova Timboteua"},{"ano_ubs_det":"2016"},{"mes_ubs_det":"5"}],"geometry":{"type":"Point","coordinates":[-47.37366914749,-1.0687851905822]}},{"type":"Feature","properties":[{"gid":"3760"},{"co_cnes":"2330873"},{"lat":"-3.86307835578907"},{"long":"-50.4474592208848"},{"no_fantasia":"UNIDADE DE SAUDE DA FAMILIA VILA ARATAU"},{"no_logradouro":"AV TRANSAMAZONICA"},{"nu_endereco":"S/N"},{"no_bairro":"CENTRO ARATAU"},{"nu_telefone":"(91)7981140"},{"co_cep":"68485000"},{"uf":"PA"},{"cidade":"Pacajá"},{"ano_ubs_det":"2016"},{"mes_ubs_det":"5"}],"geometry":{"type":"Point","coordinates":[-50.447459220885,-3.8630783557891]}},{"type":"Feature","properties":[{"gid":"3713"},{"co_cnes":"2615959"},{"lat":"-7.81110653689927"},{"long":"-50.771578377513"},{"no_fantasia":"UNIDADE DE SAUDE DA FAMILIA II MATA VERDE"},{"no_logradouro":"COLONIA MATA VERDE"},{"nu_endereco":"S/N"},{"no_bairro":"ZONA RURAL"},{"nu_telefone":"94-3309-1266"},{"co_cep":"68398000"},{"uf":"PA"},{"cidade":"Cumaru do Norte"},{"ano_ubs_det":"2016"},{"mes_ubs_det":"5"}],"geometry":{"type":"Point","coordinates":[-50.771578377513,-7.8111065368993]}},{"type":"Feature","properties":[{"gid":"3997"},{"co_cnes":"2337363"},{"lat":"-1.37222886085506"},{"long":"-48.4333133697496"},{"no_fantasia":"UNIDADE MUNICIPAL DE SAUDE DA CABANAGEM"},{"no_logradouro":"RUA SAO PAULO"},{"nu_endereco":"S/N"},{"no_bairro":"CABANAGEM"},{"nu_telefone":"91 32483844"},{"co_cep":"66035060"},{"uf":"PA"},{"cidade":"Belém"},{"ano_ubs_det":"2016"},{"mes_ubs_det":"5"}],"geometry":{"type":"Point","coordinates":[-48.43331336975,-1.3722288608551]}},{"type":"Feature","properties":[{"gid":"3639"},{"co_cnes":"2329670"},{"lat":"-9.23012495040867"},{"long":"-50.2119398117051"},{"no_fantasia":"ESTRATEGIA DE SAUDE DA FAMILIA SANTANA CONCEICAO PULGAS"},{"no_logradouro":"AV PRINCIPAL"},{"nu_endereco":"S/N"},{"no_bairro":"NOVA BARREIRA"},{"nu_telefone":""},{"co_cep":"68560000"},{"uf":"PA"},{"cidade":"Santana do Araguaia"},{"ano_ubs_det":"2016"},{"mes_ubs_det":"5"}],"geometry":{"type":"Point","coordinates":[-50.211939811705,-9.2301249504087]}},{"type":"Feature","properties":[{"gid":"4160"},{"co_cnes":"6027695"},{"lat":"-1.64962291717525"},{"long":"-47.3780035972581"},{"no_fantasia":"USF SAO JOSE DO PATAUATEUA"},{"no_logradouro":"COMUNIDADE SAO JOSE DO PATAUATEUA"},{"nu_endereco":"S/N"},{"no_bairro":"ZONA RURAL"},{"nu_telefone":""},{"co_cep":"68655000"},{"uf":"PA"},{"cidade":"Irituia"},{"ano_ubs_det":"2016"},{"mes_ubs_det":"5"}],"geometry":{"type":"Point","coordinates":[-47.378003597258,-1.6496229171752]}},{"type":"Feature","properties":[{"gid":"4275"},{"co_cnes":"2677016"},{"lat":"-0.980873107910128"},{"long":"-47.0377707481371"},{"no_fantasia":"UNIDADE SAUDE DA FAMILIA DE CUMARU"},{"no_logradouro":"VILA DE CUMARU"},{"nu_endereco":"S/N"},{"no_bairro":"CENTRO"},{"nu_telefone":"(91)38222091"},{"co_cep":"68709000"},{"uf":"PA"},{"cidade":"Quatipuru"},{"ano_ubs_det":"2016"},{"mes_ubs_det":"5"}],"geometry":{"type":"Point","coordinates":[-47.037770748137,-0.98087310791013]}},{"type":"Feature","properties":[{"gid":"4101"},{"co_cnes":"2652498"},{"lat":"-1.60530209541316"},{"long":"-54.091207981108"},{"no_fantasia":"UNIDADE DE SAUDE DA FAMILIA DO KM 11"},{"no_logradouro":"RODOVIA PA 254"},{"nu_endereco":"S/N"},{"no_bairro":"ZONA RURAL"},{"nu_telefone":""},{"co_cep":"68220000"},{"uf":"PA"},{"cidade":"Monte Alegre"},{"ano_ubs_det":"2016"},{"mes_ubs_det":"5"}],"geometry":{"type":"Point","coordinates":[-54.091207981108,-1.6053020954132]}},{"type":"Feature","properties":[{"gid":"4230"},{"co_cnes":"2317508"},{"lat":"-1.62296175956721"},{"long":"-47.4828243255601"},{"no_fantasia":"UNIDADE BASICA DE SAUDE"},{"no_logradouro":"AV TANCRECDO NEVES"},{"nu_endereco":"S/N"},{"no_bairro":"CENTRO"},{"nu_telefone":"983295963"},{"co_cep":"68660000"},{"uf":"PA"},{"cidade":"São Miguel do Guamá"},{"ano_ubs_det":"2016"},{"mes_ubs_det":"5"}],"geometry":{"type":"Point","coordinates":[-47.48282432556,-1.6229617595672]}},{"type":"Feature","properties":[{"gid":"4103"},{"co_cnes":"5925622"},{"lat":"-2.20750093460077"},{"long":"-47.0227932929979"},{"no_fantasia":"P S BOM FUTURO"},{"no_logradouro":"VILA BOM FUTURO"},{"nu_endereco":"S/N"},{"no_bairro":"VILA"},{"nu_telefone":""},{"co_cep":"68665000"},{"uf":"PA"},{"cidade":"Garrafão do Norte"},{"ano_ubs_det":"2016"},{"mes_ubs_det":"5"}],"geometry":{"type":"Point","coordinates":[-47.022793292998,-2.2075009346008]}},{"type":"Feature","properties":[{"gid":"4367"},{"co_cnes":"2621673"},{"lat":"-2.34638405693153"},{"long":"-55.46799659729"},{"no_fantasia":"CENTRO DE SAUDE DE PAISSANDU"},{"no_logradouro":"LAGO GRANDE"},{"nu_endereco":"S/N"},{"no_bairro":"LAGO GRANDE"},{"nu_telefone":"(93)5232868"},{"co_cep":"68005270"},{"uf":"PA"},{"cidade":"Santarém"},{"ano_ubs_det":"2016"},{"mes_ubs_det":"5"}],"geometry":{"type":"Point","coordinates":[-55.46799659729,-2.3463840569315]}},{"type":"Feature","properties":[{"gid":"4042"},{"co_cnes":"3717542"},{"lat":"-1.28861904144283"},{"long":"-47.9491424560533"},{"no_fantasia":"USF ELADIO DE MOURA MELO"},{"no_logradouro":"RUA SANTA IZABEL"},{"nu_endereco":"S/N"},{"no_bairro":"SANTA HELENA"},{"nu_telefone":""},{"co_cep":"68745000"},{"uf":"PA"},{"cidade":"Castanhal"},{"ano_ubs_det":"2016"},{"mes_ubs_det":"5"}],"geometry":{"type":"Point","coordinates":[-47.949142456053,-1.2886190414428]}},{"type":"Feature","properties":[{"gid":"4739"},{"co_cnes":"2330415"},{"lat":"-3.20565951"},{"long":"-52.2143763052078"},{"no_fantasia":"UNIDADE DE SAUDE DA FAMILIA APARECIDA"},{"no_logradouro":"RUA ABEL FIGUEIREDO"},{"nu_endereco":"S/N"},{"no_bairro":"APARECIDA"},{"nu_telefone":"(93)35152297"},{"co_cep":"68371970"},{"uf":"PA"},{"cidade":"Altamira"},{"ano_ubs_det":"2016"},{"mes_ubs_det":"5"}],"geometry":{"type":"Point","coordinates":[-52.214376305208,-3.20565951]}},{"type":"Feature","properties":[{"gid":"4567"},{"co_cnes":"2319039"},{"lat":"-2.997121810913"},{"long":"-47.3791837692247"},{"no_fantasia":"U E S F JADERLANDIA"},{"no_logradouro":"R STO ANTONIO"},{"nu_endereco":"S/N"},{"no_bairro":"JADERLANDIA"},{"nu_telefone":""},{"co_cep":"68625970"},{"uf":"PA"},{"cidade":"Paragominas"},{"ano_ubs_det":"2016"},{"mes_ubs_det":"5"}],"geometry":{"type":"Point","coordinates":[-47.379183769225,-2.997121810913]}},{"type":"Feature","properties":[{"gid":"4492"},{"co_cnes":"7191898"},{"lat":"-4.26482943698848"},{"long":"-55.9898632764816"},{"no_fantasia":"UNIDADE BASICA DE SAUDE BELA VISTA"},{"no_logradouro":"TRAVESSA QUINZE DE AGOSTO"},{"nu_endereco":"S/N"},{"no_bairro":"BELA VISTA"},{"nu_telefone":""},{"co_cep":"68181000"},{"uf":"PA"},{"cidade":"Itaituba"},{"ano_ubs_det":"2016"},{"mes_ubs_det":"5"}],"geometry":{"type":"Point","coordinates":[-55.989863276482,-4.2648294369885]}},{"type":"Feature","properties":[{"gid":"4421"},{"co_cnes":"2676087"},{"lat":"-1.4978631"},{"long":"-46.9240981"},{"no_fantasia":"CENTRO DE SAUDE DE SANTA LUZIA DO PARA"},{"no_logradouro":"TV JOAO COELHO"},{"nu_endereco":"S/N"},{"no_bairro":"CENTRO"},{"nu_telefone":""},{"co_cep":"68644000"},{"uf":"PA"},{"cidade":"Santa Luzia do Pará"},{"ano_ubs_det":"2016"},{"mes_ubs_det":"5"}],"geometry":{"type":"Point","coordinates":[-46.9240981,-1.4978631]}},{"type":"Feature","properties":[{"gid":"4586"},{"co_cnes":"2695219"},{"lat":"-1.40100359916683"},{"long":"-48.4348154067979"},{"no_fantasia":"UNIDADE MUNICIPAL DE SAUDE DA MARAMBAIA"},{"no_logradouro":"ROD AUGUSTO MONTENEGRO"},{"nu_endereco":"S/N"},{"no_bairro":"MARAMBAIA"},{"nu_telefone":"(91)3231-0035"},{"co_cep":"66623590"},{"uf":"PA"},{"cidade":"Belém"},{"ano_ubs_det":"2016"},{"mes_ubs_det":"5"}],"geometry":{"type":"Point","coordinates":[-48.434815406798,-1.4010035991668]}},{"type":"Feature","properties":[{"gid":"4538"},{"co_cnes":"7559933"},{"lat":"-1.39120663857676"},{"long":"-48.8696615777015"},{"no_fantasia":"UNIDADE BASICA DE SAUDE DA FAMILIA DOM ANGELO MARIA RIVATO"},{"no_logradouro":"RUA LAURO SODRE SODRE"},{"nu_endereco":"001"},{"no_bairro":"CENTRO"},{"nu_telefone":"37771104"},{"co_cep":"68830000"},{"uf":"PA"},{"cidade":"Ponta de Pedras"},{"ano_ubs_det":"2016"},{"mes_ubs_det":"5"}],"geometry":{"type":"Point","coordinates":[-48.869661577702,-1.3912066385768]}},{"type":"Feature","properties":[{"gid":"4502"},{"co_cnes":"7325703"},{"lat":"-2.04452503898222"},{"long":"-47.5651064515114"},{"no_fantasia":"UNIDADE DE SAUDE DA FAMILIA POCIANO CISTO CARVALHO"},{"no_logradouro":"RUA MAE DO RIO"},{"nu_endereco":"S/N"},{"no_bairro":"SALES COSTA"},{"nu_telefone":""},{"co_cep":"68675000"},{"uf":"PA"},{"cidade":"Mãe do Rio"},{"ano_ubs_det":"2016"},{"mes_ubs_det":"5"}],"geometry":{"type":"Point","coordinates":[-47.565106451511,-2.0445250389822]}},{"type":"Feature","properties":[{"gid":"4579"},{"co_cnes":"6666531"},{"lat":"-7.56895780563332"},{"long":"-49.7044444084153"},{"no_fantasia":"ESTRATEGIA DE SAUDE DA FAMILIA SETOR BANANAL"},{"no_logradouro":"AV 1 DE MAIO"},{"nu_endereco":"4545"},{"no_bairro":"BANANAL"},{"nu_telefone":"94 34321621"},{"co_cep":"68543000"},{"uf":"PA"},{"cidade":"Floresta do Araguaia"},{"ano_ubs_det":"2016"},{"mes_ubs_det":"5"}],"geometry":{"type":"Point","coordinates":[-49.704444408415,-7.5689578056333]}},{"type":"Feature","properties":[{"gid":"4632"},{"co_cnes":"2678519"},{"lat":"-4.00905752986818"},{"long":"-49.4646492018364"},{"no_fantasia":"UNIDADE SAUDE DA FAMILIA DO NOVO HORIZONTE"},{"no_logradouro":"AV PARANA"},{"nu_endereco":"999"},{"no_bairro":"NOVO HORIZONTE"},{"nu_telefone":"(94)3786-0788"},{"co_cep":"68488000"},{"uf":"PA"},{"cidade":"Breu Branco"},{"ano_ubs_det":"2016"},{"mes_ubs_det":"5"}],"geometry":{"type":"Point","coordinates":[-49.464649201836,-4.0090575298682]}},{"type":"Feature","properties":[{"gid":"4401"},{"co_cnes":"7520735"},{"lat":"-1.0632942"},{"long":"-46.7708252"},{"no_fantasia":"UNIDADE DE SAUDE DA FAMILIA DO ALEGRE"},{"no_logradouro":"RUA AUGUSTO MONTENEGRO"},{"nu_endereco":"S/N"},{"no_bairro":"ALEGRE"},{"nu_telefone":""},{"co_cep":"68600000"},{"uf":"PA"},{"cidade":"Bragança"},{"ano_ubs_det":"2016"},{"mes_ubs_det":"5"}],"geometry":{"type":"Point","coordinates":[-46.7708252,-1.0632942]}},{"type":"Feature","properties":[{"gid":"4783"},{"co_cnes":"2676419"},{"lat":"-0.689198970794658"},{"long":"-47.3059701919542"},{"no_fantasia":"USF COREMA"},{"no_logradouro":"VILA DE COREMAS"},{"nu_endereco":"S/N"},{"no_bairro":"CENTRO"},{"nu_telefone":"(91)3851259"},{"co_cep":"68721000"},{"uf":"PA"},{"cidade":"Salinópolis"},{"ano_ubs_det":"2016"},{"mes_ubs_det":"5"}],"geometry":{"type":"Point","coordinates":[-47.305970191954,-0.68919897079466]}},{"type":"Feature","properties":[{"gid":"4781"},{"co_cnes":"2319020"},{"lat":"-3.01669120788565"},{"long":"-47.3566746711717"},{"no_fantasia":"U E S F JARDIM ATLANTICO"},{"no_logradouro":"R CARLOS CHAGAS"},{"nu_endereco":"S/N"},{"no_bairro":"JARDIM ATLANTICO"},{"nu_telefone":""},{"co_cep":"68625050"},{"uf":"PA"},{"cidade":"Paragominas"},{"ano_ubs_det":"2016"},{"mes_ubs_det":"5"}],"geometry":{"type":"Point","coordinates":[-47.356674671172,-3.0166912078856]}},{"type":"Feature","properties":[{"gid":"4589"},{"co_cnes":"2314533"},{"lat":"-1.29320025444027"},{"long":"-48.1618309020982"},{"no_fantasia":"CENTRO DE SAUDE DE SANTA IZABEL"},{"no_logradouro":"RUA JOAO COELHO"},{"nu_endereco":"1200"},{"no_bairro":"CENTRO"},{"nu_telefone":"(91)37441235"},{"co_cep":"68790000"},{"uf":"PA"},{"cidade":"Santa Izabel do Pará"},{"ano_ubs_det":"2016"},{"mes_ubs_det":"5"}],"geometry":{"type":"Point","coordinates":[-48.161830902098,-1.2932002544403]}},{"type":"Feature","properties":[{"gid":"4627"},{"co_cnes":"2312026"},{"lat":"-0.853736400604223"},{"long":"-47.9234147071824"},{"no_fantasia":"CENTRO DE SAUDE ESPECIAL DE SAO JOAO DA PONTA"},{"no_logradouro":"RODOVIA PA 375"},{"nu_endereco":"421"},{"no_bairro":"CENTRO"},{"nu_telefone":"38281141"},{"co_cep":"68774000"},{"uf":"PA"},{"cidade":"São João da Ponta"},{"ano_ubs_det":"2016"},{"mes_ubs_det":"5"}],"geometry":{"type":"Point","coordinates":[-47.923414707182,-0.85373640060422]}},{"type":"Feature","properties":[{"gid":"4605"},{"co_cnes":"6309410"},{"lat":"-4.15008544921863"},{"long":"-50.2323889732346"},{"no_fantasia":"PSF GOV ALMIR GABRIEL DISTRITO DE MARACAJA"},{"no_logradouro":"ROD TRANSAMAZONICA"},{"nu_endereco":"212"},{"no_bairro":"ZONA RURAL"},{"nu_telefone":"9437851311"},{"co_cep":"68473000"},{"uf":"PA"},{"cidade":"Novo Repartimento"},{"ano_ubs_det":"2016"},{"mes_ubs_det":"5"}],"geometry":{"type":"Point","coordinates":[-50.232388973235,-4.1500854492186]}},{"type":"Feature","properties":[{"gid":"4646"},{"co_cnes":"6255809"},{"lat":"-2.0600021800195"},{"long":"-47.5529935956001"},{"no_fantasia":"UNIDADE DE SAUDE DA FAMILIA FRANCISCO FLOR FILHO"},{"no_logradouro":"COMUNIDADE DA PONTE NOVA"},{"nu_endereco":"S/N"},{"no_bairro":"ZONA RURAL"},{"nu_telefone":""},{"co_cep":"68675000"},{"uf":"PA"},{"cidade":"Mãe do Rio"},{"ano_ubs_det":"2016"},{"mes_ubs_det":"5"}],"geometry":{"type":"Point","coordinates":[-47.5529935956,-2.0600021800195]}},{"type":"Feature","properties":[{"gid":"4842"},{"co_cnes":"2331845"},{"lat":"-1.888"},{"long":"-55.117"},{"no_fantasia":"CENTRO DE SAUDE DE CURUA DR ALMIR GABRIEL"},{"no_logradouro":"AV 07 DE SETEMBRO"},{"nu_endereco":"S/N"},{"no_bairro":"PLANALTO"},{"nu_telefone":"(93) 35631259"},{"co_cep":"68210000"},{"uf":"PA"},{"cidade":"Curuá"},{"ano_ubs_det":"2016"},{"mes_ubs_det":"5"}],"geometry":{"type":"Point","coordinates":[-55.117,-1.888]}},{"type":"Feature","properties":[{"gid":"4863"},{"co_cnes":"2676958"},{"lat":"-0.991687774658174"},{"long":"-47.2109341621385"},{"no_fantasia":"ESF JABURU"},{"no_logradouro":"VILA DO JABURU"},{"nu_endereco":"S/N"},{"no_bairro":"CENTRO"},{"nu_telefone":"(91) 34811444"},{"co_cep":"68707000"},{"uf":"PA"},{"cidade":"Primavera"},{"ano_ubs_det":"2016"},{"mes_ubs_det":"5"}],"geometry":{"type":"Point","coordinates":[-47.210934162138,-0.99168777465817]}},{"type":"Feature","properties":[{"gid":"5115"},{"co_cnes":"6575005"},{"lat":"-1.75238370895381"},{"long":"-47.692615985869"},{"no_fantasia":"USF SAO JOAQUIM KM 13 PA 127"},{"no_logradouro":"COMUNIDADE SAO JOAQUIM KM 13 PA 127"},{"nu_endereco":"S/N"},{"no_bairro":"ZONA RURAL"},{"nu_telefone":""},{"co_cep":"68635000"},{"uf":"PA"},{"cidade":"São Domingos do Capim"},{"ano_ubs_det":"2016"},{"mes_ubs_det":"5"}],"geometry":{"type":"Point","coordinates":[-47.692615985869,-1.7523837089538]}},{"type":"Feature","properties":[{"gid":"4823"},{"co_cnes":"2331993"},{"lat":"-1.75851267583776"},{"long":"-55.8654516935349"},{"no_fantasia":"UNIDADE BASICA DE SAUDE NOSSA SENHORA DAS GRACAS"},{"no_logradouro":"TRAV SANTA LUZIA"},{"nu_endereco":"1535"},{"no_bairro":"NOSSA SRA DAS GRACAS"},{"nu_telefone":"93 3544-2322"},{"co_cep":"68270000"},{"uf":"PA"},{"cidade":"Oriximiná"},{"ano_ubs_det":"2016"},{"mes_ubs_det":"5"}],"geometry":{"type":"Point","coordinates":[-55.865451693535,-1.7585126758378]}},{"type":"Feature","properties":[{"gid":"5057"},{"co_cnes":"7114842"},{"lat":"-1.94718240132062"},{"long":"-50.8097290992737"},{"no_fantasia":"UNIDADE SAUDE DA FAMILIA CASTANHEIRA"},{"no_logradouro":"RUA 1 DE JANEIRO"},{"nu_endereco":"S/N"},{"no_bairro":"CASTANHEIRA"},{"nu_telefone":""},{"co_cep":"68480000"},{"uf":"PA"},{"cidade":"Portel"},{"ano_ubs_det":"2016"},{"mes_ubs_det":"5"}],"geometry":{"type":"Point","coordinates":[-50.809729099274,-1.9471824013206]}},{"type":"Feature","properties":[{"gid":"4809"},{"co_cnes":"2314673"},{"lat":"-1.20293855667111"},{"long":"-47.1895408630357"},{"no_fantasia":"UNIDADE DE SAUDE DA FAMILIA MARIA ROSA BATISTA DE SOUZA"},{"no_logradouro":"RUA BARAO DE CAPANEMA"},{"nu_endereco":"S/N"},{"no_bairro":"AREIA BRANCA"},{"nu_telefone":"(91)04622631"},{"co_cep":"68700005"},{"uf":"PA"},{"cidade":"Capanema"},{"ano_ubs_det":"2016"},{"mes_ubs_det":"5"}],"geometry":{"type":"Point","coordinates":[-47.189540863036,-1.2029385566711]}},{"type":"Feature","properties":[{"gid":"4858"},{"co_cnes":"6960936"},{"lat":"-1.91544055938715"},{"long":"-55.5146455764754"},{"no_fantasia":"UNIDADE DE SAUDE ZURAIA CONTI GALATI"},{"no_logradouro":"RUA ALMIRANTE BARROSO"},{"nu_endereco":"S/N"},{"no_bairro":"CENTRO"},{"nu_telefone":""},{"co_cep":"68250000"},{"uf":"PA"},{"cidade":"Óbidos"},{"ano_ubs_det":"2016"},{"mes_ubs_det":"5"}],"geometry":{"type":"Point","coordinates":[-55.514645576475,-1.9154405593871]}},{"type":"Feature","properties":[{"gid":"4893"},{"co_cnes":"4005570"},{"lat":"-1.72424"},{"long":"-48.88988"},{"no_fantasia":"UNIDADE SAUDE DA FAMILIA PONTILHAO"},{"no_logradouro":"PA 151 KM 15"},{"nu_endereco":"123"},{"no_bairro":"ZONA RURAL"},{"nu_telefone":""},{"co_cep":"68440000"},{"uf":"PA"},{"cidade":"Abaetetuba"},{"ano_ubs_det":"2016"},{"mes_ubs_det":"5"}],"geometry":{"type":"Point","coordinates":[-48.88988,-1.72424]}},{"type":"Feature","properties":[{"gid":"5200"},{"co_cnes":"2615118"},{"lat":"-2.9941905"},{"long":"-47.3569615610518"},{"no_fantasia":"U E S F URAIM II"},{"no_logradouro":"RUA MENESTRITE"},{"nu_endereco":"1"},{"no_bairro":"URAIM II"},{"nu_telefone":"(91)30110058"},{"co_cep":"68625970"},{"uf":"PA"},{"cidade":"Paragominas"},{"ano_ubs_det":"2016"},{"mes_ubs_det":"5"}],"geometry":{"type":"Point","coordinates":[-47.356961561052,-2.9941905]}},{"type":"Feature","properties":[{"gid":"4984"},{"co_cnes":"5377501"},{"lat":"-7.83679440397357"},{"long":"-50.0482755318998"},{"no_fantasia":"UNI DE SAUDE DA FAMILIA I M DAS DORES BEZERRA PAU D ARCO"},{"no_logradouro":"RUA DOIS"},{"nu_endereco":"S/N"},{"no_bairro":"SETOR PARAISO"},{"nu_telefone":"( 94 ) 3356 - 8255"},{"co_cep":"68545000"},{"uf":"PA"},{"cidade":"Pau D'Arco"},{"ano_ubs_det":"2016"},{"mes_ubs_det":"5"}],"geometry":{"type":"Point","coordinates":[-50.0482755319,-7.8367944039736]}},{"type":"Feature","properties":[{"gid":"5521"},{"co_cnes":"2329611"},{"lat":"-9.329424525"},{"long":"-50.344804321129"},{"no_fantasia":"ESTRATEGIA DE SAUDE DA FAMILIA SAO JOSE"},{"no_logradouro":"RUA ANTONIO A CARVALHO"},{"nu_endereco":"S/N"},{"no_bairro":"EXPANSAO"},{"nu_telefone":"(94)4311788"},{"co_cep":"68560000"},{"uf":"PA"},{"cidade":"Santana do Araguaia"},{"ano_ubs_det":"2016"},{"mes_ubs_det":"5"}],"geometry":{"type":"Point","coordinates":[-50.344804321129,-9.329424525]}},{"type":"Feature","properties":[{"gid":"5360"},{"co_cnes":"2616564"},{"lat":"-4.45316415243836"},{"long":"-49.1016957163811"},{"no_fantasia":"PSF ALTO PARAISO"},{"no_logradouro":"RUA ESPIRITO SANTO"},{"nu_endereco":"S/N"},{"no_bairro":"ALTO PARAISO"},{"nu_telefone":""},{"co_cep":"68590000"},{"uf":"PA"},{"cidade":"Jacundá"},{"ano_ubs_det":"2016"},{"mes_ubs_det":"5"}],"geometry":{"type":"Point","coordinates":[-49.101695716381,-4.4531641524384]}},{"type":"Feature","properties":[{"gid":"5378"},{"co_cnes":"2317184"},{"lat":"-1.76563382148738"},{"long":"-47.1781039237962"},{"no_fantasia":"USF VILA DE STA LUZIA"},{"no_logradouro":"VILA DE STA LUZIA"},{"nu_endereco":"S/N"},{"no_bairro":"VILA STA LUZIA"},{"nu_telefone":""},{"co_cep":"68650000"},{"uf":"PA"},{"cidade":"Capitão Poço"},{"ano_ubs_det":"2016"},{"mes_ubs_det":"5"}],"geometry":{"type":"Point","coordinates":[-47.178103923796,-1.7656338214874]}},{"type":"Feature","properties":[{"gid":"5422"},{"co_cnes":"2614243"},{"lat":"-5.03775"},{"long":"-49.85473"},{"no_fantasia":"POSTO DE SAUDE DA FAMILIA"},{"no_logradouro":"RUA GETULIO VARGAS"},{"nu_endereco":"S/N"},{"no_bairro":"BAIRRO NOVO"},{"nu_telefone":""},{"co_cep":"68580000"},{"uf":"PA"},{"cidade":"Itupiranga"},{"ano_ubs_det":"2016"},{"mes_ubs_det":"5"}],"geometry":{"type":"Point","coordinates":[-49.85473,-5.03775]}},{"type":"Feature","properties":[{"gid":"5338"},{"co_cnes":"2316781"},{"lat":"-2.155252995"},{"long":"-56.0949976884001"},{"no_fantasia":"UNIDADE DE SAUDE DA FAMILIA DO MARACANA"},{"no_logradouro":"TV RAIMUNDO EMIDIO SANTAREM"},{"nu_endereco":"S/N"},{"no_bairro":"MARACANA"},{"nu_telefone":"(93)35361257"},{"co_cep":"68170000"},{"uf":"PA"},{"cidade":"Juruti"},{"ano_ubs_det":"2016"},{"mes_ubs_det":"5"}],"geometry":{"type":"Point","coordinates":[-56.0949976884,-2.155252995]}},{"type":"Feature","properties":[{"gid":"5465"},{"co_cnes":"2619962"},{"lat":"-1.52733880276478"},{"long":"-52.5768350868127"},{"no_fantasia":"UNIDADE DE SAUDE FAMILIA DE BURITIZAL"},{"no_logradouro":"RUA ULISSES GUIMARAES"},{"nu_endereco":"S/N"},{"no_bairro":"BURITIZAL"},{"nu_telefone":"93-3737-1811"},{"co_cep":"68230000"},{"uf":"PA"},{"cidade":"Almeirim"},{"ano_ubs_det":"2016"},{"mes_ubs_det":"5"}],"geometry":{"type":"Point","coordinates":[-52.576835086813,-1.5273388027648]}},{"type":"Feature","properties":[{"gid":"5515"},{"co_cnes":"5545145"},{"lat":"-0.944105386733981"},{"long":"-47.1242451667772"},{"no_fantasia":"ESF LEITELANDIA"},{"no_logradouro":"TRAVESSA ORIVAL RAYOL"},{"nu_endereco":"S/N"},{"no_bairro":"LEITELANDIA"},{"nu_telefone":"(91) 34811444"},{"co_cep":"68707000"},{"uf":"PA"},{"cidade":"Primavera"},{"ano_ubs_det":"2016"},{"mes_ubs_det":"5"}],"geometry":{"type":"Point","coordinates":[-47.124245166777,-0.94410538673398]}},{"type":"Feature","properties":[{"gid":"5263"},{"co_cnes":"5553326"},{"lat":"-3.7065285"},{"long":"-53.7370310504594"},{"no_fantasia":"CENTRO DE SAUDE DA FAMILIA JOSE IVO KOHNLEIN"},{"no_logradouro":"RUA ANA MARIA DE JESUS"},{"nu_endereco":"S/N"},{"no_bairro":"VILA BRASIL"},{"nu_telefone":""},{"co_cep":"68140000"},{"uf":"PA"},{"cidade":"Uruará"},{"ano_ubs_det":"2016"},{"mes_ubs_det":"5"}],"geometry":{"type":"Point","coordinates":[-53.737031050459,-3.7065285]}},{"type":"Feature","properties":[{"gid":"5238"},{"co_cnes":"2328887"},{"lat":"-1.35105893234911"},{"long":"-48.4119380922318"},{"no_fantasia":"U B S E REFERENCIA SECUNDARIA DR CARLOS G P DA SILVA"},{"no_logradouro":"CONJUNTO C NOVA VIII WE 53"},{"nu_endereco":"S/N"},{"no_bairro":"COQUEIRO"},{"nu_telefone":"(91)2630779"},{"co_cep":"67125000"},{"uf":"PA"},{"cidade":"Ananindeua"},{"ano_ubs_det":"2016"},{"mes_ubs_det":"5"}],"geometry":{"type":"Point","coordinates":[-48.411938092232,-1.3510589323491]}},{"type":"Feature","properties":[{"gid":"5449"},{"co_cnes":"2677180"},{"lat":"-7.7268326282499"},{"long":"-55.2059340476974"},{"no_fantasia":"UNIDADE DE SAUDE DA FAMILIA DA VILA ISOL"},{"no_logradouro":"BR 163 KM 1000"},{"nu_endereco":"S/N"},{"no_bairro":"ZONA RURAL"},{"nu_telefone":""},{"co_cep":"68193000"},{"uf":"PA"},{"cidade":"Novo Progresso"},{"ano_ubs_det":"2016"},{"mes_ubs_det":"5"}],"geometry":{"type":"Point","coordinates":[-55.205934047697,-7.7268326282499]}},{"type":"Feature","properties":[{"gid":"5366"},{"co_cnes":"2312646"},{"lat":"-5.04180192947373"},{"long":"-50.6040787696824"},{"no_fantasia":"PSF MANOEL MATIAS DISTRITO DE VITORIA DA CONQUISTA"},{"no_logradouro":"TRAVESSA PRINCIPAL"},{"nu_endereco":"S/N"},{"no_bairro":"ZONA RURAL"},{"nu_telefone":"(94)37851150"},{"co_cep":"68473000"},{"uf":"PA"},{"cidade":"Novo Repartimento"},{"ano_ubs_det":"2016"},{"mes_ubs_det":"5"}],"geometry":{"type":"Point","coordinates":[-50.604078769682,-5.0418019294737]}},{"type":"Feature","properties":[{"gid":"5497"},{"co_cnes":"3776700"},{"lat":"-2.11061410938804"},{"long":"-56.663703918457"},{"no_fantasia":"UNIDADE BASICA DE SAUDE DR IVALDO MORAES SOUZA"},{"no_logradouro":"RUA CEL PINTO RIBEIRO"},{"nu_endereco":"001"},{"no_bairro":"CENTRO"},{"nu_telefone":"093 35571155"},{"co_cep":"68280000"},{"uf":"PA"},{"cidade":"Faro"},{"ano_ubs_det":"2016"},{"mes_ubs_det":"5"}],"geometry":{"type":"Point","coordinates":[-56.663703918457,-2.110614109388]}},{"type":"Feature","properties":[{"gid":"5510"},{"co_cnes":"3420833"},{"lat":"-6.70688509941082"},{"long":"-50.1326107978806"},{"no_fantasia":"UNIDADE DE SAUDE DA FAMILIA II"},{"no_logradouro":"NOVA CANADA"},{"nu_endereco":"S/N"},{"no_bairro":"NOVA CANADA"},{"nu_telefone":""},{"co_cep":"68533000"},{"uf":"PA"},{"cidade":"Água Azul do Norte"},{"ano_ubs_det":"2016"},{"mes_ubs_det":"5"}],"geometry":{"type":"Point","coordinates":[-50.132610797881,-6.7068850994108]}},{"type":"Feature","properties":[{"gid":"5337"},{"co_cnes":"2329166"},{"lat":"-5.58383345603927"},{"long":"-48.2004332542405"},{"no_fantasia":"UNIDADE BASICA DE SAUDE SAO RAIMUNDO DO ARAGUAIA"},{"no_logradouro":"RUA PRINCIPAL"},{"nu_endereco":"200"},{"no_bairro":"CENTRO"},{"nu_telefone":""},{"co_cep":"68521000"},{"uf":"PA"},{"cidade":"Brejo Grande do Araguaia"},{"ano_ubs_det":"2016"},{"mes_ubs_det":"5"}],"geometry":{"type":"Point","coordinates":[-48.200433254241,-5.5838334560393]}},{"type":"Feature","properties":[{"gid":"5827"},{"co_cnes":"5925428"},{"lat":"-2.05811262130731"},{"long":"-47.0846772193895"},{"no_fantasia":"P S MAMORANA"},{"no_logradouro":"VILA MAMORANA"},{"nu_endereco":"S/N"},{"no_bairro":"VILA"},{"nu_telefone":""},{"co_cep":"68665000"},{"uf":"PA"},{"cidade":"Garrafão do Norte"},{"ano_ubs_det":"2016"},{"mes_ubs_det":"5"}],"geometry":{"type":"Point","coordinates":[-47.084677219389,-2.0581126213073]}},{"type":"Feature","properties":[{"gid":"5955"},{"co_cnes":"2616394"},{"lat":"-2.03725576400751"},{"long":"-47.7505946159349"},{"no_fantasia":"ESF BERNARDO DE OLIVEIRA PANTOJA"},{"no_logradouro":"VILA DE SANTANA DO CAPIM"},{"nu_endereco":"S/N"},{"no_bairro":"ZONA RURAL"},{"nu_telefone":""},{"co_cep":"68658000"},{"uf":"PA"},{"cidade":"Aurora do Pará"},{"ano_ubs_det":"2016"},{"mes_ubs_det":"5"}],"geometry":{"type":"Point","coordinates":[-47.750594615935,-2.0372557640075]}},{"type":"Feature","properties":[{"gid":"5850"},{"co_cnes":"7854"},{"lat":"-1.05642557144162"},{"long":"-47.8801345825181"},{"no_fantasia":"POSTO DE SAUDE HILARIO DOS REIS E SILVA"},{"no_logradouro":"AGROVILA DE CAMPINAS"},{"nu_endereco":"S/N"},{"no_bairro":"AGROVILA DE CAMPINAS"},{"nu_telefone":""},{"co_cep":"68745000"},{"uf":"PA"},{"cidade":"Castanhal"},{"ano_ubs_det":"2016"},{"mes_ubs_det":"5"}],"geometry":{"type":"Point","coordinates":[-47.880134582518,-1.0564255714416]}},{"type":"Feature","properties":[{"gid":"5968"},{"co_cnes":"5467713"},{"lat":"-1.0015797615051"},{"long":"-47.5444078445421"},{"no_fantasia":"UNIDADE DE SAUDE DA FAMILIA DO KM 17"},{"no_logradouro":"PA 127 RODOVIA MARACANA IGARAPE ACU"},{"nu_endereco":"14"},{"no_bairro":"KM 17"},{"nu_telefone":""},{"co_cep":"68710000"},{"uf":"PA"},{"cidade":"Maracanã"},{"ano_ubs_det":"2016"},{"mes_ubs_det":"5"}],"geometry":{"type":"Point","coordinates":[-47.544407844542,-1.0015797615051]}},{"type":"Feature","properties":[{"gid":"5658"},{"co_cnes":"7429592"},{"lat":"-2.74916356763688"},{"long":"-49.7193785400391"},{"no_fantasia":"UBS JORGE BENCHIMOL"},{"no_logradouro":"TREVO PAMPELONIA"},{"nu_endereco":"S/N"},{"no_bairro":"RURAL"},{"nu_telefone":"37951156"},{"co_cep":"68465000"},{"uf":"PA"},{"cidade":"Baião"},{"ano_ubs_det":"2016"},{"mes_ubs_det":"5"}],"geometry":{"type":"Point","coordinates":[-49.719378540039,-2.7491635676369]}},{"type":"Feature","properties":[{"gid":"5938"},{"co_cnes":"2337312"},{"lat":"-1.456"},{"long":"-48.504"},{"no_fantasia":"UNIDADE MUNICIPAL DE SAUDE DA SACRAMENTA"},{"no_logradouro":"AVN SENADOR LEMOS"},{"nu_endereco":"S/N"},{"no_bairro":"SACRAMENTA"},{"nu_telefone":"(91)32336006"},{"co_cep":"66010000"},{"uf":"PA"},{"cidade":"Belém"},{"ano_ubs_det":"2016"},{"mes_ubs_det":"5"}],"geometry":{"type":"Point","coordinates":[-48.504,-1.456]}},{"type":"Feature","properties":[{"gid":"5900"},{"co_cnes":"7554982"},{"lat":"-0.8073282"},{"long":"-48.0083342"},{"no_fantasia":"UBS DE GUARAJUBA"},{"no_logradouro":"RUA PRINCIPAL"},{"nu_endereco":"S/N"},{"no_bairro":"GUARAJUBA"},{"nu_telefone":""},{"co_cep":"68774000"},{"uf":"PA"},{"cidade":"São João da Ponta"},{"ano_ubs_det":"2016"},{"mes_ubs_det":"5"}],"geometry":{"type":"Point","coordinates":[-48.0083342,-0.8073282]}},{"type":"Feature","properties":[{"gid":"5802"},{"co_cnes":"2615606"},{"lat":"-7.55870087237007"},{"long":"-49.6975784122373"},{"no_fantasia":"ESTRATEGIA DE SAUDE DA FAMILIA VILA AMETISTA"},{"no_logradouro":"RUA SETE DE SETEMBRO"},{"nu_endereco":"S/N"},{"no_bairro":"ZONA RURAL"},{"nu_telefone":"(94) 4321047"},{"co_cep":"68543000"},{"uf":"PA"},{"cidade":"Floresta do Araguaia"},{"ano_ubs_det":"2016"},{"mes_ubs_det":"5"}],"geometry":{"type":"Point","coordinates":[-49.697578412237,-7.5587008723701]}},{"type":"Feature","properties":[{"gid":"5901"},{"co_cnes":"2678667"},{"lat":"-1.05656504631039"},{"long":"-46.7665886878954"},{"no_fantasia":"CENTRO DE SAUDE MUNICIPAL RUTH N BRAGANCA"},{"no_logradouro":"AV NAZEAZENO FERREIRA"},{"nu_endereco":"S/N"},{"no_bairro":"CENTRO"},{"nu_telefone":""},{"co_cep":"68600000"},{"uf":"PA"},{"cidade":"Bragança"},{"ano_ubs_det":"2016"},{"mes_ubs_det":"5"}],"geometry":{"type":"Point","coordinates":[-46.766588687895,-1.0565650463104]}},{"type":"Feature","properties":[{"gid":"5996"},{"co_cnes":"2614766"},{"lat":"-5.35260576313025"},{"long":"-49.1420253334067"},{"no_fantasia":"UNIDADE PROGRAMA SAUDE DA FAMILIA JOAO BATISTA BEZERRA"},{"no_logradouro":"AV SILVINO SANTIS"},{"nu_endereco":"S/N"},{"no_bairro":"SANTA ROSA"},{"nu_telefone":""},{"co_cep":"68500060"},{"uf":"PA"},{"cidade":"Marabá"},{"ano_ubs_det":"2016"},{"mes_ubs_det":"5"}],"geometry":{"type":"Point","coordinates":[-49.142025333407,-5.3526057631303]}},{"type":"Feature","properties":[{"gid":"5963"},{"co_cnes":"2677687"},{"lat":"-1.77798709574397"},{"long":"-49.4946398315429"},{"no_fantasia":"POSTO DE SAUDE DE JUCARA"},{"no_logradouro":"ZONA RURAL"},{"nu_endereco":"S/N"},{"no_bairro":"ZONA RURAL"},{"nu_telefone":"(91)36361404"},{"co_cep":"68415000"},{"uf":"PA"},{"cidade":"Limoeiro do Ajuru"},{"ano_ubs_det":"2016"},{"mes_ubs_det":"5"}],"geometry":{"type":"Point","coordinates":[-49.494639831543,-1.777987095744]}},{"type":"Feature","properties":[{"gid":"5862"},{"co_cnes":"2673843"},{"lat":"-6.05156779289228"},{"long":"-49.8884868621812"},{"no_fantasia":"UNIDADE BASICA DE SAUDE ALTAMIRA"},{"no_logradouro":"AVENIDA PEDRO ALVARES CABRAL"},{"nu_endereco":"S/N"},{"no_bairro":"ALTAMIRA"},{"nu_telefone":"94 3346 8550"},{"co_cep":"68515000"},{"uf":"PA"},{"cidade":"Parauapebas"},{"ano_ubs_det":"2016"},{"mes_ubs_det":"5"}],"geometry":{"type":"Point","coordinates":[-49.888486862181,-6.0515677928923]}},{"type":"Feature","properties":[{"gid":"5651"},{"co_cnes":"2504960"},{"lat":"-6.64248327834078"},{"long":"-51.9937825239643"},{"no_fantasia":"UNIDADE SAUDE DA FAMILIA II CENTRO"},{"no_logradouro":"AVENIDA PIAUI"},{"nu_endereco":"851"},{"no_bairro":"SAO JOSE"},{"nu_telefone":""},{"co_cep":"68380000"},{"uf":"PA"},{"cidade":"São Félix do Xingu"},{"ano_ubs_det":"2016"},{"mes_ubs_det":"5"}],"geometry":{"type":"Point","coordinates":[-51.993782523964,-6.6424832783408]}},{"type":"Feature","properties":[{"gid":"5980"},{"co_cnes":"2330490"},{"lat":"-3.1947684288024"},{"long":"-52.2046494483933"},{"no_fantasia":"UNIDADE DE SAUDE DA FAMILIA BOA ESPERANCA"},{"no_logradouro":"RUA DA HARMONIA"},{"nu_endereco":"S/N"},{"no_bairro":"BOA ESPERANCA"},{"nu_telefone":"(91)5152297"},{"co_cep":"68371970"},{"uf":"PA"},{"cidade":"Altamira"},{"ano_ubs_det":"2016"},{"mes_ubs_det":"5"}],"geometry":{"type":"Point","coordinates":[-52.204649448393,-3.1947684288024]}},{"type":"Feature","properties":[{"gid":"5975"},{"co_cnes":"2318954"},{"lat":"-7.09694266319254"},{"long":"-49.95419025421"},{"no_fantasia":"UNIDADE DE ESF TANAKA"},{"no_logradouro":"RUA VALTER FERNANDES"},{"nu_endereco":"S/N"},{"no_bairro":"TANAKA II"},{"nu_telefone":"( )"},{"co_cep":"68556120"},{"uf":"PA"},{"cidade":"Xinguara"},{"ano_ubs_det":"2016"},{"mes_ubs_det":"5"}],"geometry":{"type":"Point","coordinates":[-49.95419025421,-7.0969426631925]}},{"type":"Feature","properties":[{"gid":"6004"},{"co_cnes":"2673851"},{"lat":"-6.08867883682233"},{"long":"-49.8665571212754"},{"no_fantasia":"UNIDADE BASICA DE SAUDE NOVO BRASIL"},{"no_logradouro":"RUA DA MANGUEIRA"},{"nu_endereco":"240"},{"no_bairro":"NOVO BRASIL"},{"nu_telefone":"94 3356 2386"},{"co_cep":"68515000"},{"uf":"PA"},{"cidade":"Parauapebas"},{"ano_ubs_det":"2016"},{"mes_ubs_det":"5"}],"geometry":{"type":"Point","coordinates":[-49.866557121275,-6.0886788368223]}},{"type":"Feature","properties":[{"gid":"6264"},{"co_cnes":"2311933"},{"lat":"-0.880483388900731"},{"long":"-47.6493573188768"},{"no_fantasia":"U S F DE MARUDAZINHO"},{"no_logradouro":"RUA NOSSA SENHORA DA CONCEICAO"},{"nu_endereco":"S/N"},{"no_bairro":"CENTRO"},{"nu_telefone":"91 937231388"},{"co_cep":"68760000"},{"uf":"PA"},{"cidade":"Marapanim"},{"ano_ubs_det":"2016"},{"mes_ubs_det":"5"}],"geometry":{"type":"Point","coordinates":[-47.649357318877,-0.88048338890073]}},{"type":"Feature","properties":[{"gid":"6051"},{"co_cnes":"2332434"},{"lat":"-1.84775383004448"},{"long":"-55.1919758319855"},{"no_fantasia":"UNIDADE BASICA DE SAUDE RISETE PINTO VENANCIO"},{"no_logradouro":"VILA IGARAPE ACU"},{"nu_endereco":"S/N"},{"no_bairro":"ZONA RURAL"},{"nu_telefone":""},{"co_cep":"68250000"},{"uf":"PA"},{"cidade":"Óbidos"},{"ano_ubs_det":"2016"},{"mes_ubs_det":"5"}],"geometry":{"type":"Point","coordinates":[-55.191975831985,-1.8477538300445]}},{"type":"Feature","properties":[{"gid":"6206"},{"co_cnes":"7546610"},{"lat":"-1.38519381170081"},{"long":"-48.4320795536041"},{"no_fantasia":"UNIDADE BASICA DE SAUDE UNA"},{"no_logradouro":"PASSAGEM IRACEMA"},{"nu_endereco":"00"},{"no_bairro":"UNA"},{"nu_telefone":""},{"co_cep":"67013224"},{"uf":"PA"},{"cidade":"Ananindeua"},{"ano_ubs_det":"2016"},{"mes_ubs_det":"5"}],"geometry":{"type":"Point","coordinates":[-48.432079553604,-1.3851938117008]}},{"type":"Feature","properties":[{"gid":"6354"},{"co_cnes":"2676494"},{"lat":"-1.35728359222408"},{"long":"-47.050902843474"},{"no_fantasia":"UNIDADE SAUDE DA FAMILIA ESTIVA"},{"no_logradouro":"ESTIVA GRANDE BR 316 KM 172"},{"nu_endereco":"S/N"},{"no_bairro":"CENTRO"},{"nu_telefone":"(91) 4451435"},{"co_cep":"68644000"},{"uf":"PA"},{"cidade":"Santa Luzia do Pará"},{"ano_ubs_det":"2016"},{"mes_ubs_det":"5"}],"geometry":{"type":"Point","coordinates":[-47.050902843474,-1.3572835922241]}},{"type":"Feature","properties":[{"gid":"6018"},{"co_cnes":"5467772"},{"lat":"-0.761810743625807"},{"long":"-47.4460029602051"},{"no_fantasia":"PS SANTA MARIA DO CARIPI"},{"no_logradouro":"RAMAL DE SANTA MARIA ENTRE PA127 E PA 395"},{"nu_endereco":"S/N"},{"no_bairro":"VILA SANTA MARIA DO"},{"nu_telefone":""},{"co_cep":"68710000"},{"uf":"PA"},{"cidade":"Maracanã"},{"ano_ubs_det":"2016"},{"mes_ubs_det":"5"}],"geometry":{"type":"Point","coordinates":[-47.446002960205,-0.76181074362581]}},{"type":"Feature","properties":[{"gid":"6292"},{"co_cnes":"2619695"},{"lat":"-1.42627000808712"},{"long":"-47.0901489257799"},{"no_fantasia":"UNIDADE DE SAUDE DA FAMILIA ANTONIA MIRANDA DOS SANTOS"},{"no_logradouro":"VILA DO RIO GRANDE"},{"nu_endereco":"S/N"},{"no_bairro":"RIO GRANDE"},{"nu_telefone":""},{"co_cep":"68640000"},{"uf":"PA"},{"cidade":"Ourém"},{"ano_ubs_det":"2016"},{"mes_ubs_det":"5"}],"geometry":{"type":"Point","coordinates":[-47.09014892578,-1.4262700080871]}},{"type":"Feature","properties":[{"gid":"6023"},{"co_cnes":"2615525"},{"lat":"-1.34841084480282"},{"long":"-47.5704574584947"},{"no_fantasia":"CENTRO DE SAUDE RAIMUNDO GONCALVES DA SILVA"},{"no_logradouro":"AV SANTA MARIA"},{"nu_endereco":"1490"},{"no_bairro":"MARAMBAIA"},{"nu_telefone":"(91)442 1116"},{"co_cep":"68738000"},{"uf":"PA"},{"cidade":"Santa Maria do Pará"},{"ano_ubs_det":"2016"},{"mes_ubs_det":"5"}],"geometry":{"type":"Point","coordinates":[-47.570457458495,-1.3484108448028]}},{"type":"Feature","properties":[{"gid":"6298"},{"co_cnes":"7040709"},{"lat":"-2.97697056292618"},{"long":"-47.3631923942566"},{"no_fantasia":"U E S F JUSCELINO KUBITCHEK"},{"no_logradouro":"RUA CASSIMIRO DE ABREU"},{"nu_endereco":"S/N"},{"no_bairro":"JUSCELINO KUBITSCHEK"},{"nu_telefone":""},{"co_cep":"68625970"},{"uf":"PA"},{"cidade":"Paragominas"},{"ano_ubs_det":"2016"},{"mes_ubs_det":"5"}],"geometry":{"type":"Point","coordinates":[-47.363192394257,-2.9769705629262]}},{"type":"Feature","properties":[{"gid":"6086"},{"co_cnes":"7935"},{"lat":"-1.43236398696895"},{"long":"-47.6783466339097"},{"no_fantasia":"POSTO DE SAUDE DE IRACEMA"},{"no_logradouro":"AGROVILA IRACEMA"},{"nu_endereco":"S/N"},{"no_bairro":"AGROVILA IRACEMA"},{"nu_telefone":""},{"co_cep":"68745000"},{"uf":"PA"},{"cidade":"Castanhal"},{"ano_ubs_det":"2016"},{"mes_ubs_det":"5"}],"geometry":{"type":"Point","coordinates":[-47.67834663391,-1.4323639869689]}},{"type":"Feature","properties":[{"gid":"6284"},{"co_cnes":"6750451"},{"lat":"-3.84481512260593"},{"long":"-50.6728506088257"},{"no_fantasia":"UNIDADE DE SAUDE DA FAMILIA DO KM 238"},{"no_logradouro":"ROD TRANSAMAZONICA KM 238"},{"nu_endereco":"S/N"},{"no_bairro":"ZONA RURAL"},{"nu_telefone":"91 37981899"},{"co_cep":"68485000"},{"uf":"PA"},{"cidade":"Pacajá"},{"ano_ubs_det":"2016"},{"mes_ubs_det":"5"}],"geometry":{"type":"Point","coordinates":[-50.672850608826,-3.8448151226059]}},{"type":"Feature","properties":[{"gid":"6634"},{"co_cnes":"2621975"},{"lat":"-2.29818146776547"},{"long":"-55.3369009494781"},{"no_fantasia":"CENTRO DE SAUDE DE INANU"},{"no_logradouro":"COMUNIDADE DE INANU"},{"nu_endereco":"S/N"},{"no_bairro":"LAGO GRANDE"},{"nu_telefone":"(93)5232868"},{"co_cep":"68005270"},{"uf":"PA"},{"cidade":"Santarém"},{"ano_ubs_det":"2016"},{"mes_ubs_det":"5"}],"geometry":{"type":"Point","coordinates":[-55.336900949478,-2.2981814677655]}},{"type":"Feature","properties":[{"gid":"6552"},{"co_cnes":"2318911"},{"lat":"-7.1011424"},{"long":"-49.9500594"},{"no_fantasia":"UNIDADE DE ESF MARIA DO SOCORRO"},{"no_logradouro":"R RIO GRANDE DO SUL ENTRE R MOGNO E R JOSUE P OLI"},{"nu_endereco":"116"},{"no_bairro":"ZONA RURAL"},{"nu_telefone":"( )"},{"co_cep":"68557280"},{"uf":"PA"},{"cidade":"Xinguara"},{"ano_ubs_det":"2016"},{"mes_ubs_det":"5"}],"geometry":{"type":"Point","coordinates":[-49.9500594,-7.1011424]}},{"type":"Feature","properties":[{"gid":"6738"},{"co_cnes":"6802877"},{"lat":"-1.36871356826945"},{"long":"-48.372066654168"},{"no_fantasia":"U S F DES PAULO FROTA"},{"no_logradouro":"CIDADE NOVA II SN 22"},{"nu_endereco":"000"},{"no_bairro":"COQUEIRO"},{"nu_telefone":""},{"co_cep":"67130440"},{"uf":"PA"},{"cidade":"Ananindeua"},{"ano_ubs_det":"2016"},{"mes_ubs_det":"5"}],"geometry":{"type":"Point","coordinates":[-48.372066654168,-1.3687135682695]}},{"type":"Feature","properties":[{"gid":"6410"},{"co_cnes":"2652447"},{"lat":"-1.94548130035395"},{"long":"-54.2156839370712"},{"no_fantasia":"UNIDADE DE SAUDE DA FAMILIA DA CANP"},{"no_logradouro":"COMUNIDADE CANP"},{"nu_endereco":"S/N"},{"no_bairro":"ZONA RURAL"},{"nu_telefone":""},{"co_cep":"68220000"},{"uf":"PA"},{"cidade":"Monte Alegre"},{"ano_ubs_det":"2016"},{"mes_ubs_det":"5"}],"geometry":{"type":"Point","coordinates":[-54.215683937071,-1.9454813003539]}},{"type":"Feature","properties":[{"gid":"6645"},{"co_cnes":"2312794"},{"lat":"-4.1359102921416"},{"long":"-49.4162356853485"},{"no_fantasia":"UBS JANARI"},{"no_logradouro":"COMUNIDADE JANARI"},{"nu_endereco":"S/N"},{"no_bairro":"ZONA RURAL"},{"nu_telefone":""},{"co_cep":"68639000"},{"uf":"PA"},{"cidade":"Goianésia do Pará"},{"ano_ubs_det":"2016"},{"mes_ubs_det":"5"}],"geometry":{"type":"Point","coordinates":[-49.416235685349,-4.1359102921416]}},{"type":"Feature","properties":[{"gid":"6683"},{"co_cnes":"5404258"},{"lat":"-2.8038222"},{"long":"-49.6717079"},{"no_fantasia":"U S F IZIDORO BRAGA"},{"no_logradouro":"TV SAO FRANCISCO"},{"nu_endereco":"419"},{"no_bairro":"SAO FRANCISCO"},{"nu_telefone":"9137951157"},{"co_cep":"68465000"},{"uf":"PA"},{"cidade":"Baião"},{"ano_ubs_det":"2016"},{"mes_ubs_det":"5"}],"geometry":{"type":"Point","coordinates":[-49.6717079,-2.8038222]}},{"type":"Feature","properties":[{"gid":"6602"},{"co_cnes":"2312395"},{"lat":"-5.56721448898299"},{"long":"-48.5383057594285"},{"no_fantasia":"POSTO DE SAUDE DE JOSE MARTINS FERREIRA"},{"no_logradouro":"VILA JOSE MARTINS FERREIRA"},{"nu_endereco":"S/N"},{"no_bairro":"VILA JOSE M FERREIRA"},{"nu_telefone":"09433791217"},{"co_cep":"68518000"},{"uf":"PA"},{"cidade":"São João do Araguaia"},{"ano_ubs_det":"2016"},{"mes_ubs_det":"5"}],"geometry":{"type":"Point","coordinates":[-48.538305759429,-5.567214488983]}},{"type":"Feature","properties":[{"gid":"6417"},{"co_cnes":"2621541"},{"lat":"-3.78129"},{"long":"-49.66586"},{"no_fantasia":"P S F DO JARDIM MARILUCE"},{"no_logradouro":"RUA EF"},{"nu_endereco":"14"},{"no_bairro":"JARDIM MARILUCY"},{"nu_telefone":"9191445321"},{"co_cep":"68458680"},{"uf":"PA"},{"cidade":"Tucuruí"},{"ano_ubs_det":"2016"},{"mes_ubs_det":"5"}],"geometry":{"type":"Point","coordinates":[-49.66586,-3.78129]}},{"type":"Feature","properties":[{"gid":"6488"},{"co_cnes":"2328933"},{"lat":"-8.27360630035376"},{"long":"-49.261686801909"},{"no_fantasia":"ESTRATEGIA DE SAUDE DA FAMILIA MARIA PEREIRA DA SILVA"},{"no_logradouro":"FERNANDO GUILHOM"},{"nu_endereco":"S/N"},{"no_bairro":"CAPELINHA"},{"nu_telefone":"(91)421 2166"},{"co_cep":"68540000"},{"uf":"PA"},{"cidade":"Conceição do Araguaia"},{"ano_ubs_det":"2016"},{"mes_ubs_det":"5"}],"geometry":{"type":"Point","coordinates":[-49.261686801909,-8.2736063003538]}},{"type":"Feature","properties":[{"gid":"6427"},{"co_cnes":"2674904"},{"lat":"-1.06557726860043"},{"long":"-46.6001844406114"},{"no_fantasia":"POSTO DE SAUDE VILA NOVA"},{"no_logradouro":"COMUNIDADE DE VILA NOVA"},{"nu_endereco":"S/N"},{"no_bairro":"VILA NOVA"},{"nu_telefone":""},{"co_cep":"68610000"},{"uf":"PA"},{"cidade":"Augusto Corrêa"},{"ano_ubs_det":"2016"},{"mes_ubs_det":"5"}],"geometry":{"type":"Point","coordinates":[-46.600184440611,-1.0655772686004]}},{"type":"Feature","properties":[{"gid":"6623"},{"co_cnes":"2317273"},{"lat":"-1.6907365"},{"long":"-50.4808947990195"},{"no_fantasia":"UNIDADE DE SAUDE DA FAMILIA DA CASTANHEIRA"},{"no_logradouro":"RUA JOSE RODRIGUES DA FONSECA"},{"nu_endereco":"S/N"},{"no_bairro":"CASTANHEIRA"},{"nu_telefone":""},{"co_cep":"68800000"},{"uf":"PA"},{"cidade":"Breves"},{"ano_ubs_det":"2016"},{"mes_ubs_det":"5"}],"geometry":{"type":"Point","coordinates":[-50.48089479902,-1.6907365]}},{"type":"Feature","properties":[{"gid":"6430"},{"co_cnes":"6816916"},{"lat":"-0.0027465820302023"},{"long":"-50.0186920166016"},{"no_fantasia":"POSTO DE SAUDE UBUSSUTUBA"},{"no_logradouro":"VILA UBUSSUTUBA"},{"nu_endereco":"S/N"},{"no_bairro":"UBUSSUTUBA"},{"nu_telefone":""},{"co_cep":"68880000"},{"uf":"PA"},{"cidade":"Chaves"},{"ano_ubs_det":"2016"},{"mes_ubs_det":"5"}],"geometry":{"type":"Point","coordinates":[-50.018692016602,-0.0027465820302023]}},{"type":"Feature","properties":[{"gid":"6650"},{"co_cnes":"5365902"},{"lat":"-1.63268208503718"},{"long":"-46.802186965941"},{"no_fantasia":"POSTO DE SAUDE DA FAMILIA PITORO"},{"no_logradouro":"RODOVIA BR 316 KM 64"},{"nu_endereco":"S/N"},{"no_bairro":"CENTRO"},{"nu_telefone":""},{"co_cep":"68644000"},{"uf":"PA"},{"cidade":"Santa Luzia do Pará"},{"ano_ubs_det":"2016"},{"mes_ubs_det":"5"}],"geometry":{"type":"Point","coordinates":[-46.802186965941,-1.6326820850372]}},{"type":"Feature","properties":[{"gid":"6437"},{"co_cnes":"2333287"},{"lat":"-1.37521775824216"},{"long":"-48.4555780806542"},{"no_fantasia":"UNIDADE MUNICIPAL DO BENGUI"},{"no_logradouro":"RUA BENFICA"},{"nu_endereco":"S/N"},{"no_bairro":"BENGUI"},{"nu_telefone":"(91) 3279-5868"},{"co_cep":"66630170"},{"uf":"PA"},{"cidade":"Belém"},{"ano_ubs_det":"2016"},{"mes_ubs_det":"5"}],"geometry":{"type":"Point","coordinates":[-48.455578080654,-1.3752177582422]}},{"type":"Feature","properties":[{"gid":"6508"},{"co_cnes":"3192733"},{"lat":"-1.35650038719173"},{"long":"-48.4426689147935"},{"no_fantasia":"UNIDADE MUNICIPAL DE SAUDE DO SIDERAL"},{"no_logradouro":"RUA SIDERAL"},{"nu_endereco":"S/N"},{"no_bairro":"CENTRO"},{"nu_telefone":"(91)3278-3599"},{"co_cep":"66020240"},{"uf":"PA"},{"cidade":"Belém"},{"ano_ubs_det":"2016"},{"mes_ubs_det":"5"}],"geometry":{"type":"Point","coordinates":[-48.442668914794,-1.3565003871917]}},{"type":"Feature","properties":[{"gid":"7200"},{"co_cnes":"5925606"},{"lat":"-2.43698000907891"},{"long":"-47.1431064605699"},{"no_fantasia":"P S LOURO"},{"no_logradouro":"NAZARE LEMOS"},{"nu_endereco":"S/N"},{"no_bairro":"LOURO"},{"nu_telefone":""},{"co_cep":"68665000"},{"uf":"PA"},{"cidade":"Garrafão do Norte"},{"ano_ubs_det":"2016"},{"mes_ubs_det":"5"}],"geometry":{"type":"Point","coordinates":[-47.14310646057,-2.4369800090789]}},{"type":"Feature","properties":[{"gid":"7059"},{"co_cnes":"2677504"},{"lat":"-1.76032304763789"},{"long":"-46.5461111068712"},{"no_fantasia":"UBS DE CACHOEIRA DO PIRIA"},{"no_logradouro":"RUA SAO PEDRO"},{"nu_endereco":"S/N"},{"no_bairro":"CENTRO"},{"nu_telefone":"(091)34471145"},{"co_cep":"68617000"},{"uf":"PA"},{"cidade":"Cachoeira do Piriá"},{"ano_ubs_det":"2016"},{"mes_ubs_det":"5"}],"geometry":{"type":"Point","coordinates":[-46.546111106871,-1.7603230476379]}},{"type":"Feature","properties":[{"gid":"7170"},{"co_cnes":"2312603"},{"lat":"-4.69962716102586"},{"long":"-49.6795105934129"},{"no_fantasia":"POSTO DE SAUDE CHRISTOVAM EDIMUNDO SA"},{"no_logradouro":"KM112 BR 230"},{"nu_endereco":"400"},{"no_bairro":"ZONA RURAL"},{"nu_telefone":"(91)7851150"},{"co_cep":"68473000"},{"uf":"PA"},{"cidade":"Novo Repartimento"},{"ano_ubs_det":"2016"},{"mes_ubs_det":"5"}],"geometry":{"type":"Point","coordinates":[-49.679510593413,-4.6996271610259]}},{"type":"Feature","properties":[{"gid":"6851"},{"co_cnes":"7765"},{"lat":"-1.13753557205197"},{"long":"-47.9196166992174"},{"no_fantasia":"USF DE FRANCISCO CORREA"},{"no_logradouro":"AGROVILA FRANCISCO CORREA"},{"nu_endereco":"S/N"},{"no_bairro":"AGROVILA F CORREA"},{"nu_telefone":""},{"co_cep":"68745000"},{"uf":"PA"},{"cidade":"Castanhal"},{"ano_ubs_det":"2016"},{"mes_ubs_det":"5"}],"geometry":{"type":"Point","coordinates":[-47.919616699217,-1.137535572052]}},{"type":"Feature","properties":[{"gid":"6954"},{"co_cnes":"2331411"},{"lat":"-1.97191146235044"},{"long":"-53.5102124023438"},{"no_fantasia":"ESTRATEGIA SAUDE DA FAMIL S M URUARA"},{"no_logradouro":"SANTA MARIA DO URUARA"},{"nu_endereco":"S/N"},{"no_bairro":"URUARA"},{"nu_telefone":""},{"co_cep":"68130000"},{"uf":"PA"},{"cidade":"Prainha"},{"ano_ubs_det":"2016"},{"mes_ubs_det":"5"}],"geometry":{"type":"Point","coordinates":[-53.510212402344,-1.9719114623504]}},{"type":"Feature","properties":[{"gid":"7093"},{"co_cnes":"2317362"},{"lat":"-1.97601556777948"},{"long":"-48.9660644531236"},{"no_fantasia":"UNIDADE SAUDE DA FAMILIA CIDADE NOVA"},{"no_logradouro":"RUA MAJOR LIRA LOBATO"},{"nu_endereco":"S/N"},{"no_bairro":"CIDADE NOVA"},{"nu_telefone":"(91)37551083"},{"co_cep":"68430000"},{"uf":"PA"},{"cidade":"Igarapé-Miri"},{"ano_ubs_det":"2016"},{"mes_ubs_det":"5"}],"geometry":{"type":"Point","coordinates":[-48.966064453124,-1.9760155677795]}},{"type":"Feature","properties":[{"gid":"7156"},{"co_cnes":"2318261"},{"lat":"-7.31111524468814"},{"long":"-50.0464108775224"},{"no_fantasia":"ESTRATEGIA DE SAUDE DA FAMILIA ESTER AGUIAR DIAS"},{"no_logradouro":"AV PAULO FONTELES"},{"nu_endereco":"253"},{"no_bairro":"PARQUE DA LIBERDADE"},{"nu_telefone":"(91)428 1257"},{"co_cep":"68530000"},{"uf":"PA"},{"cidade":"Rio Maria"},{"ano_ubs_det":"2016"},{"mes_ubs_det":"5"}],"geometry":{"type":"Point","coordinates":[-50.046410877522,-7.3111152446881]}},{"type":"Feature","properties":[{"gid":"6856"},{"co_cnes":"5701813"},{"lat":"-1.771474995"},{"long":"-47.4407556128483"},{"no_fantasia":"USF TESSALONICA"},{"no_logradouro":"TESSALONICA"},{"nu_endereco":"S/N"},{"no_bairro":"ZONA RURAL"},{"nu_telefone":""},{"co_cep":"68655000"},{"uf":"PA"},{"cidade":"Irituia"},{"ano_ubs_det":"2016"},{"mes_ubs_det":"5"}],"geometry":{"type":"Point","coordinates":[-47.440755612848,-1.771474995]}},{"type":"Feature","properties":[{"gid":"7186"},{"co_cnes":"2329638"},{"lat":"-9.329424525"},{"long":"-50.344804321129"},{"no_fantasia":"ESTRATEGIA DA SAUDE DA FAMILIA DA VILA MANDI"},{"no_logradouro":"RUA DA DELEGACIA"},{"nu_endereco":"S/N"},{"no_bairro":"CENTRO VILA MANDI"},{"nu_telefone":""},{"co_cep":"68560000"},{"uf":"PA"},{"cidade":"Santana do Araguaia"},{"ano_ubs_det":"2016"},{"mes_ubs_det":"5"}],"geometry":{"type":"Point","coordinates":[-50.344804321129,-9.329424525]}},{"type":"Feature","properties":[{"gid":"7161"},{"co_cnes":"2328585"},{"lat":"-1.36871356826945"},{"long":"-48.372066654168"},{"no_fantasia":"UNIDADE BASICA DE SAUDE DO AURA"},{"no_logradouro":"AV PRINCIPAL SN"},{"nu_endereco":"S/N"},{"no_bairro":"AURA"},{"nu_telefone":"(91) 2734744"},{"co_cep":"67125000"},{"uf":"PA"},{"cidade":"Ananindeua"},{"ano_ubs_det":"2016"},{"mes_ubs_det":"5"}],"geometry":{"type":"Point","coordinates":[-48.372066654168,-1.3687135682695]}},{"type":"Feature","properties":[{"gid":"7021"},{"co_cnes":"2614855"},{"lat":"-5.33916452968502"},{"long":"-49.0920639038086"},{"no_fantasia":"CENTRO DE SAUDE CARLOS BARRETO"},{"no_logradouro":"RODOVIA PA 70 KM 12"},{"nu_endereco":"S/N"},{"no_bairro":"MORADA NOVA"},{"nu_telefone":"( )"},{"co_cep":"68501000"},{"uf":"PA"},{"cidade":"Marabá"},{"ano_ubs_det":"2016"},{"mes_ubs_det":"5"}],"geometry":{"type":"Point","coordinates":[-49.092063903809,-5.339164529685]}},{"type":"Feature","properties":[{"gid":"6958"},{"co_cnes":"2331136"},{"lat":"-4.26372948"},{"long":"-55.9900488572777"},{"no_fantasia":"UNIDADE DE SAUDE DA FAMILIA JARDIM AEROPORTO"},{"no_logradouro":"TERCEIRA RUA"},{"nu_endereco":"S/N"},{"no_bairro":"JARDIM AEROPORTO"},{"nu_telefone":""},{"co_cep":"68181000"},{"uf":"PA"},{"cidade":"Itaituba"},{"ano_ubs_det":"2016"},{"mes_ubs_det":"5"}],"geometry":{"type":"Point","coordinates":[-55.990048857278,-4.26372948]}},{"type":"Feature","properties":[{"gid":"6900"},{"co_cnes":"7036825"},{"lat":"-7.14892737014731"},{"long":"-55.3810501098633"},{"no_fantasia":"UNIDADE DE SAUDE DA FAMILIA SANTA JULIA"},{"no_logradouro":"RODOVIA BR 163 KM 1120"},{"nu_endereco":"S/N"},{"no_bairro":"COMUNIDADE SANTA JUL"},{"nu_telefone":""},{"co_cep":"68193000"},{"uf":"PA"},{"cidade":"Novo Progresso"},{"ano_ubs_det":"2016"},{"mes_ubs_det":"5"}],"geometry":{"type":"Point","coordinates":[-55.381050109863,-7.1489273701473]}},{"type":"Feature","properties":[{"gid":"7010"},{"co_cnes":"2332167"},{"lat":"-1.90029652422711"},{"long":"-55.5164228610993"},{"no_fantasia":"CENTRO DE SAUDE DE OBIDOS"},{"no_logradouro":"RUA PEDRO ALVARES CABRAL"},{"nu_endereco":"2020"},{"no_bairro":"CIDADE NOVA"},{"nu_telefone":""},{"co_cep":"68250000"},{"uf":"PA"},{"cidade":"Óbidos"},{"ano_ubs_det":"2016"},{"mes_ubs_det":"5"}],"geometry":{"type":"Point","coordinates":[-55.516422861099,-1.9002965242271]}},{"type":"Feature","properties":[{"gid":"7543"},{"co_cnes":"5522560"},{"lat":"-3.84349"},{"long":"-49.09201"},{"no_fantasia":"UBS SANTO AMARO"},{"no_logradouro":"RUA 09"},{"nu_endereco":"25"},{"no_bairro":"SANTO AMARO"},{"nu_telefone":""},{"co_cep":"68639000"},{"uf":"PA"},{"cidade":"Goianésia do Pará"},{"ano_ubs_det":"2016"},{"mes_ubs_det":"5"}],"geometry":{"type":"Point","coordinates":[-49.09201,-3.84349]}},{"type":"Feature","properties":[{"gid":"7550"},{"co_cnes":"2312778"},{"lat":"-3.55623800379904"},{"long":"-49.0249022216797"},{"no_fantasia":"UBS NOSSA SENHORA APARECIDA"},{"no_logradouro":"RUA RIO VERDE"},{"nu_endereco":"S/N"},{"no_bairro":"VILA APARECIDA"},{"nu_telefone":""},{"co_cep":"68639000"},{"uf":"PA"},{"cidade":"Goianésia do Pará"},{"ano_ubs_det":"2016"},{"mes_ubs_det":"5"}],"geometry":{"type":"Point","coordinates":[-49.02490222168,-3.556238003799]}},{"type":"Feature","properties":[{"gid":"7564"},{"co_cnes":"2621444"},{"lat":"-3.7654674053191"},{"long":"-49.6772575378404"},{"no_fantasia":"UNIDADE DE ENDEMIAS"},{"no_logradouro":"RUA LAURO SODRE"},{"nu_endereco":"916"},{"no_bairro":"JARDIM ALVORADA"},{"nu_telefone":"9191445321"},{"co_cep":"68459800"},{"uf":"PA"},{"cidade":"Tucuruí"},{"ano_ubs_det":"2016"},{"mes_ubs_det":"5"}],"geometry":{"type":"Point","coordinates":[-49.67725753784,-3.7654674053191]}},{"type":"Feature","properties":[{"gid":"7467"},{"co_cnes":"2318938"},{"lat":"-6.5342152118681"},{"long":"-49.4077277183518"},{"no_fantasia":"UNIDADE DE ESF RIO VERMELHO"},{"no_logradouro":"BR 155"},{"nu_endereco":"S/N"},{"no_bairro":"ZONA RURAL"},{"nu_telefone":"( )"},{"co_cep":"68557080"},{"uf":"PA"},{"cidade":"Xinguara"},{"ano_ubs_det":"2016"},{"mes_ubs_det":"5"}],"geometry":{"type":"Point","coordinates":[-49.407727718352,-6.5342152118681]}},{"type":"Feature","properties":[{"gid":"7240"},{"co_cnes":"2621932"},{"lat":"-2.12109439645344"},{"long":"-54.5825833082199"},{"no_fantasia":"UNIDADE BASICA DE SAUDE DE COSTA DO ARITAPERA"},{"no_logradouro":"VILA DE COSTA DO ARITAPERA"},{"nu_endereco":"S/N"},{"no_bairro":"ARITAPERA"},{"nu_telefone":"(93)21010100"},{"co_cep":"68005270"},{"uf":"PA"},{"cidade":"Santarém"},{"ano_ubs_det":"2016"},{"mes_ubs_det":"5"}],"geometry":{"type":"Point","coordinates":[-54.58258330822,-2.1210943964534]}},{"type":"Feature","properties":[{"gid":"7385"},{"co_cnes":"2330202"},{"lat":"-2.66579449077336"},{"long":"-54.5493265986443"},{"no_fantasia":"UNIDADE DE SAUDE BOA ESPERANCA"},{"no_logradouro":"RODOVIA SANTAREM CURUA UNA KM1143"},{"nu_endereco":"S/N"},{"no_bairro":"BOA ESPERANCA"},{"nu_telefone":"(93-2101-0100"},{"co_cep":"68005270"},{"uf":"PA"},{"cidade":"Santarém"},{"ano_ubs_det":"2016"},{"mes_ubs_det":"5"}],"geometry":{"type":"Point","coordinates":[-54.549326598644,-2.6657944907734]}},{"type":"Feature","properties":[{"gid":"7386"},{"co_cnes":"2616548"},{"lat":"-4.94912624359116"},{"long":"-48.3980369567857"},{"no_fantasia":"UNIDADE DE SAUDE DA FAMILIA CIDADE ALTA"},{"no_logradouro":"RUA SAO SEBASTIAO"},{"nu_endereco":"S/N"},{"no_bairro":"NOVO HORIZONTE"},{"nu_telefone":"9433421333"},{"co_cep":"68527000"},{"uf":"PA"},{"cidade":"Abel Figueiredo"},{"ano_ubs_det":"2016"},{"mes_ubs_det":"5"}],"geometry":{"type":"Point","coordinates":[-48.398036956786,-4.9491262435912]}},{"type":"Feature","properties":[{"gid":"7250"},{"co_cnes":"5692156"},{"lat":"-2.27768964638286"},{"long":"-46.9650077819824"},{"no_fantasia":"USF NOVO HORIZONTE"},{"no_logradouro":"RUA DA CRECHE"},{"nu_endereco":"001"},{"no_bairro":"NOVO HORIZONTE"},{"nu_telefone":""},{"co_cep":"68618000"},{"uf":"PA"},{"cidade":"Nova Esperança do Piriá"},{"ano_ubs_det":"2016"},{"mes_ubs_det":"5"}],"geometry":{"type":"Point","coordinates":[-46.965007781982,-2.2776896463829]}},{"type":"Feature","properties":[{"gid":"7383"},{"co_cnes":"6047661"},{"lat":"-2.59485041832352"},{"long":"-51.9530564180171"},{"no_fantasia":"UBSF MANOEL ANSELMO BATISTA"},{"no_logradouro":"RUA JUNIOR"},{"nu_endereco":"S/N"},{"no_bairro":"NOSSA SENHORA DE APA"},{"nu_telefone":""},{"co_cep":"68360000"},{"uf":"PA"},{"cidade":"Senador José Porfírio"},{"ano_ubs_det":"2016"},{"mes_ubs_det":"5"}],"geometry":{"type":"Point","coordinates":[-51.953056418017,-2.5948504183235]}},{"type":"Feature","properties":[{"gid":"7307"},{"co_cnes":"7584156"},{"lat":"-1.93624527212575"},{"long":"-47.0504334568977"},{"no_fantasia":"ESF DA VILA DO LOURO"},{"no_logradouro":"RUA CIMEIRA"},{"nu_endereco":"S/N"},{"no_bairro":"ZONA RURAL"},{"nu_telefone":"9134344127"},{"co_cep":"68665000"},{"uf":"PA"},{"cidade":"Garrafão do Norte"},{"ano_ubs_det":"2016"},{"mes_ubs_det":"5"}],"geometry":{"type":"Point","coordinates":[-47.050433456898,-1.9362452721257]}},{"type":"Feature","properties":[{"gid":"7442"},{"co_cnes":"6830951"},{"lat":"-1.36871356826945"},{"long":"-48.372066654168"},{"no_fantasia":"UBS CIDADE NOVA VI"},{"no_logradouro":"CIDADE NOVA VI WE 80"},{"nu_endereco":"00"},{"no_bairro":"COQUEIRO"},{"nu_telefone":""},{"co_cep":"67125000"},{"uf":"PA"},{"cidade":"Ananindeua"},{"ano_ubs_det":"2016"},{"mes_ubs_det":"5"}],"geometry":{"type":"Point","coordinates":[-48.372066654168,-1.3687135682695]}},{"type":"Feature","properties":[{"gid":"7206"},{"co_cnes":"7781"},{"lat":"-1.29278"},{"long":"-47.9144"},{"no_fantasia":"USF JOSE OLIMPIO DE BRITO"},{"no_logradouro":"RUA MARIA GORETH"},{"nu_endereco":"1284"},{"no_bairro":"IANETAMA"},{"nu_telefone":""},{"co_cep":"68745000"},{"uf":"PA"},{"cidade":"Castanhal"},{"ano_ubs_det":"2016"},{"mes_ubs_det":"5"}],"geometry":{"type":"Point","coordinates":[-47.9144,-1.29278]}},{"type":"Feature","properties":[{"gid":"7364"},{"co_cnes":"5731925"},{"lat":"-7.10095524787882"},{"long":"-49.9389982223496"},{"no_fantasia":"UNIDADE DE ESF THIAGO GODOY"},{"no_logradouro":"R PETRONIO PORTELA EQ COM R CECILIA MEIRELIS"},{"nu_endereco":"S/N"},{"no_bairro":"CENTRO"},{"nu_telefone":"94 3426 4114 E 1015"},{"co_cep":"68555310"},{"uf":"PA"},{"cidade":"Xinguara"},{"ano_ubs_det":"2016"},{"mes_ubs_det":"5"}],"geometry":{"type":"Point","coordinates":[-49.93899822235,-7.1009552478788]}},{"type":"Feature","properties":[{"gid":"7624"},{"co_cnes":"3916065"},{"lat":"-8.87055053969294"},{"long":"-49.7193518572257"},{"no_fantasia":"PSF II ANTONIO MANOEL DE MELO"},{"no_logradouro":"VILA SAWANOPOLIS"},{"nu_endereco":"S/N"},{"no_bairro":"CENTRO"},{"nu_telefone":""},{"co_cep":"68565000"},{"uf":"PA"},{"cidade":"Santa Maria das Barreiras"},{"ano_ubs_det":"2016"},{"mes_ubs_det":"5"}],"geometry":{"type":"Point","coordinates":[-49.719351857226,-8.8705505396929]}},{"type":"Feature","properties":[{"gid":"7765"},{"co_cnes":"2313820"},{"lat":"-1.20017051696774"},{"long":"-46.1400032043444"},{"no_fantasia":"UNIDADE DE SAUDE DA FAMILIA DO MANGUEIRAO"},{"no_logradouro":"RUA 13 DE MAIO"},{"nu_endereco":"S/N"},{"no_bairro":"MANGUEIRAO"},{"nu_telefone":""},{"co_cep":"68620000"},{"uf":"PA"},{"cidade":"Viseu"},{"ano_ubs_det":"2016"},{"mes_ubs_det":"5"}],"geometry":{"type":"Point","coordinates":[-46.140003204344,-1.2001705169677]}},{"type":"Feature","properties":[{"gid":"7867"},{"co_cnes":"7499981"},{"lat":"-2.94389808456325"},{"long":"-48.9551424980164"},{"no_fantasia":"ESTRATEGIA SAUDE DA FAMILIA DISTRITO DE PALMARES"},{"no_logradouro":"AVENIDA DENDE"},{"nu_endereco":"S/N"},{"no_bairro":"PALMARES"},{"nu_telefone":""},{"co_cep":"68695000"},{"uf":"PA"},{"cidade":"Tailândia"},{"ano_ubs_det":"2016"},{"mes_ubs_det":"5"}],"geometry":{"type":"Point","coordinates":[-48.955142498016,-2.9438980845633]}},{"type":"Feature","properties":[{"gid":"7984"},{"co_cnes":"5546095"},{"lat":"-7.03483591328811"},{"long":"-55.4198701179784"},{"no_fantasia":"UNIDADE DE SAUDE DA FAMILIA DR ISAIAS PINHEIRO ANTUNES"},{"no_logradouro":"RUA ITAITUBA"},{"nu_endereco":"S/N"},{"no_bairro":"BELA VISTA"},{"nu_telefone":""},{"co_cep":"68193000"},{"uf":"PA"},{"cidade":"Novo Progresso"},{"ano_ubs_det":"2016"},{"mes_ubs_det":"5"}],"geometry":{"type":"Point","coordinates":[-55.419870117978,-7.0348359132881]}},{"type":"Feature","properties":[{"gid":"7951"},{"co_cnes":"6498000"},{"lat":"-1.02333784103391"},{"long":"-46.6491293907152"},{"no_fantasia":"UNIDADE SAUDE DA FAMILIA LIRIOS DO VALE"},{"no_logradouro":"RUA ESMAELINO BRAGA DO NASCIMENTO"},{"nu_endereco":"S/N"},{"no_bairro":"LIRIOS DO VALE"},{"nu_telefone":"91-34821438"},{"co_cep":"68610000"},{"uf":"PA"},{"cidade":"Augusto Corrêa"},{"ano_ubs_det":"2016"},{"mes_ubs_det":"5"}],"geometry":{"type":"Point","coordinates":[-46.649129390715,-1.0233378410339]}},{"type":"Feature","properties":[{"gid":"7914"},{"co_cnes":"6594867"},{"lat":"-1.00878626563928"},{"long":"-48.9606675773871"},{"no_fantasia":"PSF DE RETIRO GRANDE"},{"no_logradouro":"LOCALIDADE DE RETIRO GRANDE"},{"nu_endereco":"S/N"},{"no_bairro":"INTERIOR"},{"nu_telefone":"37581296"},{"co_cep":"68840000"},{"uf":"PA"},{"cidade":"Cachoeira do Arari"},{"ano_ubs_det":"2016"},{"mes_ubs_det":"5"}],"geometry":{"type":"Point","coordinates":[-48.960667577387,-1.0087862656393]}},{"type":"Feature","properties":[{"gid":"7698"},{"co_cnes":"2619709"},{"lat":"-1.58427550495071"},{"long":"-47.2563815116882"},{"no_fantasia":"UNIDADE DE SAUDE DA FAMILIA PAULA DE JESUS SAAVEDRA"},{"no_logradouro":"VILA DO TUPINAMBA"},{"nu_endereco":"S/N"},{"no_bairro":"VILA"},{"nu_telefone":""},{"co_cep":"68640000"},{"uf":"PA"},{"cidade":"Ourém"},{"ano_ubs_det":"2016"},{"mes_ubs_det":"5"}],"geometry":{"type":"Point","coordinates":[-47.256381511688,-1.5842755049507]}},{"type":"Feature","properties":[{"gid":"7639"},{"co_cnes":"2340844"},{"lat":"-1.34931206703182"},{"long":"-48.4675598144517"},{"no_fantasia":"UNIDADE MUNICIPAL DE SAUDE DO TAPANA"},{"no_logradouro":"ROD TAPANA RUA SAO CLEMENTE"},{"nu_endereco":"S/N"},{"no_bairro":"TAPANA"},{"nu_telefone":"(91)32781002"},{"co_cep":"66825000"},{"uf":"PA"},{"cidade":"Belém"},{"ano_ubs_det":"2016"},{"mes_ubs_det":"5"}],"geometry":{"type":"Point","coordinates":[-48.467559814452,-1.3493120670318]}},{"type":"Feature","properties":[{"gid":"7925"},{"co_cnes":"6623077"},{"lat":"-1.15669727325436"},{"long":"-48.7822365760789"},{"no_fantasia":"POSTO DE SAUDE DE GURUPA"},{"no_logradouro":"LOCALIDADE DE GURUPA"},{"nu_endereco":"S/N"},{"no_bairro":"INTERIOR"},{"nu_telefone":"37581296"},{"co_cep":"68840000"},{"uf":"PA"},{"cidade":"Cachoeira do Arari"},{"ano_ubs_det":"2016"},{"mes_ubs_det":"5"}],"geometry":{"type":"Point","coordinates":[-48.782236576079,-1.1566972732544]}},{"type":"Feature","properties":[{"gid":"7848"},{"co_cnes":"2615541"},{"lat":"-1.31258726119991"},{"long":"-47.4263262748704"},{"no_fantasia":"UNIDADE SAUDE DA FAMILIA DE TACIATEUA"},{"no_logradouro":"RUA JOSE BONIFACIO"},{"nu_endereco":"S/N"},{"no_bairro":"CENTRO"},{"nu_telefone":"( )"},{"co_cep":"68738000"},{"uf":"PA"},{"cidade":"Santa Maria do Pará"},{"ano_ubs_det":"2016"},{"mes_ubs_det":"5"}],"geometry":{"type":"Point","coordinates":[-47.42632627487,-1.3125872611999]}},{"type":"Feature","properties":[{"gid":"7842"},{"co_cnes":"5545145"},{"lat":"-0.944105386733981"},{"long":"-47.1242451667772"},{"no_fantasia":"ESF LEITELANDIA"},{"no_logradouro":"TRAVESSA ORIVAL RAYOL"},{"nu_endereco":"S/N"},{"no_bairro":"LEITELANDIA"},{"nu_telefone":"(91) 34811444"},{"co_cep":"68707000"},{"uf":"PA"},{"cidade":"Primavera"},{"ano_ubs_det":"2016"},{"mes_ubs_det":"5"}],"geometry":{"type":"Point","coordinates":[-47.124245166777,-0.94410538673398]}},{"type":"Feature","properties":[{"gid":"7712"},{"co_cnes":"2333295"},{"lat":"-6.34758710861188"},{"long":"-48.6470103263841"},{"no_fantasia":"POSTO DE SAUDE VILA NOVA"},{"no_logradouro":"POVOADO VILA NOVA"},{"nu_endereco":"022"},{"no_bairro":"ZONA RURAL"},{"nu_telefone":""},{"co_cep":"68570000"},{"uf":"PA"},{"cidade":"São Geraldo do Araguaia"},{"ano_ubs_det":"2016"},{"mes_ubs_det":"5"}],"geometry":{"type":"Point","coordinates":[-48.647010326384,-6.3475871086119]}},{"type":"Feature","properties":[{"gid":"8352"},{"co_cnes":"2314746"},{"lat":"-1.09067201614377"},{"long":"-46.9808220863329"},{"no_fantasia":"UNIDADE DE SAUDE DA FAMILIA JUVENAL BATISTA DE SOUSA MARIA"},{"no_logradouro":"RUA SENADOR LEMOS"},{"nu_endereco":"74"},{"no_bairro":"MIRASSELVAS"},{"nu_telefone":"(91)04622266"},{"co_cep":"68702180"},{"uf":"PA"},{"cidade":"Capanema"},{"ano_ubs_det":"2016"},{"mes_ubs_det":"5"}],"geometry":{"type":"Point","coordinates":[-46.980822086333,-1.0906720161438]}},{"type":"Feature","properties":[{"gid":"8212"},{"co_cnes":"2316609"},{"lat":"-8.0276045"},{"long":"-50.0296418255092"},{"no_fantasia":"UNIDADE DE SAUDE DA FAMILIA IV DEUSDETE NORONHA"},{"no_logradouro":"AVN BRAZ ROSA DE CARVALHO"},{"nu_endereco":"S/N"},{"no_bairro":"JARDIM ARIANE"},{"nu_telefone":"( )"},{"co_cep":"68552230"},{"uf":"PA"},{"cidade":"Redenção"},{"ano_ubs_det":"2016"},{"mes_ubs_det":"5"}],"geometry":{"type":"Point","coordinates":[-50.029641825509,-8.0276045]}},{"type":"Feature","properties":[{"gid":"8395"},{"co_cnes":"2621282"},{"lat":"-2.09974050521845"},{"long":"-48.4871506690965"},{"no_fantasia":"POSTO DE SAUDE DO SAO JOAO"},{"no_logradouro":"COMUNIDADE SAO JOAO"},{"nu_endereco":"06"},{"no_bairro":"BAIXO ACARA"},{"nu_telefone":""},{"co_cep":"68690000"},{"uf":"PA"},{"cidade":"Acará"},{"ano_ubs_det":"2016"},{"mes_ubs_det":"5"}],"geometry":{"type":"Point","coordinates":[-48.487150669097,-2.0997405052184]}},{"type":"Feature","properties":[{"gid":"8241"},{"co_cnes":"2329530"},{"lat":"-1.5119612216949"},{"long":"-48.4185719490037"},{"no_fantasia":"ESTRATEGIA DE SAUDE DA FAMILIA DA BOA VISTA"},{"no_logradouro":"COMUNIDADE BOA VISTA"},{"nu_endereco":"04"},{"no_bairro":"BAIXO ACARA"},{"nu_telefone":""},{"co_cep":"68690000"},{"uf":"PA"},{"cidade":"Acará"},{"ano_ubs_det":"2016"},{"mes_ubs_det":"5"}],"geometry":{"type":"Point","coordinates":[-48.418571949004,-1.5119612216949]}},{"type":"Feature","properties":[{"gid":"8067"},{"co_cnes":"2793911"},{"lat":"-1.36336"},{"long":"-47.30636"},{"no_fantasia":"USF CLODOALDO BASILIO"},{"no_logradouro":"AVENIDA CHARLES ASSAAD"},{"nu_endereco":"188"},{"no_bairro":"CENTRO"},{"nu_telefone":""},{"co_cep":"68645000"},{"uf":"PA"},{"cidade":"Bonito"},{"ano_ubs_det":"2016"},{"mes_ubs_det":"5"}],"geometry":{"type":"Point","coordinates":[-47.30636,-1.36336]}},{"type":"Feature","properties":[{"gid":"8360"},{"co_cnes":"2331535"},{"lat":"-6.50085649859219"},{"long":"-55.5432271957397"},{"no_fantasia":"POSTO DE SAUDE SAO JOSE"},{"no_logradouro":"BR163 KM 1135"},{"nu_endereco":"S/N"},{"no_bairro":"ZONA RURAL"},{"nu_telefone":""},{"co_cep":"68193000"},{"uf":"PA"},{"cidade":"Novo Progresso"},{"ano_ubs_det":"2016"},{"mes_ubs_det":"5"}],"geometry":{"type":"Point","coordinates":[-55.54322719574,-6.5008564985922]}},{"type":"Feature","properties":[{"gid":"8220"},{"co_cnes":"2330385"},{"lat":"-3.20405960082998"},{"long":"-52.2061514854416"},{"no_fantasia":"CENTRO DE SAUDE ILVANIR DENARDIN"},{"no_logradouro":"RUA CORONEL JOSE PORFIRIO"},{"nu_endereco":"S/N"},{"no_bairro":"CENTRO"},{"nu_telefone":"(93)35152297"},{"co_cep":"68371970"},{"uf":"PA"},{"cidade":"Altamira"},{"ano_ubs_det":"2016"},{"mes_ubs_det":"5"}],"geometry":{"type":"Point","coordinates":[-52.206151485442,-3.20405960083]}},{"type":"Feature","properties":[{"gid":"8159"},{"co_cnes":"2621029"},{"lat":"-0.713939666748026"},{"long":"-47.6972079277025"},{"no_fantasia":"UBS URBANA I"},