[{"type":"Feature","properties":[{"gid":"330"},{"co_cnes":"2756161"},{"lat":"-7.115"},{"long":"-34.863"},{"no_fantasia":"USF INTEGRADA SANTA CLARA"},{"no_logradouro":"RUA NEVINHA RAPOSO"},{"nu_endereco":"53"},{"no_bairro":"CASTELO BRANCO"},{"nu_telefone":"(83)32147126"},{"co_cep":"58050520"},{"uf":"PB"},{"cidade":"João Pessoa"},{"ano_ubs_det":"2016"},{"mes_ubs_det":"5"}],"geometry":{"type":"Point","coordinates":[-34.863,-7.115]}},{"type":"Feature","properties":[{"gid":"88"},{"co_cnes":"2604566"},{"lat":"-7.17931929137952"},{"long":"-38.1466946448252"},{"no_fantasia":"UNIDADE MISTA FRANCISCO BRASILEIRO LIMA PSF II"},{"no_logradouro":"RUA JOAO MIGUEL DE SOUZA"},{"nu_endereco":"S/N"},{"no_bairro":"PADRE ARISTIDES"},{"nu_telefone":"83-3480-1124"},{"co_cep":"58775000"},{"uf":"PB"},{"cidade":"Igaracy"},{"ano_ubs_det":"2016"},{"mes_ubs_det":"5"}],"geometry":{"type":"Point","coordinates":[-38.146694644825,-7.1793192913795]}},{"type":"Feature","properties":[{"gid":"141"},{"co_cnes":"2603616"},{"lat":"-6.769855485"},{"long":"-37.7982672713629"},{"no_fantasia":"USF V FRANCISCO PAULINO"},{"no_logradouro":"RUA PAULO ADONIAS"},{"nu_endereco":"S/N"},{"no_bairro":"FRANCISCO PAULINO"},{"nu_telefone":"(83) 4312437"},{"co_cep":"58840000"},{"uf":"PB"},{"cidade":"Pombal"},{"ano_ubs_det":"2016"},{"mes_ubs_det":"5"}],"geometry":{"type":"Point","coordinates":[-37.798267271363,-6.769855485]}},{"type":"Feature","properties":[{"gid":"509"},{"co_cnes":"2592630"},{"lat":"-7.26139426231363"},{"long":"-34.90716934204"},{"no_fantasia":"UNIDADE DE SAUDE DA FAMILIA CENTRO"},{"no_logradouro":"R NS DA CONCEICAO"},{"nu_endereco":"S/N"},{"no_bairro":"CENTRO"},{"nu_telefone":""},{"co_cep":"58322000"},{"uf":"PB"},{"cidade":"Conde"},{"ano_ubs_det":"2016"},{"mes_ubs_det":"5"}],"geometry":{"type":"Point","coordinates":[-34.90716934204,-7.2613942623136]}},{"type":"Feature","properties":[{"gid":"436"},{"co_cnes":"2322129"},{"lat":"-6.5810463672669"},{"long":"-38.593223449707"},{"no_fantasia":"CENTRO DE SAUDE JOSE BERNARDINO BATISTA"},{"no_logradouro":"RUA VICENTE FERREIRA"},{"nu_endereco":"S/N"},{"no_bairro":"CENTRO"},{"nu_telefone":""},{"co_cep":"58920000"},{"uf":"PB"},{"cidade":"Triunfo"},{"ano_ubs_det":"2016"},{"mes_ubs_det":"5"}],"geometry":{"type":"Point","coordinates":[-38.593223449707,-6.5810463672669]}},{"type":"Feature","properties":[{"gid":"627"},{"co_cnes":"2608855"},{"lat":"-6.78080009845509"},{"long":"-35.4977157927507"},{"no_fantasia":"UNIDADE BASICA DE SAUDE JOSE DIAS BARBOSA"},{"no_logradouro":"SITIO PAU DARCO"},{"nu_endereco":"S/N"},{"no_bairro":"ZONA RURAL"},{"nu_telefone":"(83)2771018"},{"co_cep":"58213000"},{"uf":"PB"},{"cidade":"Pirpirituba"},{"ano_ubs_det":"2016"},{"mes_ubs_det":"5"}],"geometry":{"type":"Point","coordinates":[-35.497715792751,-6.7808000984551]}},{"type":"Feature","properties":[{"gid":"1506"},{"co_cnes":"7480415"},{"lat":"-7.03008003404843"},{"long":"-34.8502515044212"},{"no_fantasia":"USF OCEANIA VI"},{"no_logradouro":"RUA LIRIOS DO VALE"},{"nu_endereco":"S/N"},{"no_bairro":"OCEANIA"},{"nu_telefone":""},{"co_cep":"58105517"},{"uf":"PB"},{"cidade":"Cabedelo"},{"ano_ubs_det":"2016"},{"mes_ubs_det":"5"}],"geometry":{"type":"Point","coordinates":[-34.850251504421,-7.0300800340484]}},{"type":"Feature","properties":[{"gid":"1401"},{"co_cnes":"2343347"},{"lat":"-7.07886457443217"},{"long":"-34.9612426757802"},{"no_fantasia":"UNIDADE DE PSF BEBELANDIA"},{"no_logradouro":"CONJUNTO BEBELANDIA"},{"nu_endereco":"S/N"},{"no_bairro":"ZONA RURAL"},{"nu_telefone":"(83) 30499500"},{"co_cep":"58300220"},{"uf":"PB"},{"cidade":"Santa Rita"},{"ano_ubs_det":"2016"},{"mes_ubs_det":"5"}],"geometry":{"type":"Point","coordinates":[-34.96124267578,-7.0788645744322]}},{"type":"Feature","properties":[{"gid":"1852"},{"co_cnes":"2321270"},{"lat":"-7.21235930264991"},{"long":"-37.0604021093534"},{"no_fantasia":"ESTRATEGIA SAUDE DA FAMILIA MARIA NAZARE DA CUNHA"},{"no_logradouro":"RUA JOSE LAURINDO"},{"nu_endereco":"S/N"},{"no_bairro":"CENTRO"},{"nu_telefone":""},{"co_cep":"58698000"},{"uf":"PB"},{"cidade":"Cacimbas"},{"ano_ubs_det":"2016"},{"mes_ubs_det":"5"}],"geometry":{"type":"Point","coordinates":[-37.060402109353,-7.2123593026499]}},{"type":"Feature","properties":[{"gid":"1735"},{"co_cnes":"3095576"},{"lat":"-6.95"},{"long":"-35.54576"},{"no_fantasia":"UNIDADE DO PSF IV"},{"no_logradouro":"RUA DO SOL"},{"nu_endereco":"86"},{"no_bairro":"CENTRO"},{"nu_telefone":"(83)2781012"},{"co_cep":"58390000"},{"uf":"PB"},{"cidade":"Alagoinha"},{"ano_ubs_det":"2016"},{"mes_ubs_det":"5"}],"geometry":{"type":"Point","coordinates":[-35.54576,-6.95]}},{"type":"Feature","properties":[{"gid":"1858"},{"co_cnes":"3163938"},{"lat":"-7.89022207260109"},{"long":"-37.1338534355153"},{"no_fantasia":"USF 02 DR BERNADINO LEMOS"},{"no_logradouro":"RUA LIDIA RAFAEL MAIA"},{"nu_endereco":"S/N"},{"no_bairro":"VILA POPULAR"},{"nu_telefone":"(83) 3351 1815"},{"co_cep":"58500000"},{"uf":"PB"},{"cidade":"Monteiro"},{"ano_ubs_det":"2016"},{"mes_ubs_det":"5"}],"geometry":{"type":"Point","coordinates":[-37.133853435515,-7.8902220726011]}},{"type":"Feature","properties":[{"gid":"1765"},{"co_cnes":"2320983"},{"lat":"-6.93022837139016"},{"long":"-37.0948573852401"},{"no_fantasia":"UNIDADE DE SAUDE DA FAMILIA III DR FRANCISCO DAS CHAGAS"},{"no_logradouro":"RUA LUIZ LEONIDAS DE MEDEIROS"},{"nu_endereco":"222"},{"no_bairro":"CONJUNTO NILSON OLIV"},{"nu_telefone":"(83)4621348"},{"co_cep":"58625000"},{"uf":"PB"},{"cidade":"São Mamede"},{"ano_ubs_det":"2016"},{"mes_ubs_det":"5"}],"geometry":{"type":"Point","coordinates":[-37.09485738524,-6.9302283713902]}},{"type":"Feature","properties":[{"gid":"1643"},{"co_cnes":"2334585"},{"lat":"-6.85980319976787"},{"long":"-35.4906249046315"},{"no_fantasia":"UBS ROSARIO AMORIM DA COSTA ROSARIO"},{"no_logradouro":"RUA DESEMBARGADOR PEDRO BANDEIRA"},{"nu_endereco":"S/N"},{"no_bairro":"ROSARIO"},{"nu_telefone":"(83) 32715944"},{"co_cep":"58200000"},{"uf":"PB"},{"cidade":"Guarabira"},{"ano_ubs_det":"2016"},{"mes_ubs_det":"5"}],"geometry":{"type":"Point","coordinates":[-35.490624904632,-6.8598031997679]}},{"type":"Feature","properties":[{"gid":"1641"},{"co_cnes":"6400914"},{"lat":"-7.4153618077326"},{"long":"-38.2156566772461"},{"no_fantasia":"UNIDADE MISTA DE BOA VENTURA"},{"no_logradouro":"EMILIA LEITE"},{"nu_endereco":"S/N"},{"no_bairro":"CENTRO"},{"nu_telefone":""},{"co_cep":"58993000"},{"uf":"PB"},{"cidade":"Boa Ventura"},{"ano_ubs_det":"2016"},{"mes_ubs_det":"5"}],"geometry":{"type":"Point","coordinates":[-38.215656677246,-7.4153618077326]}},{"type":"Feature","properties":[{"gid":"1646"},{"co_cnes":"3063380"},{"lat":"-7.18076705932596"},{"long":"-34.889702796935"},{"no_fantasia":"USF INTEGRADA FUNCIONARIOS III IV E PRESIDENTE MEDICI"},{"no_logradouro":"RUA TERESINHA DE OLIVEIRA JUSTA"},{"nu_endereco":"S/N"},{"no_bairro":"FUNCIONARIOS IV"},{"nu_telefone":"(83) 3233-8551"},{"co_cep":"58079370"},{"uf":"PB"},{"cidade":"João Pessoa"},{"ano_ubs_det":"2016"},{"mes_ubs_det":"5"}],"geometry":{"type":"Point","coordinates":[-34.889702796935,-7.180767059326]}},{"type":"Feature","properties":[{"gid":"1706"},{"co_cnes":"2612577"},{"lat":"-6.83085"},{"long":"-35.75831"},{"no_fantasia":"UNIDADE DE SAUDE DA FAMILIA II"},{"no_logradouro":"RUA SENADOR RUI CARNEIRO"},{"nu_endereco":"S/N"},{"no_bairro":"CENTRO"},{"nu_telefone":"(83)3691037"},{"co_cep":"58396000"},{"uf":"PB"},{"cidade":"Arara"},{"ano_ubs_det":"2016"},{"mes_ubs_det":"5"}],"geometry":{"type":"Point","coordinates":[-35.75831,-6.83085]}},{"type":"Feature","properties":[{"gid":"1894"},{"co_cnes":"6443591"},{"lat":"-6.59403920173626"},{"long":"-35.0560855865468"},{"no_fantasia":"UNIDADE MISTA DE SAUDE BOM JESUS"},{"no_logradouro":"RODOVIA PB N 065"},{"nu_endereco":"S/N"},{"no_bairro":"PLANALTO I"},{"nu_telefone":"(83) 3297-1318"},{"co_cep":"58292000"},{"uf":"PB"},{"cidade":"Mataraca"},{"ano_ubs_det":"2016"},{"mes_ubs_det":"5"}],"geometry":{"type":"Point","coordinates":[-35.056085586547,-6.5940392017363]}},{"type":"Feature","properties":[{"gid":"1677"},{"co_cnes":"2362732"},{"lat":"-7.22149704"},{"long":"-35.8838591147815"},{"no_fantasia":"UBS JARDIM CONTINENTAL"},{"no_logradouro":"RUA ANTONIO A DE LIMA"},{"nu_endereco":"297"},{"no_bairro":"JARDIM CONTINENTAL"},{"nu_telefone":"(83)33106344"},{"co_cep":"58416293"},{"uf":"PB"},{"cidade":"Campina Grande"},{"ano_ubs_det":"2016"},{"mes_ubs_det":"5"}],"geometry":{"type":"Point","coordinates":[-35.883859114782,-7.22149704]}},{"type":"Feature","properties":[{"gid":"1847"},{"co_cnes":"2605058"},{"lat":"-7.56022508662484"},{"long":"-38.5091579595304"},{"no_fantasia":"UNID BAS PSF N S DE FATIMA"},{"no_logradouro":"RUA PROJETADA"},{"nu_endereco":"S/N"},{"no_bairro":"N S DE FATIMA"},{"nu_telefone":"(83)4532450"},{"co_cep":"58970000"},{"uf":"PB"},{"cidade":"Conceição"},{"ano_ubs_det":"2016"},{"mes_ubs_det":"5"}],"geometry":{"type":"Point","coordinates":[-38.50915795953,-7.5602250866248]}},{"type":"Feature","properties":[{"gid":"1930"},{"co_cnes":"2341433"},{"lat":"-6.94534420967082"},{"long":"-35.2202796936025"},{"no_fantasia":"UNIDADE SAUDE DA FAMILIAPSF VI INHAUA"},{"no_logradouro":"SITIO INHAUA"},{"nu_endereco":"S/N"},{"no_bairro":"ZINA RURAL"},{"nu_telefone":"(83)2832446"},{"co_cep":"58340000"},{"uf":"PB"},{"cidade":"Sapé"},{"ano_ubs_det":"2016"},{"mes_ubs_det":"5"}],"geometry":{"type":"Point","coordinates":[-35.220279693602,-6.9453442096708]}},{"type":"Feature","properties":[{"gid":"1981"},{"co_cnes":"2341816"},{"lat":"-7.22048912283316"},{"long":"-36.6309754330546"},{"no_fantasia":"UBSF LINA MARIA DE JESUS"},{"no_logradouro":"RUA HUMBERTO MATIAS DE MEDEIROS"},{"nu_endereco":"S/N"},{"no_bairro":"CENTRO"},{"nu_telefone":"8333081116"},{"co_cep":"58675000"},{"uf":"PB"},{"cidade":"Santo André"},{"ano_ubs_det":"2016"},{"mes_ubs_det":"5"}],"geometry":{"type":"Point","coordinates":[-36.630975433055,-7.2204891228332]}},{"type":"Feature","properties":[{"gid":"2279"},{"co_cnes":"3900010"},{"lat":"-7.69698308434495"},{"long":"-37.0823339751871"},{"no_fantasia":"UBSF SONIA MARIA CLEMENTE FIRMINO ESF II"},{"no_logradouro":"AMARO JOSE DE MELO"},{"nu_endereco":"92"},{"no_bairro":"CENTRO"},{"nu_telefone":"(83)3390-1020"},{"co_cep":"58550000"},{"uf":"PB"},{"cidade":"Prata"},{"ano_ubs_det":"2016"},{"mes_ubs_det":"5"}],"geometry":{"type":"Point","coordinates":[-37.082333975187,-7.696983084345]}},{"type":"Feature","properties":[{"gid":"2129"},{"co_cnes":"2592495"},{"lat":"-7.24765"},{"long":"-36.48736"},{"no_fantasia":"UBSF ALBERTO VOUBAN BURITI DE OLIVEIRA"},{"no_logradouro":"RUA GENUINA PESSOA"},{"nu_endereco":"353"},{"no_bairro":"CENTRO"},{"nu_telefone":"(83)33861048"},{"co_cep":"58670000"},{"uf":"PB"},{"cidade":"Gurjão"},{"ano_ubs_det":"2016"},{"mes_ubs_det":"5"}],"geometry":{"type":"Point","coordinates":[-36.48736,-7.24765]}},{"type":"Feature","properties":[{"gid":"2135"},{"co_cnes":"2608472"},{"lat":"-7.28822"},{"long":"-35.60413"},{"no_fantasia":"USF III JARDIM FARIAS"},{"no_logradouro":"RUA FRANCISCO FARIAS DE BRAGA"},{"nu_endereco":"S/N"},{"no_bairro":"JARDIM FARIAS"},{"nu_telefone":"(83)3941251"},{"co_cep":"58380000"},{"uf":"PB"},{"cidade":"Ingá"},{"ano_ubs_det":"2016"},{"mes_ubs_det":"5"}],"geometry":{"type":"Point","coordinates":[-35.60413,-7.28822]}},{"type":"Feature","properties":[{"gid":"2400"},{"co_cnes":"2363488"},{"lat":"-8.05439472198463"},{"long":"-37.0140981674184"},{"no_fantasia":"ESF 02"},{"no_logradouro":"SITIO SANTO ANTONIO"},{"nu_endereco":"S/N"},{"no_bairro":"ZONA RURAL"},{"nu_telefone":""},{"co_cep":"58510000"},{"uf":"PB"},{"cidade":"São Sebastião do Umbuzeiro"},{"ano_ubs_det":"2016"},{"mes_ubs_det":"5"}],"geometry":{"type":"Point","coordinates":[-37.014098167418,-8.0543947219846]}},{"type":"Feature","properties":[{"gid":"2281"},{"co_cnes":"3309991"},{"lat":"-6.1867403984068"},{"long":"-37.5348114967335"},{"no_fantasia":"ESF 02"},{"no_logradouro":"VENANCIO CLEMENTINO LINHARES"},{"nu_endereco":"S/N"},{"no_bairro":"CENTRO"},{"nu_telefone":"(83)34471126"},{"co_cep":"58895000"},{"uf":"PB"},{"cidade":"Belém do Brejo do Cruz"},{"ano_ubs_det":"2016"},{"mes_ubs_det":"5"}],"geometry":{"type":"Point","coordinates":[-37.534811496733,-6.1867403984068]}},{"type":"Feature","properties":[{"gid":"2243"},{"co_cnes":"2595435"},{"lat":"-7.23066"},{"long":"-35.88039"},{"no_fantasia":"UBS JOSE AURINO DE BARROS FILHO"},{"no_logradouro":"RUA JOAO BENONE DE ANDRADE"},{"nu_endereco":"S/N"},{"no_bairro":"CATOLE"},{"nu_telefone":"(83)33107085"},{"co_cep":"58410336"},{"uf":"PB"},{"cidade":"Campina Grande"},{"ano_ubs_det":"2016"},{"mes_ubs_det":"5"}],"geometry":{"type":"Point","coordinates":[-35.88039,-7.23066]}},{"type":"Feature","properties":[{"gid":"2426"},{"co_cnes":"3562417"},{"lat":"-7.06095"},{"long":"-35.76164"},{"no_fantasia":"UBSF DR NELUSKO CIDADE III"},{"no_logradouro":"RUA APOLONIO BORGES"},{"nu_endereco":"S/N"},{"no_bairro":"CENTRO"},{"nu_telefone":"(83)3651742"},{"co_cep":"58125000"},{"uf":"PB"},{"cidade":"Alagoa Nova"},{"ano_ubs_det":"2016"},{"mes_ubs_det":"5"}],"geometry":{"type":"Point","coordinates":[-35.76164,-7.06095]}},{"type":"Feature","properties":[{"gid":"2563"},{"co_cnes":"2322137"},{"lat":"-6.50232911109905"},{"long":"-38.5116720199574"},{"no_fantasia":"UNIDADE DE SAUDE DA FAMILIA II VILA MACENA"},{"no_logradouro":"SITIO DOIS RIACHOS"},{"nu_endereco":"S/N"},{"no_bairro":"ZONA RURAL"},{"nu_telefone":""},{"co_cep":"58920000"},{"uf":"PB"},{"cidade":"Triunfo"},{"ano_ubs_det":"2016"},{"mes_ubs_det":"5"}],"geometry":{"type":"Point","coordinates":[-38.511672019957,-6.5023291110991]}},{"type":"Feature","properties":[{"gid":"2556"},{"co_cnes":"2604892"},{"lat":"-7.24988222122171"},{"long":"-38.3013439178456"},{"no_fantasia":"POSTO DE SAUDE PANELAS"},{"no_logradouro":"RUA PROJETADA"},{"nu_endereco":"S/N"},{"no_bairro":"ZONA RURAL"},{"nu_telefone":"(83)4891060"},{"co_cep":"58784000"},{"uf":"PB"},{"cidade":"São José de Caiana"},{"ano_ubs_det":"2016"},{"mes_ubs_det":"5"}],"geometry":{"type":"Point","coordinates":[-38.301343917846,-7.2498822212217]}},{"type":"Feature","properties":[{"gid":"2498"},{"co_cnes":"2342340"},{"lat":"-6.90502524375895"},{"long":"-36.0083770751943"},{"no_fantasia":"UNIDADE BASICA DE SAUDE DA FAMILIA"},{"no_logradouro":"RUA CONEGO RODRIGUES FIDELIS"},{"nu_endereco":"198"},{"no_bairro":"CENTRO"},{"nu_telefone":"83 36321068"},{"co_cep":"58399000"},{"uf":"PB"},{"cidade":"Algodão de Jandaíra"},{"ano_ubs_det":"2016"},{"mes_ubs_det":"5"}],"geometry":{"type":"Point","coordinates":[-36.008377075194,-6.905025243759]}},{"type":"Feature","properties":[{"gid":"2538"},{"co_cnes":"5053226"},{"lat":"-7.22149704"},{"long":"-35.8838591147815"},{"no_fantasia":"UBS JEREMIAS II"},{"no_logradouro":"RUA SAO BENEDITO"},{"nu_endereco":"S/N"},{"no_bairro":"JEREMIAS"},{"nu_telefone":"(83)33227485"},{"co_cep":"58404075"},{"uf":"PB"},{"cidade":"Campina Grande"},{"ano_ubs_det":"2016"},{"mes_ubs_det":"5"}],"geometry":{"type":"Point","coordinates":[-35.883859114782,-7.22149704]}},{"type":"Feature","properties":[{"gid":"2448"},{"co_cnes":"2364069"},{"lat":"-7.37495775502351"},{"long":"-35.6281612500039"},{"no_fantasia":"UBSF III MARIA LUCIENE DE BRITO PEREIRA"},{"no_logradouro":"RUA PREFEITO HONORIO VALERIANO"},{"nu_endereco":"100"},{"no_bairro":"SANTO ANTONIO"},{"nu_telefone":"83 33981020"},{"co_cep":"58378000"},{"uf":"PB"},{"cidade":"Itatuba"},{"ano_ubs_det":"2016"},{"mes_ubs_det":"5"}],"geometry":{"type":"Point","coordinates":[-35.628161250004,-7.3749577550235]}},{"type":"Feature","properties":[{"gid":"3062"},{"co_cnes":"5058252"},{"lat":"-7.3550784587858"},{"long":"-35.9202718734731"},{"no_fantasia":"UBSF GURITIBA"},{"no_logradouro":"SITIO GURITIBA"},{"nu_endereco":"S/N"},{"no_bairro":"ZONA RURAL"},{"nu_telefone":"833392"},{"co_cep":"58475000"},{"uf":"PB"},{"cidade":"Queimadas"},{"ano_ubs_det":"2016"},{"mes_ubs_det":"5"}],"geometry":{"type":"Point","coordinates":[-35.920271873473,-7.3550784587858]}},{"type":"Feature","properties":[{"gid":"2813"},{"co_cnes":"3014304"},{"lat":"-7.17696744636003"},{"long":"-34.9173576478958"},{"no_fantasia":"USF INTEGRADA BAIRRO DAS INDUSTRIAS"},{"no_logradouro":"RUA MANOEL DE PAULA MAGALHAES"},{"nu_endereco":"S/N"},{"no_bairro":"DAS INDUSTRIAS"},{"nu_telefone":"(83)3218-9703"},{"co_cep":"58083090"},{"uf":"PB"},{"cidade":"João Pessoa"},{"ano_ubs_det":"2016"},{"mes_ubs_det":"5"}],"geometry":{"type":"Point","coordinates":[-34.917357647896,-7.17696744636]}},{"type":"Feature","properties":[{"gid":"3155"},{"co_cnes":"2592371"},{"lat":"-7.17931929137952"},{"long":"-38.1466946448252"},{"no_fantasia":"UBS RODOLFO CAVALCANTE PSF I"},{"no_logradouro":"RUA BERNARDINO LOPES DE SOUZA"},{"nu_endereco":"S/N"},{"no_bairro":"CENTRO"},{"nu_telefone":"83-3480-1124"},{"co_cep":"58775000"},{"uf":"PB"},{"cidade":"Igaracy"},{"ano_ubs_det":"2016"},{"mes_ubs_det":"5"}],"geometry":{"type":"Point","coordinates":[-38.146694644825,-7.1793192913795]}},{"type":"Feature","properties":[{"gid":"2998"},{"co_cnes":"2342618"},{"lat":"-6.48555530115429"},{"long":"-36.1532081655001"},{"no_fantasia":"UBSF DIOMEDES LUCAS CARVALHO"},{"no_logradouro":"RUA FRANCISCO THEODORO DA FONSECA"},{"nu_endereco":"S/N"},{"no_bairro":"SAO VICENTE"},{"nu_telefone":"83998807273"},{"co_cep":"58175000"},{"uf":"PB"},{"cidade":"Cuité"},{"ano_ubs_det":"2016"},{"mes_ubs_det":"5"}],"geometry":{"type":"Point","coordinates":[-36.1532081655,-6.4855553011543]}},{"type":"Feature","properties":[{"gid":"3177"},{"co_cnes":"5487684"},{"lat":"-7.01574683189372"},{"long":"-37.2818684577931"},{"no_fantasia":"UNIDADE DE SAUDE DA FAMILIA ERNESTO SOARES ALVES"},{"no_logradouro":"AV HUNGRIA"},{"nu_endereco":"49"},{"no_bairro":"JD EUROPA"},{"nu_telefone":""},{"co_cep":"58700970"},{"uf":"PB"},{"cidade":"Patos"},{"ano_ubs_det":"2016"},{"mes_ubs_det":"5"}],"geometry":{"type":"Point","coordinates":[-37.281868457793,-7.0157468318937]}},{"type":"Feature","properties":[{"gid":"3032"},{"co_cnes":"2362708"},{"lat":"-7.22149704"},{"long":"-35.8838591147815"},{"no_fantasia":"UBS TOTA AGRA"},{"no_logradouro":"RUA JOSE ADELINO MELO"},{"nu_endereco":"S/N"},{"no_bairro":"JOSE PINHEIRO"},{"nu_telefone":"(83)33106351"},{"co_cep":"58407285"},{"uf":"PB"},{"cidade":"Campina Grande"},{"ano_ubs_det":"2016"},{"mes_ubs_det":"5"}],"geometry":{"type":"Point","coordinates":[-35.883859114782,-7.22149704]}},{"type":"Feature","properties":[{"gid":"2809"},{"co_cnes":"2343312"},{"lat":"-7.05388784408549"},{"long":"-34.8993372917165"},{"no_fantasia":"UNIDADE DE PSF LIVRAMENTO"},{"no_logradouro":"TRAVESSA SAO JOSE"},{"nu_endereco":"40"},{"no_bairro":"LIVRAMENTO"},{"nu_telefone":"(83) 30499500"},{"co_cep":"58300970"},{"uf":"PB"},{"cidade":"Santa Rita"},{"ano_ubs_det":"2016"},{"mes_ubs_det":"5"}],"geometry":{"type":"Point","coordinates":[-34.899337291716,-7.0538878440855]}},{"type":"Feature","properties":[{"gid":"3088"},{"co_cnes":"3124843"},{"lat":"-7.20354"},{"long":"-38.53754"},{"no_fantasia":"POSTO DE SAUDE DE SANTA FE"},{"no_logradouro":"DISTRITO DE SANTA FE"},{"nu_endereco":"S/N"},{"no_bairro":"DISTRITO"},{"nu_telefone":"(83) 3492 1227"},{"co_cep":"58950000"},{"uf":"PB"},{"cidade":"Monte Horebe"},{"ano_ubs_det":"2016"},{"mes_ubs_det":"5"}],"geometry":{"type":"Point","coordinates":[-38.53754,-7.20354]}},{"type":"Feature","properties":[{"gid":"2921"},{"co_cnes":"2363453"},{"lat":"-7.69698308434495"},{"long":"-37.0823339751871"},{"no_fantasia":"UBSF BOAVENTURA PRISCILA NUNES DE FARIAS ESF I"},{"no_logradouro":"MANOEL GONCALVES PRATA"},{"nu_endereco":"84"},{"no_bairro":"CENTRO"},{"nu_telefone":""},{"co_cep":"58550000"},{"uf":"PB"},{"cidade":"Prata"},{"ano_ubs_det":"2016"},{"mes_ubs_det":"5"}],"geometry":{"type":"Point","coordinates":[-37.082333975187,-7.696983084345]}},{"type":"Feature","properties":[{"gid":"2873"},{"co_cnes":"2315076"},{"lat":"-6.75620555877666"},{"long":"-38.2301688194264"},{"no_fantasia":"ESF XII GUANABARA"},{"no_logradouro":"RUA SADY FERNANDES DE ARAGAO"},{"nu_endereco":"S/N"},{"no_bairro":"GATO PRETO"},{"nu_telefone":""},{"co_cep":"58806100"},{"uf":"PB"},{"cidade":"Sousa"},{"ano_ubs_det":"2016"},{"mes_ubs_det":"5"}],"geometry":{"type":"Point","coordinates":[-38.230168819426,-6.7562055587767]}},{"type":"Feature","properties":[{"gid":"2927"},{"co_cnes":"2356708"},{"lat":"-6.9783622"},{"long":"-34.8332163"},{"no_fantasia":"USF CAMALAU"},{"no_logradouro":"R JOAO CASTOR DE SENA"},{"nu_endereco":"356"},{"no_bairro":"CAMALAU"},{"nu_telefone":""},{"co_cep":"58103382"},{"uf":"PB"},{"cidade":"Cabedelo"},{"ano_ubs_det":"2016"},{"mes_ubs_det":"5"}],"geometry":{"type":"Point","coordinates":[-34.8332163,-6.9783622]}},{"type":"Feature","properties":[{"gid":"2932"},{"co_cnes":"2608219"},{"lat":"-6.68901085853557"},{"long":"-35.535192489623"},{"no_fantasia":"UNIDADE DE SAUDE DA FAMILIA PSF I VIDA NOVA"},{"no_logradouro":"RUA ADERBAL CRUZ"},{"nu_endereco":"S/N"},{"no_bairro":"CENTRO"},{"nu_telefone":"(83)2611510"},{"co_cep":"58255000"},{"uf":"PB"},{"cidade":"Belém"},{"ano_ubs_det":"2016"},{"mes_ubs_det":"5"}],"geometry":{"type":"Point","coordinates":[-35.535192489623,-6.6890108585356]}},{"type":"Feature","properties":[{"gid":"3145"},{"co_cnes":"2603705"},{"lat":"-6.73443082832051"},{"long":"-38.445453570848"},{"no_fantasia":"USF ALDENIR MEIRELES DE ALMEIDA"},{"no_logradouro":"RUA CAPITAO JOAO DANTAS ROTHEA"},{"nu_endereco":"15"},{"no_bairro":"CENTRO"},{"nu_telefone":"(83)5352469"},{"co_cep":"58910000"},{"uf":"PB"},{"cidade":"São João do Rio do Peixe"},{"ano_ubs_det":"2016"},{"mes_ubs_det":"5"}],"geometry":{"type":"Point","coordinates":[-38.445453570848,-6.7344308283205]}},{"type":"Feature","properties":[{"gid":"3410"},{"co_cnes":"3063461"},{"lat":"-7.15270042419413"},{"long":"-34.8782444000234"},{"no_fantasia":"USF INTEGRADA ESPACO SAUDE"},{"no_logradouro":"RUA HORACIO TRAJANO DE OLIVIERA"},{"nu_endereco":"S/N"},{"no_bairro":"CRISTO"},{"nu_telefone":"(83) 3218-5242"},{"co_cep":"58070470"},{"uf":"PB"},{"cidade":"João Pessoa"},{"ano_ubs_det":"2016"},{"mes_ubs_det":"5"}],"geometry":{"type":"Point","coordinates":[-34.878244400023,-7.1527004241941]}},{"type":"Feature","properties":[{"gid":"3365"},{"co_cnes":"2322315"},{"lat":"-7.892217"},{"long":"-37.1226806805604"},{"no_fantasia":"USF 06 AMADEU ALEIXO FERNANDES"},{"no_logradouro":"SITIO SANTA CATARINA"},{"nu_endereco":"S/N"},{"no_bairro":"ZONA RURAL"},{"nu_telefone":""},{"co_cep":"58500000"},{"uf":"PB"},{"cidade":"Monteiro"},{"ano_ubs_det":"2016"},{"mes_ubs_det":"5"}],"geometry":{"type":"Point","coordinates":[-37.12268068056,-7.892217]}},{"type":"Feature","properties":[{"gid":"3508"},{"co_cnes":"2313502"},{"lat":"-6.7827057838438"},{"long":"-38.2491803169239"},{"no_fantasia":"ESF II MUTIRAO"},{"no_logradouro":"R VER JOSE GONCALVES FORMIGA"},{"nu_endereco":"S/N"},{"no_bairro":"AUGUSTO BRAGA"},{"nu_telefone":""},{"co_cep":"58808470"},{"uf":"PB"},{"cidade":"Sousa"},{"ano_ubs_det":"2016"},{"mes_ubs_det":"5"}],"geometry":{"type":"Point","coordinates":[-38.249180316924,-6.7827057838438]}},{"type":"Feature","properties":[{"gid":"3266"},{"co_cnes":"7558155"},{"lat":"-7.20678"},{"long":"-37.05458"},{"no_fantasia":"ESTRATEGIA SAUDE DA FAMILIA CICERO PEDRO DA SILVA"},{"no_logradouro":"SITIO MONTEIRO"},{"nu_endereco":"S/N"},{"no_bairro":"ZONA RURAL"},{"nu_telefone":""},{"co_cep":"58698000"},{"uf":"PB"},{"cidade":"Cacimbas"},{"ano_ubs_det":"2016"},{"mes_ubs_det":"5"}],"geometry":{"type":"Point","coordinates":[-37.05458,-7.20678]}},{"type":"Feature","properties":[{"gid":"3428"},{"co_cnes":"3442101"},{"lat":"-7.14864"},{"long":"-34.83522"},{"no_fantasia":"USF INTEGRADA BANCARIOS"},{"no_logradouro":"RUA ESMERALDA GOMES VIEIRA"},{"nu_endereco":"S/N"},{"no_bairro":"BANCARIOS"},{"nu_telefone":"32145709"},{"co_cep":"58051650"},{"uf":"PB"},{"cidade":"João Pessoa"},{"ano_ubs_det":"2016"},{"mes_ubs_det":"5"}],"geometry":{"type":"Point","coordinates":[-34.83522,-7.14864]}},{"type":"Feature","properties":[{"gid":"3235"},{"co_cnes":"2757419"},{"lat":"-7.48264791987131"},{"long":"-36.133404750711"},{"no_fantasia":"UBSF CENTRO"},{"no_logradouro":"RUA NOSSA SENHORA DO DESTERRO"},{"nu_endereco":"S/N"},{"no_bairro":"CENTRO"},{"nu_telefone":"(83)33911299"},{"co_cep":"58450000"},{"uf":"PB"},{"cidade":"Boqueirão"},{"ano_ubs_det":"2016"},{"mes_ubs_det":"5"}],"geometry":{"type":"Point","coordinates":[-36.133404750711,-7.4826479198713]}},{"type":"Feature","properties":[{"gid":"3978"},{"co_cnes":"2322471"},{"lat":"-7.67105361514705"},{"long":"-36.8802761457321"},{"no_fantasia":"UBSF ENF JOSE FELINTO ESF III"},{"no_logradouro":"RUA MAESTRO ANTONIO JOSUE DE LIMA"},{"nu_endereco":"S/N"},{"no_bairro":"CONJHABITACIONAL"},{"nu_telefone":"(83)33532119"},{"co_cep":"58540000"},{"uf":"PB"},{"cidade":"Sumé"},{"ano_ubs_det":"2016"},{"mes_ubs_det":"5"}],"geometry":{"type":"Point","coordinates":[-36.880276145732,-7.6710536151471]}},{"type":"Feature","properties":[{"gid":"3823"},{"co_cnes":"3562220"},{"lat":"-7.06340432167033"},{"long":"-35.7659912109365"},{"no_fantasia":"UBSF MANOEL ELISEU"},{"no_logradouro":"RUA JOSE SALDANHA"},{"nu_endereco":"S/N"},{"no_bairro":"CENTRO"},{"nu_telefone":"(83)3651742"},{"co_cep":"58125000"},{"uf":"PB"},{"cidade":"Alagoa Nova"},{"ano_ubs_det":"2016"},{"mes_ubs_det":"5"}],"geometry":{"type":"Point","coordinates":[-35.765991210936,-7.0634043216703]}},{"type":"Feature","properties":[{"gid":"3757"},{"co_cnes":"2505002"},{"lat":"-6.97322845458964"},{"long":"-38.450002670287"},{"no_fantasia":"UNIDADE SAUDE DA FAMILIA JOSE LOPES DE LIRA BUQUEIRAO"},{"no_logradouro":"RUA NOSSA SENHORA DE APARECIDA"},{"nu_endereco":"01"},{"no_bairro":"DIST DE ENG AVIDOS"},{"nu_telefone":"(08)3531439"},{"co_cep":"58900000"},{"uf":"PB"},{"cidade":"Cajazeiras"},{"ano_ubs_det":"2016"},{"mes_ubs_det":"5"}],"geometry":{"type":"Point","coordinates":[-38.450002670287,-6.9732284545896]}},{"type":"Feature","properties":[{"gid":"3886"},{"co_cnes":"2592975"},{"lat":"-7.04944610595683"},{"long":"-35.1986074447622"},{"no_fantasia":"UNIDADE SAUDE DA FAMILIAPSF V RENASCENCA"},{"no_logradouro":"SITI O ESPERANCA"},{"nu_endereco":"S/N"},{"no_bairro":"ZONA RURAL"},{"nu_telefone":"(83)"},{"co_cep":"58340000"},{"uf":"PB"},{"cidade":"Sapé"},{"ano_ubs_det":"2016"},{"mes_ubs_det":"5"}],"geometry":{"type":"Point","coordinates":[-35.198607444762,-7.0494461059568]}},{"type":"Feature","properties":[{"gid":"3996"},{"co_cnes":"2504847"},{"lat":"-6.8904645"},{"long":"-38.5605303718409"},{"no_fantasia":"UNIDADE SAUDE DA FAMILIA FRANCISCO VALIOMAR ROLIM"},{"no_logradouro":"RUA FRANCISCO ALMAIR FURTADO"},{"nu_endereco":"S/N"},{"no_bairro":"SOL NASCENTE"},{"nu_telefone":"(83)35311487"},{"co_cep":"58900000"},{"uf":"PB"},{"cidade":"Cajazeiras"},{"ano_ubs_det":"2016"},{"mes_ubs_det":"5"}],"geometry":{"type":"Point","coordinates":[-38.560530371841,-6.8904645]}},{"type":"Feature","properties":[{"gid":"3737"},{"co_cnes":"2592347"},{"lat":"-7.42228214528532"},{"long":"-38.2189508765067"},{"no_fantasia":"PSF II ARSENIO ALVES"},{"no_logradouro":"RUA ARTHUR GUIMARAES"},{"nu_endereco":"S/N"},{"no_bairro":"CONJUNTO ARSENIO ALL"},{"nu_telefone":""},{"co_cep":"58993000"},{"uf":"PB"},{"cidade":"Boa Ventura"},{"ano_ubs_det":"2016"},{"mes_ubs_det":"5"}],"geometry":{"type":"Point","coordinates":[-38.218950876507,-7.4222821452853]}},{"type":"Feature","properties":[{"gid":"3643"},{"co_cnes":"2607840"},{"lat":"-7.58294117731769"},{"long":"-35.7906509034521"},{"no_fantasia":"ESF ABDIAS ALBUQUERQUE DE FARIAS"},{"no_logradouro":"RUA JOSE PEREIRA DE AGUIAR"},{"nu_endereco":"S/N"},{"no_bairro":"CENTRO"},{"nu_telefone":"8333471074"},{"co_cep":"58492000"},{"uf":"PB"},{"cidade":"Gado Bravo"},{"ano_ubs_det":"2016"},{"mes_ubs_det":"5"}],"geometry":{"type":"Point","coordinates":[-35.790650903452,-7.5829411773177]}},{"type":"Feature","properties":[{"gid":"3673"},{"co_cnes":"2605937"},{"lat":"-7.43806600570657"},{"long":"-35.9016251564015"},{"no_fantasia":"UBSF RIACHO DO MEIO"},{"no_logradouro":"SITIO RIACHO DO MEIO"},{"nu_endereco":"S/N"},{"no_bairro":"ZONA RURAL"},{"nu_telefone":"(83)33921109"},{"co_cep":"58475000"},{"uf":"PB"},{"cidade":"Queimadas"},{"ano_ubs_det":"2016"},{"mes_ubs_det":"5"}],"geometry":{"type":"Point","coordinates":[-35.901625156402,-7.4380660057066]}},{"type":"Feature","properties":[{"gid":"4060"},{"co_cnes":"2362678"},{"lat":"-7.2536981"},{"long":"-35.8893265"},{"no_fantasia":"UBS TAMBOR I"},{"no_logradouro":"RUA DO JUA"},{"nu_endereco":"S/N"},{"no_bairro":"TAMBOR"},{"nu_telefone":"(83)33155161"},{"co_cep":"58414562"},{"uf":"PB"},{"cidade":"Campina Grande"},{"ano_ubs_det":"2016"},{"mes_ubs_det":"5"}],"geometry":{"type":"Point","coordinates":[-35.8893265,-7.2536981]}},{"type":"Feature","properties":[{"gid":"4199"},{"co_cnes":"2537036"},{"lat":"-7.66755580902077"},{"long":"-36.8784642219533"},{"no_fantasia":"UBSF DR NILO FEITOSA ESF 1"},{"no_logradouro":"RUA VICENTE PRETO"},{"nu_endereco":"S/N"},{"no_bairro":"ALTO ALEGRE"},{"nu_telefone":"(83)353 2647"},{"co_cep":"58540000"},{"uf":"PB"},{"cidade":"Sumé"},{"ano_ubs_det":"2016"},{"mes_ubs_det":"5"}],"geometry":{"type":"Point","coordinates":[-36.878464221953,-7.6675558090208]}},{"type":"Feature","properties":[{"gid":"4260"},{"co_cnes":"2341239"},{"lat":"-6.45948391689422"},{"long":"-38.4406337141991"},{"no_fantasia":"UNIDADE SAUDE DA FAMILIA VII FIRMO JOSE DE ANDRADE"},{"no_logradouro":"DISTRITO DE AREIAS"},{"nu_endereco":"S/N"},{"no_bairro":"DISTRITO"},{"nu_telefone":"8335341177"},{"co_cep":"58915000"},{"uf":"PB"},{"cidade":"Uiraúna"},{"ano_ubs_det":"2016"},{"mes_ubs_det":"5"}],"geometry":{"type":"Point","coordinates":[-38.440633714199,-6.4594839168942]}},{"type":"Feature","properties":[{"gid":"4385"},{"co_cnes":"6538096"},{"lat":"-6.50636315345745"},{"long":"-36.0304570198049"},{"no_fantasia":"UBSF ASSENTAMENTO RETIRO E BATENTES"},{"no_logradouro":"SITIO BATENTES"},{"nu_endereco":"S/N"},{"no_bairro":"ZONA RURAL"},{"nu_telefone":"83999909304"},{"co_cep":"58175000"},{"uf":"PB"},{"cidade":"Cuité"},{"ano_ubs_det":"2016"},{"mes_ubs_det":"5"}],"geometry":{"type":"Point","coordinates":[-36.030457019805,-6.5063631534574]}},{"type":"Feature","properties":[{"gid":"4036"},{"co_cnes":"3063577"},{"lat":"-7.17062"},{"long":"-34.8315"},{"no_fantasia":"USF INTEGRADA COMPLEXO VERDE MARES"},{"no_logradouro":"RUA JOSE EUSTAQUIO DA FONSECA"},{"nu_endereco":"S/N"},{"no_bairro":"MANGABEIRA VIII"},{"nu_telefone":"986458327"},{"co_cep":"58058000"},{"uf":"PB"},{"cidade":"João Pessoa"},{"ano_ubs_det":"2016"},{"mes_ubs_det":"5"}],"geometry":{"type":"Point","coordinates":[-34.8315,-7.17062]}},{"type":"Feature","properties":[{"gid":"4345"},{"co_cnes":"2321602"},{"lat":"-7.6343578"},{"long":"-37.876483"},{"no_fantasia":"ESF UBS I JOAQUIM BERNARDINO DO NASCIMENTO"},{"no_logradouro":"RUA JOSE ROCHA"},{"nu_endereco":"S/N"},{"no_bairro":"CASA NOVA"},{"nu_telefone":"(83)4501179"},{"co_cep":"58753000"},{"uf":"PB"},{"cidade":"Tavares"},{"ano_ubs_det":"2016"},{"mes_ubs_det":"5"}],"geometry":{"type":"Point","coordinates":[-37.876483,-7.6343578]}},{"type":"Feature","properties":[{"gid":"4073"},{"co_cnes":"2342499"},{"lat":"-6.98747634887675"},{"long":"-34.8752188682546"},{"no_fantasia":"UNIDADE DE PSF FORTE VELHORIBEIRA"},{"no_logradouro":"DISTRITO DE FORTE VELHO"},{"nu_endereco":"135"},{"no_bairro":"ZONA RURAL"},{"nu_telefone":"(83) 30499500"},{"co_cep":"58300970"},{"uf":"PB"},{"cidade":"Santa Rita"},{"ano_ubs_det":"2016"},{"mes_ubs_det":"5"}],"geometry":{"type":"Point","coordinates":[-34.875218868255,-6.9874763488767]}},{"type":"Feature","properties":[{"gid":"4309"},{"co_cnes":"2343266"},{"lat":"-7.08358526229838"},{"long":"-35.2415013313283"},{"no_fantasia":"UNIDADE SAUDE DA FAMILIAPSF II TERRA NOVA"},{"no_logradouro":"RUA PROJETADA"},{"nu_endereco":"S/N"},{"no_bairro":"TERRA NOVA"},{"nu_telefone":""},{"co_cep":"58340000"},{"uf":"PB"},{"cidade":"Sapé"},{"ano_ubs_det":"2016"},{"mes_ubs_det":"5"}],"geometry":{"type":"Point","coordinates":[-35.241501331328,-7.0835852622984]}},{"type":"Feature","properties":[{"gid":"4222"},{"co_cnes":"2758008"},{"lat":"-6.59132061487884"},{"long":"-35.4437828063965"},{"no_fantasia":"UNIDADE DE SAUDE PEDRO FRANCISCO SOARES LOGRADOURO"},{"no_logradouro":"VILA NOVA DESCOBERTA"},{"nu_endereco":"32"},{"no_bairro":"ZONA RURAL"},{"nu_telefone":"(83)33701327"},{"co_cep":"58254000"},{"uf":"PB"},{"cidade":"Logradouro"},{"ano_ubs_det":"2016"},{"mes_ubs_det":"5"}],"geometry":{"type":"Point","coordinates":[-35.443782806396,-6.5913206148788]}},{"type":"Feature","properties":[{"gid":"4273"},{"co_cnes":"4015029"},{"lat":"-6.78369514151856"},{"long":"-38.0833382545418"},{"no_fantasia":"PSF III DE APARECIDA"},{"no_logradouro":"DISTRITO DE PRENSA"},{"nu_endereco":"S/N"},{"no_bairro":"DISTRITO"},{"nu_telefone":""},{"co_cep":"58823000"},{"uf":"PB"},{"cidade":"Aparecida"},{"ano_ubs_det":"2016"},{"mes_ubs_det":"5"}],"geometry":{"type":"Point","coordinates":[-38.083338254542,-6.7836951415186]}},{"type":"Feature","properties":[{"gid":"4024"},{"co_cnes":"3006182"},{"lat":"-7.14938202"},{"long":"-34.8733848135386"},{"no_fantasia":"USF IPES"},{"no_logradouro":"RUA GERALDO FAGUNDES DE ARAUJO"},{"nu_endereco":"S/N"},{"no_bairro":"IPES"},{"nu_telefone":"(83)2147139"},{"co_cep":"58028858"},{"uf":"PB"},{"cidade":"João Pessoa"},{"ano_ubs_det":"2016"},{"mes_ubs_det":"5"}],"geometry":{"type":"Point","coordinates":[-34.873384813539,-7.14938202]}},{"type":"Feature","properties":[{"gid":"4044"},{"co_cnes":"2757958"},{"lat":"-7.25761"},{"long":"-37.42934"},{"no_fantasia":"USF MAE DAGUA"},{"no_logradouro":"RUA SAO SEBASTIAO"},{"nu_endereco":"12"},{"no_bairro":"CENTRO"},{"nu_telefone":"(83)4281002"},{"co_cep":"58740000"},{"uf":"PB"},{"cidade":"Mãe d'Água"},{"ano_ubs_det":"2016"},{"mes_ubs_det":"5"}],"geometry":{"type":"Point","coordinates":[-37.42934,-7.25761]}},{"type":"Feature","properties":[{"gid":"4023"},{"co_cnes":"2321459"},{"lat":"-7.03094959259013"},{"long":"-37.1492815017689"},{"no_fantasia":"USF ROBSON CARNEIRO PEREIRA"},{"no_logradouro":"RUA DO ALTO"},{"nu_endereco":"S/N"},{"no_bairro":"CENTRO"},{"nu_telefone":""},{"co_cep":"58733000"},{"uf":"PB"},{"cidade":"Quixabá"},{"ano_ubs_det":"2016"},{"mes_ubs_det":"5"}],"geometry":{"type":"Point","coordinates":[-37.149281501769,-7.0309495925901]}},{"type":"Feature","properties":[{"gid":"4293"},{"co_cnes":"2322110"},{"lat":"-6.92393585280371"},{"long":"-38.6783031916558"},{"no_fantasia":"UNIDADE BASICA SAUDE DA FAMILIA I CENTRO"},{"no_logradouro":"RUA JOSE LEITE ROLIM"},{"nu_endereco":"S/N"},{"no_bairro":"CENTRO"},{"nu_telefone":"(83) 35581021"},{"co_cep":"58935000"},{"uf":"PB"},{"cidade":"Cachoeira dos Índios"},{"ano_ubs_det":"2016"},{"mes_ubs_det":"5"}],"geometry":{"type":"Point","coordinates":[-38.678303191656,-6.9239358528037]}},{"type":"Feature","properties":[{"gid":"4710"},{"co_cnes":"2322587"},{"lat":"-7.020685"},{"long":"-35.8585932869695"},{"no_fantasia":"UBSF SAO FRANCISCO JOSE JOUBERT ALCOFORADO"},{"no_logradouro":"RUA 13 DE MAIO"},{"nu_endereco":"S/N"},{"no_bairro":"CENTRO"},{"nu_telefone":"83-33612765"},{"co_cep":"58135000"},{"uf":"PB"},{"cidade":"Esperança"},{"ano_ubs_det":"2016"},{"mes_ubs_det":"5"}],"geometry":{"type":"Point","coordinates":[-35.85859328697,-7.020685]}},{"type":"Feature","properties":[{"gid":"4402"},{"co_cnes":"2321912"},{"lat":"-7.20952640226047"},{"long":"-38.5836574944155"},{"no_fantasia":"CENTRO DE SAUDE JOAQUIM SARAIVA DE MOURA"},{"no_logradouro":"RUA TIBURTINO DIAS"},{"nu_endereco":"36"},{"no_bairro":"CENTRO"},{"nu_telefone":"(83) 3492-1227"},{"co_cep":"58950000"},{"uf":"PB"},{"cidade":"Monte Horebe"},{"ano_ubs_det":"2016"},{"mes_ubs_det":"5"}],"geometry":{"type":"Point","coordinates":[-38.583657494415,-7.2095264022605]}},{"type":"Feature","properties":[{"gid":"4514"},{"co_cnes":"2613042"},{"lat":"-7.69029534454018"},{"long":"-36.1567097727418"},{"no_fantasia":"UBSF MAURICIO TRAVASSOS MOURA"},{"no_logradouro":"RUA CEL DEMOSTENES BARBOSA"},{"nu_endereco":"407"},{"no_bairro":"CENTRO"},{"nu_telefone":"(83)36411087"},{"co_cep":"58465000"},{"uf":"PB"},{"cidade":"Riacho de Santo Antônio"},{"ano_ubs_det":"2016"},{"mes_ubs_det":"5"}],"geometry":{"type":"Point","coordinates":[-36.156709772742,-7.6902953445402]}},{"type":"Feature","properties":[{"gid":"29251"},{"co_cnes":"2362171"},{"lat":"-6.5730643272398"},{"long":"-38.5121870040882"},{"no_fantasia":"UBS ADILIA ALVES DE MOURA"},{"no_logradouro":"RUA JOSE DE MOURA"},{"nu_endereco":"S/N"},{"no_bairro":"CENTRO"},{"nu_telefone":"(83)35641008"},{"co_cep":"58908000"},{"uf":"PB"},{"cidade":"Poço de José de Moura"},{"ano_ubs_det":"2016"},{"mes_ubs_det":"5"}],"geometry":{"type":"Point","coordinates":[-38.512187004088,-6.5730643272398]}},{"type":"Feature","properties":[{"gid":"4754"},{"co_cnes":"2591596"},{"lat":"-6.69008374214153"},{"long":"-35.3460216522206"},{"no_fantasia":"UNIDADE SAUDE DA FAMILIA DE BOM JESUS PSF II"},{"no_logradouro":"DISTRITO BOM JESUS"},{"nu_endereco":"01"},{"no_bairro":"DISTRITO"},{"nu_telefone":"(83)32631062"},{"co_cep":"58250000"},{"uf":"PB"},{"cidade":"Lagoa de Dentro"},{"ano_ubs_det":"2016"},{"mes_ubs_det":"5"}],"geometry":{"type":"Point","coordinates":[-35.346021652221,-6.6900837421415]}},{"type":"Feature","properties":[{"gid":"4719"},{"co_cnes":"2608227"},{"lat":"-6.72009229660015"},{"long":"-35.5405569076528"},{"no_fantasia":"UNIDADE DE SAUDE DA FAMILIA PSF II RUA NOVA"},{"no_logradouro":"RUA NOVA"},{"nu_endereco":"S/N"},{"no_bairro":"CENTRO"},{"nu_telefone":"(83)2611510"},{"co_cep":"58255000"},{"uf":"PB"},{"cidade":"Belém"},{"ano_ubs_det":"2016"},{"mes_ubs_det":"5"}],"geometry":{"type":"Point","coordinates":[-35.540556907653,-6.7200922966001]}},{"type":"Feature","properties":[{"gid":"4774"},{"co_cnes":"2363631"},{"lat":"-7.4015385"},{"long":"-35.1131779827065"},{"no_fantasia":"UNIDADE DE SAUDE DA FAMILIA DE UNA DE SAO JOSE"},{"no_logradouro":"SITIO UNA DE SAO JOSE"},{"nu_endereco":"S/N"},{"no_bairro":"ZONA RURAL"},{"nu_telefone":"(83)2491065"},{"co_cep":"58328000"},{"uf":"PB"},{"cidade":"Pedras de Fogo"},{"ano_ubs_det":"2016"},{"mes_ubs_det":"5"}],"geometry":{"type":"Point","coordinates":[-35.113177982707,-7.4015385]}},{"type":"Feature","properties":[{"gid":"4564"},{"co_cnes":"2607530"},{"lat":"-7.07861726936986"},{"long":"-36.05644228101"},{"no_fantasia":"UBSF SILVIO SOUTO DE OLIVEIRA"},{"no_logradouro":"SITIO LAGOA SALGADA"},{"nu_endereco":"S/N"},{"no_bairro":"ZONA RURAL"},{"nu_telefone":"83338410811"},{"co_cep":"58150000"},{"uf":"PB"},{"cidade":"Pocinhos"},{"ano_ubs_det":"2016"},{"mes_ubs_det":"5"}],"geometry":{"type":"Point","coordinates":[-36.05644228101,-7.0786172693699]}},{"type":"Feature","properties":[{"gid":"4403"},{"co_cnes":"2798581"},{"lat":"-7.16724600117219"},{"long":"-34.8546368722916"},{"no_fantasia":"USF JOSE AMERICO CONJUNTO I"},{"no_logradouro":"RUA LEILA DINIZ"},{"nu_endereco":"S/N"},{"no_bairro":"JOSE AMERICO"},{"nu_telefone":"32189176"},{"co_cep":"58073180"},{"uf":"PB"},{"cidade":"João Pessoa"},{"ano_ubs_det":"2016"},{"mes_ubs_det":"5"}],"geometry":{"type":"Point","coordinates":[-34.854636872292,-7.1672460011722]}},{"type":"Feature","properties":[{"gid":"4824"},{"co_cnes":"2364425"},{"lat":"-6.6313648223875"},{"long":"-35.9074831008901"},{"no_fantasia":"UBS FLORENTINA HONORATO DA COSTA"},{"no_logradouro":"RUA MANOEL INACIO DA SILVA"},{"nu_endereco":"S/N"},{"no_bairro":"CENTRO"},{"nu_telefone":"(83)36351010"},{"co_cep":"58173000"},{"uf":"PB"},{"cidade":"Damião"},{"ano_ubs_det":"2016"},{"mes_ubs_det":"5"}],"geometry":{"type":"Point","coordinates":[-35.90748310089,-6.6313648223875]}},{"type":"Feature","properties":[{"gid":"5049"},{"co_cnes":"2357194"},{"lat":"-7.1484088897703"},{"long":"-34.8301577568044"},{"no_fantasia":"USF TIMBO I"},{"no_logradouro":"RUA GONCALO SOUZA PONTES"},{"nu_endereco":"127"},{"no_bairro":"BANCARIOS"},{"nu_telefone":"32189715"},{"co_cep":"58051140"},{"uf":"PB"},{"cidade":"João Pessoa"},{"ano_ubs_det":"2016"},{"mes_ubs_det":"5"}],"geometry":{"type":"Point","coordinates":[-34.830157756804,-7.1484088897703]}},{"type":"Feature","properties":[{"gid":"5110"},{"co_cnes":"5933900"},{"lat":"-7.22149704"},{"long":"-35.8838591147815"},{"no_fantasia":"UBS ANTONIO ARRUDA"},{"no_logradouro":"RUA JOSINO AGRA"},{"nu_endereco":"S/N"},{"no_bairro":"JOSE PINHEIRO"},{"nu_telefone":"(83)33227072"},{"co_cep":"58407315"},{"uf":"PB"},{"cidade":"Campina Grande"},{"ano_ubs_det":"2016"},{"mes_ubs_det":"5"}],"geometry":{"type":"Point","coordinates":[-35.883859114782,-7.22149704]}},{"type":"Feature","properties":[{"gid":"5113"},{"co_cnes":"2607557"},{"lat":"-7.07861726936986"},{"long":"-36.05644228101"},{"no_fantasia":"UBSF JOAO BONFIM DE ARAUJO"},{"no_logradouro":"RUA PROJETADA"},{"nu_endereco":"S/N"},{"no_bairro":"NOVA BRASILIA"},{"nu_telefone":"(83)33841083"},{"co_cep":"58150000"},{"uf":"PB"},{"cidade":"Pocinhos"},{"ano_ubs_det":"2016"},{"mes_ubs_det":"5"}],"geometry":{"type":"Point","coordinates":[-36.05644228101,-7.0786172693699]}},{"type":"Feature","properties":[{"gid":"4839"},{"co_cnes":"2613034"},{"lat":"-7.67472267150857"},{"long":"-36.0012531280507"},{"no_fantasia":"UNIDADE DE SAUDE DA FAMILIA JUCA PSF II"},{"no_logradouro":"SITIO JUCA"},{"nu_endereco":"S/N"},{"no_bairro":"ZONA RURAL"},{"nu_telefone":"(83)33481008"},{"co_cep":"58460000"},{"uf":"PB"},{"cidade":"Alcantil"},{"ano_ubs_det":"2016"},{"mes_ubs_det":"5"}],"geometry":{"type":"Point","coordinates":[-36.001253128051,-7.6747226715086]}},{"type":"Feature","properties":[{"gid":"4903"},{"co_cnes":"3006212"},{"lat":"-7.1833312511442"},{"long":"-34.8608207702627"},{"no_fantasia":"USF INTEGRADA CUIA"},{"no_logradouro":"RUA ADALGISA CARNEIRO CAVALCANTE"},{"nu_endereco":"S/N"},{"no_bairro":"CUIA"},{"nu_telefone":"3218-9282"},{"co_cep":"58082810"},{"uf":"PB"},{"cidade":"João Pessoa"},{"ano_ubs_det":"2016"},{"mes_ubs_det":"5"}],"geometry":{"type":"Point","coordinates":[-34.860820770263,-7.1833312511442]}},{"type":"Feature","properties":[{"gid":"5271"},{"co_cnes":"2592967"},{"lat":"-7.14692831039408"},{"long":"-35.2623581886281"},{"no_fantasia":"USF FREI DAMIAO"},{"no_logradouro":"RUA JOAO FERREIRA ALVES"},{"nu_endereco":"S/N"},{"no_bairro":"CENTRO"},{"nu_telefone":"(83)36281011"},{"co_cep":"58348000"},{"uf":"PB"},{"cidade":"Riachão do Poço"},{"ano_ubs_det":"2016"},{"mes_ubs_det":"5"}],"geometry":{"type":"Point","coordinates":[-35.262358188628,-7.1469283103941]}},{"type":"Feature","properties":[{"gid":"5232"},{"co_cnes":"2363992"},{"lat":"-7.25988798491643"},{"long":"-35.2598804076248"},{"no_fantasia":"USF I PIAS"},{"no_logradouro":"RUA ANISIO PEREIRA BORGES"},{"nu_endereco":"S/N"},{"no_bairro":"SERVENTIA"},{"nu_telefone":"(83)32821104"},{"co_cep":"58338000"},{"uf":"PB"},{"cidade":"Pilar"},{"ano_ubs_det":"2016"},{"mes_ubs_det":"5"}],"geometry":{"type":"Point","coordinates":[-35.259880407625,-7.2598879849164]}},{"type":"Feature","properties":[{"gid":"5484"},{"co_cnes":"2606151"},{"lat":"-6.5051293373106"},{"long":"-37.9648876190175"},{"no_fantasia":"PSF DISTRITO DE SERRINHA"},{"no_logradouro":"SITIO SERRINHA"},{"nu_endereco":"S/N"},{"no_bairro":"ZONA RURAL"},{"nu_telefone":"3448-1023"},{"co_cep":"58887000"},{"uf":"PB"},{"cidade":"Bom Sucesso"},{"ano_ubs_det":"2016"},{"mes_ubs_det":"5"}],"geometry":{"type":"Point","coordinates":[-37.964887619018,-6.5051293373106]}},{"type":"Feature","properties":[{"gid":"5539"},{"co_cnes":"2592134"},{"lat":"-6.54443979263287"},{"long":"-38.2764101028431"},{"no_fantasia":"ESF DE VIEIROPOLIS"},{"no_logradouro":"RUA ANTONIO MOREIRA PINTO"},{"nu_endereco":"59"},{"no_bairro":"CENTRO"},{"nu_telefone":"(83)3547-1062"},{"co_cep":"58822000"},{"uf":"PB"},{"cidade":"Vieirópolis"},{"ano_ubs_det":"2016"},{"mes_ubs_det":"5"}],"geometry":{"type":"Point","coordinates":[-38.276410102843,-6.5444397926329]}},{"type":"Feature","properties":[{"gid":"5236"},{"co_cnes":"2604906"},{"lat":"-7.30876749096471"},{"long":"-38.15"},{"no_fantasia":"CENTRO DE SAUDE DO MUNICIPIO"},{"no_logradouro":"RUA OSVALDO CRUZ"},{"nu_endereco":"124"},{"no_bairro":"CENTRO"},{"nu_telefone":"(83)3451-3371"},{"co_cep":"58780000"},{"uf":"PB"},{"cidade":"Itaporanga"},{"ano_ubs_det":"2016"},{"mes_ubs_det":"5"}],"geometry":{"type":"Point","coordinates":[-38.15,-7.3087674909647]}},{"type":"Feature","properties":[{"gid":"5390"},{"co_cnes":"3138658"},{"lat":"-7.20953935099687"},{"long":"-36.8289985342817"},{"no_fantasia":"ESF V ANTONIO JOAO DA SILVA"},{"no_logradouro":"SITIO SALGADO"},{"nu_endereco":"S/N"},{"no_bairro":"ZONA RURAL"},{"nu_telefone":""},{"co_cep":"58680000"},{"uf":"PB"},{"cidade":"Taperoá"},{"ano_ubs_det":"2016"},{"mes_ubs_det":"5"}],"geometry":{"type":"Point","coordinates":[-36.828998534282,-7.2095393509969]}},{"type":"Feature","properties":[{"gid":"5439"},{"co_cnes":"2607131"},{"lat":"-7.08129"},{"long":"-36.56619"},{"no_fantasia":"UBSF JUAZEIRINHO CENTRO"},{"no_logradouro":"PCA JOAO PESSOA"},{"nu_endereco":"S/N"},{"no_bairro":"CENTRO"},{"nu_telefone":"(83) 3821240"},{"co_cep":"58660000"},{"uf":"PB"},{"cidade":"Juazeirinho"},{"ano_ubs_det":"2016"},{"mes_ubs_det":"5"}],"geometry":{"type":"Point","coordinates":[-36.56619,-7.08129]}},{"type":"Feature","properties":[{"gid":"5213"},{"co_cnes":"2322463"},{"lat":"-7.51072168350198"},{"long":"-36.9629859924306"},{"no_fantasia":"UBSF DR HERETIANO ZENAIDE ESF V"},{"no_logradouro":"DISTRITO DE PIOX"},{"nu_endereco":"S/N"},{"no_bairro":"ZONA RURAL"},{"nu_telefone":"(83)33532353"},{"co_cep":"58540000"},{"uf":"PB"},{"cidade":"Sumé"},{"ano_ubs_det":"2016"},{"mes_ubs_det":"5"}],"geometry":{"type":"Point","coordinates":[-36.962985992431,-7.510721683502]}},{"type":"Feature","properties":[{"gid":"5257"},{"co_cnes":"2592320"},{"lat":"-7.42358342115024"},{"long":"-38.2650442086435"},{"no_fantasia":"PROGRAMA DE SAUDE DA FAMILIA PSF III DIAMANTE"},{"no_logradouro":"RUA DIONISIO MANGUEIRA"},{"nu_endereco":"722"},{"no_bairro":"CENTRO"},{"nu_telefone":"(83)4941003"},{"co_cep":"58994000"},{"uf":"PB"},{"cidade":"Diamante"},{"ano_ubs_det":"2016"},{"mes_ubs_det":"5"}],"geometry":{"type":"Point","coordinates":[-38.265044208644,-7.4235834211502]}},{"type":"Feature","properties":[{"gid":"5446"},{"co_cnes":"2363917"},{"lat":"-7.1663446273336"},{"long":"-35.5911781067138"},{"no_fantasia":"CENTRO DE SAUDE DO CAIXEIRO"},{"no_logradouro":"SITIO CAXEIRO"},{"nu_endereco":"S/N"},{"no_bairro":"ZONA RURAL"},{"nu_telefone":"(83)2671122"},{"co_cep":"58387000"},{"uf":"PB"},{"cidade":"Juarez Távora"},{"ano_ubs_det":"2016"},{"mes_ubs_det":"5"}],"geometry":{"type":"Point","coordinates":[-35.591178106714,-7.1663446273336]}},{"type":"Feature","properties":[{"gid":"5554"},{"co_cnes":"2363739"},{"lat":"-7.30281829833963"},{"long":"-35.4765057563771"},{"no_fantasia":"USF II TEREZINHA BENICIO DA COSTA"},{"no_logradouro":"PRESIDENTE JOAO PESSOA"},{"nu_endereco":"S/N"},{"no_bairro":"CENTRO"},{"nu_telefone":"(83)2661040"},{"co_cep":"58375000"},{"uf":"PB"},{"cidade":"Mogeiro"},{"ano_ubs_det":"2016"},{"mes_ubs_det":"5"}],"geometry":{"type":"Point","coordinates":[-35.476505756377,-7.3028182983396]}},{"type":"Feature","properties":[{"gid":"5796"},{"co_cnes":"2341379"},{"lat":"-6.81771397590617"},{"long":"-35.6426095962514"},{"no_fantasia":"U B SAUDE MARIA ANTONIETA DE CARVALHO PFS I"},{"no_logradouro":"RUA PEDRO GONDIN"},{"nu_endereco":"85"},{"no_bairro":"CENTRO"},{"nu_telefone":"(83)2751059"},{"co_cep":"58395000"},{"uf":"PB"},{"cidade":"Serraria"},{"ano_ubs_det":"2016"},{"mes_ubs_det":"5"}],"geometry":{"type":"Point","coordinates":[-35.642609596251,-6.8177139759062]}},{"type":"Feature","properties":[{"gid":"5798"},{"co_cnes":"2321378"},{"lat":"-7.12847337694278"},{"long":"-37.1582169542224"},{"no_fantasia":"USF II DE CARNAUBAS ERONILDES BARBOSA DE LIMA"},{"no_logradouro":"SITIO CARNAUBAS"},{"nu_endereco":"S/N"},{"no_bairro":"SITIO"},{"nu_telefone":"(83) 34215930"},{"co_cep":"58730000"},{"uf":"PB"},{"cidade":"Cacimba de Areia"},{"ano_ubs_det":"2016"},{"mes_ubs_det":"5"}],"geometry":{"type":"Point","coordinates":[-37.158216954222,-7.1284733769428]}},{"type":"Feature","properties":[{"gid":"29504"},{"co_cnes":"2608405"},{"lat":"-6.87846064567546"},{"long":"-35.4184412956227"},{"no_fantasia":"POSTO DE SAUDE DO MACIEL"},{"no_logradouro":"POVOADO DE MACIEL"},{"nu_endereco":"S/N"},{"no_bairro":"ZONA RURAL"},{"nu_telefone":"(83)32714422"},{"co_cep":"58200000"},{"uf":"PB"},{"cidade":"Guarabira"},{"ano_ubs_det":"2016"},{"mes_ubs_det":"5"}],"geometry":{"type":"Point","coordinates":[-35.418441295623,-6.8784606456755]}},{"type":"Feature","properties":[{"gid":"5879"},{"co_cnes":"3017516"},{"lat":"-7.45607972145059"},{"long":"-34.8402643203725"},{"no_fantasia":"USF CAMUCIM"},{"no_logradouro":"AGROVILA CAMUCIM"},{"nu_endereco":"145"},{"no_bairro":"CAMUCIM"},{"nu_telefone":""},{"co_cep":"58324000"},{"uf":"PB"},{"cidade":"Pitimbu"},{"ano_ubs_det":"2016"},{"mes_ubs_det":"5"}],"geometry":{"type":"Point","coordinates":[-34.840264320372,-7.4560797214506]}},{"type":"Feature","properties":[{"gid":"5890"},{"co_cnes":"2321750"},{"lat":"-6.99333764885609"},{"long":"-36.716441226086"},{"no_fantasia":"UNIDADE BASICA DE SAUDE PSF II"},{"no_logradouro":"RUA JUVENTINO ARAUJO NOBREGA"},{"nu_endereco":"S/N"},{"no_bairro":"STO ANTONIO"},{"nu_telefone":""},{"co_cep":"58640000"},{"uf":"PB"},{"cidade":"Junco do Seridó"},{"ano_ubs_det":"2016"},{"mes_ubs_det":"5"}],"geometry":{"type":"Point","coordinates":[-36.716441226086,-6.9933376488561]}},{"type":"Feature","properties":[{"gid":"5602"},{"co_cnes":"2605929"},{"lat":"-7.3345649242399"},{"long":"-35.9002089500417"},{"no_fantasia":"UBSF ZE VELHO"},{"no_logradouro":"SITIO ZE VELHO"},{"nu_endereco":"S/N"},{"no_bairro":"ZONA RURAL"},{"nu_telefone":"(83)33921109"},{"co_cep":"58475000"},{"uf":"PB"},{"cidade":"Queimadas"},{"ano_ubs_det":"2016"},{"mes_ubs_det":"5"}],"geometry":{"type":"Point","coordinates":[-35.900208950042,-7.3345649242399]}},{"type":"Feature","properties":[{"gid":"5801"},{"co_cnes":"5701368"},{"lat":"-6.72025267755581"},{"long":"-36.0597726422183"},{"no_fantasia":"UNIDADE BASICA DE SAUDE JOSE RIBEIRO DINIZ ESF I"},{"no_logradouro":"RUA MANOEL LINS DE ARAUJO"},{"nu_endereco":"S/N"},{"no_bairro":"CENTRO"},{"nu_telefone":""},{"co_cep":"58170000"},{"uf":"PB"},{"cidade":"Barra de Santa Rosa"},{"ano_ubs_det":"2016"},{"mes_ubs_det":"5"}],"geometry":{"type":"Point","coordinates":[-36.059772642218,-6.7202526775558]}},{"type":"Feature","properties":[{"gid":"5965"},{"co_cnes":"2357259"},{"lat":"-6.7598975"},{"long":"-35.6561584077255"},{"no_fantasia":"PSF II SITIO CHA"},{"no_logradouro":"SITIO CHA"},{"nu_endereco":"S/N"},{"no_bairro":"ZONA RURAL"},{"nu_telefone":""},{"co_cep":"58225000"},{"uf":"PB"},{"cidade":"Solânea"},{"ano_ubs_det":"2016"},{"mes_ubs_det":"5"}],"geometry":{"type":"Point","coordinates":[-35.656158407725,-6.7598975]}},{"type":"Feature","properties":[{"gid":"5819"},{"co_cnes":"2504618"},{"lat":"-6.8904645"},{"long":"-38.5605303718409"},{"no_fantasia":"UNIDADE SAUDE DA FAMILIA AMELIO ESTRELA D CARTAXO"},{"no_logradouro":"RUA VITORIA BEZERRA"},{"nu_endereco":"S/N"},{"no_bairro":"SAO FRANCISCO"},{"nu_telefone":"(83)05314399"},{"co_cep":"58900000"},{"uf":"PB"},{"cidade":"Cajazeiras"},{"ano_ubs_det":"2016"},{"mes_ubs_det":"5"}],"geometry":{"type":"Point","coordinates":[-38.560530371841,-6.8904645]}},{"type":"Feature","properties":[{"gid":"5845"},{"co_cnes":"2321505"},{"lat":"-7.22745895385721"},{"long":"-37.2517204284657"},{"no_fantasia":"ESF IV ESDRAS GUEDES"},{"no_logradouro":"RUA JOAQUIM CAMILO DUARTE"},{"nu_endereco":"S/N"},{"no_bairro":"SANTA MARIA"},{"nu_telefone":"(83)4722183"},{"co_cep":"58735000"},{"uf":"PB"},{"cidade":"Teixeira"},{"ano_ubs_det":"2016"},{"mes_ubs_det":"5"}],"geometry":{"type":"Point","coordinates":[-37.251720428466,-7.2274589538572]}},{"type":"Feature","properties":[{"gid":"6085"},{"co_cnes":"2609002"},{"lat":"-6.7502575"},{"long":"-35.441719"},{"no_fantasia":"UNIDADE DE SAUDE DA FAMILIA PSF SERTAOZINHO"},{"no_logradouro":"RUA JOSE SOARES DE SENA"},{"nu_endereco":"30"},{"no_bairro":"CENTRIO"},{"nu_telefone":"(83)36851082"},{"co_cep":"58268000"},{"uf":"PB"},{"cidade":"Sertãozinho"},{"ano_ubs_det":"2016"},{"mes_ubs_det":"5"}],"geometry":{"type":"Point","coordinates":[-35.441719,-6.7502575]}},{"type":"Feature","properties":[{"gid":"6320"},{"co_cnes":"2321653"},{"lat":"-7.73386645898496"},{"long":"-37.9936640096162"},{"no_fantasia":"UBS PSF BAIRRO SAO FRANCISCO"},{"no_logradouro":"RUA MANOEL HONORATO"},{"nu_endereco":"S/N"},{"no_bairro":"SAO FRANCISCO"},{"nu_telefone":"(83)4572111"},{"co_cep":"58755000"},{"uf":"PB"},{"cidade":"Princesa Isabel"},{"ano_ubs_det":"2016"},{"mes_ubs_det":"5"}],"geometry":{"type":"Point","coordinates":[-37.993664009616,-7.733866458985]}},{"type":"Feature","properties":[{"gid":"6257"},{"co_cnes":"2681234"},{"lat":"-7.73714"},{"long":"-37.97821"},{"no_fantasia":"UBS PSF CENTRO I"},{"no_logradouro":"RUA ABRAAO BARROS DINIZ"},{"nu_endereco":"S/N"},{"no_bairro":"CENTRO"},{"nu_telefone":""},{"co_cep":"58755000"},{"uf":"PB"},{"cidade":"Princesa Isabel"},{"ano_ubs_det":"2016"},{"mes_ubs_det":"5"}],"geometry":{"type":"Point","coordinates":[-37.97821,-7.73714]}},{"type":"Feature","properties":[{"gid":"6414"},{"co_cnes":"2504669"},{"lat":"-6.8904645"},{"long":"-38.5605303718409"},{"no_fantasia":"UNIDADE SAUDE DA FAMILIA NILSON LOPES CRISTO REI"},{"no_logradouro":"PEDRO COELHO VIANA"},{"nu_endereco":"S/N"},{"no_bairro":"CRISTO REI"},{"nu_telefone":"(83)05314399"},{"co_cep":"58900000"},{"uf":"PB"},{"cidade":"Cajazeiras"},{"ano_ubs_det":"2016"},{"mes_ubs_det":"5"}],"geometry":{"type":"Point","coordinates":[-38.560530371841,-6.8904645]}},{"type":"Feature","properties":[{"gid":"6548"},{"co_cnes":"2608898"},{"lat":"-7.35535731371705"},{"long":"-35.4433017394971"},{"no_fantasia":"UNIDADE DE SAUDE DA FAMILIA DE MARIA DE MELO"},{"no_logradouro":"SITIO MARIA DE MELO"},{"nu_endereco":"S/N"},{"no_bairro":"ZONA RURAL"},{"nu_telefone":"(83)2801242"},{"co_cep":"58370000"},{"uf":"PB"},{"cidade":"Salgado de São Félix"},{"ano_ubs_det":"2016"},{"mes_ubs_det":"5"}],"geometry":{"type":"Point","coordinates":[-35.443301739497,-7.3553573137171]}},{"type":"Feature","properties":[{"gid":"6556"},{"co_cnes":"2362392"},{"lat":"-7.22149704"},{"long":"-35.8838591147815"},{"no_fantasia":"UBS JOAO RIQUE"},{"no_logradouro":"RUA CANTOR PAULO SERGIO"},{"nu_endereco":"S/N"},{"no_bairro":"BODOCONGO"},{"nu_telefone":"(83)33107045"},{"co_cep":"58430270"},{"uf":"PB"},{"cidade":"Campina Grande"},{"ano_ubs_det":"2016"},{"mes_ubs_det":"5"}],"geometry":{"type":"Point","coordinates":[-35.883859114782,-7.22149704]}},{"type":"Feature","properties":[{"gid":"6693"},{"co_cnes":"2606097"},{"lat":"-6.92567825317363"},{"long":"-38.4021949768055"},{"no_fantasia":"USF GRAVATA"},{"no_logradouro":"GRAVATA"},{"nu_endereco":"S/N"},{"no_bairro":"DISTRITO"},{"nu_telefone":"(83)5211719"},{"co_cep":"58910000"},{"uf":"PB"},{"cidade":"São João do Rio do Peixe"},{"ano_ubs_det":"2016"},{"mes_ubs_det":"5"}],"geometry":{"type":"Point","coordinates":[-38.402194976805,-6.9256782531736]}},{"type":"Feature","properties":[{"gid":"6531"},{"co_cnes":"2756072"},{"lat":"-7.16392"},{"long":"-34.90807"},{"no_fantasia":"USF INTEGRADA JARDIM SAUDE"},{"no_logradouro":"RUA POETA VICTOR HUGO"},{"nu_endereco":"S/N"},{"no_bairro":"JARDIM VENEZA"},{"nu_telefone":"(83)32189290"},{"co_cep":"58084030"},{"uf":"PB"},{"cidade":"João Pessoa"},{"ano_ubs_det":"2016"},{"mes_ubs_det":"5"}],"geometry":{"type":"Point","coordinates":[-34.90807,-7.16392]}},{"type":"Feature","properties":[{"gid":"6569"},{"co_cnes":"3220729"},{"lat":"-7.43398904800393"},{"long":"-35.726466178893"},{"no_fantasia":"UNID DE SAUDE DA FAMILIA PSF IV"},{"no_logradouro":"SITIO BOLAS"},{"nu_endereco":"S/N"},{"no_bairro":"SANTO ANTONIO"},{"nu_telefone":"83 33981220"},{"co_cep":"58378000"},{"uf":"PB"},{"cidade":"Itatuba"},{"ano_ubs_det":"2016"},{"mes_ubs_det":"5"}],"geometry":{"type":"Point","coordinates":[-35.726466178893,-7.4339890480039]}},{"type":"Feature","properties":[{"gid":"6610"},{"co_cnes":"2813181"},{"lat":"-7.4015385"},{"long":"-35.1131779827065"},{"no_fantasia":"UNIDADE DE SAUDE DA FAMILIA BELA ROSA"},{"no_logradouro":"SITIO BELA ROSA"},{"nu_endereco":"S/N"},{"no_bairro":"ZONA RURAL"},{"nu_telefone":"(81)36351441"},{"co_cep":"58328000"},{"uf":"PB"},{"cidade":"Pedras de Fogo"},{"ano_ubs_det":"2016"},{"mes_ubs_det":"5"}],"geometry":{"type":"Point","coordinates":[-35.113177982707,-7.4015385]}},{"type":"Feature","properties":[{"gid":"6609"},{"co_cnes":"2608162"},{"lat":"-6.72465205192546"},{"long":"-35.5994153022756"},{"no_fantasia":"USF DE GAMELAS"},{"no_logradouro":"SITIO GAMELAS"},{"nu_endereco":"S/N"},{"no_bairro":"ZONA RURAL"},{"nu_telefone":"(83)3671125"},{"co_cep":"58220000"},{"uf":"PB"},{"cidade":"Bananeiras"},{"ano_ubs_det":"2016"},{"mes_ubs_det":"5"}],"geometry":{"type":"Point","coordinates":[-35.599415302276,-6.7246520519255]}},{"type":"Feature","properties":[{"gid":"6865"},{"co_cnes":"3442128"},{"lat":"-7.06731"},{"long":"-34.84172"},{"no_fantasia":"USF INTEGRADA BESSA"},{"no_logradouro":"RUA NAPOLEAO GOMES VARELA"},{"nu_endereco":"S/N"},{"no_bairro":"BESSA"},{"nu_telefone":"( 83 ) 3218-8002"},{"co_cep":"58035190"},{"uf":"PB"},{"cidade":"João Pessoa"},{"ano_ubs_det":"2016"},{"mes_ubs_det":"5"}],"geometry":{"type":"Point","coordinates":[-34.84172,-7.06731]}},{"type":"Feature","properties":[{"gid":"6888"},{"co_cnes":"2374072"},{"lat":"-7.892217"},{"long":"-37.1226806805604"},{"no_fantasia":"USF 07 LUCAS TOME MONTEIRO"},{"no_logradouro":"RUA PADRE MONSENHOR JOAO HONORIO DE MELO"},{"nu_endereco":"167"},{"no_bairro":"BELA VISTA"},{"nu_telefone":"(83) 3351 1813"},{"co_cep":"58500000"},{"uf":"PB"},{"cidade":"Monteiro"},{"ano_ubs_det":"2016"},{"mes_ubs_det":"5"}],"geometry":{"type":"Point","coordinates":[-37.12268068056,-7.892217]}},{"type":"Feature","properties":[{"gid":"6965"},{"co_cnes":"2362309"},{"lat":"-7.22149704"},{"long":"-35.8838591147815"},{"no_fantasia":"UBS RAIFF RAMALHO"},{"no_logradouro":"RUA FRANCISCO LOPES DE ALMEIDA"},{"nu_endereco":"S/N"},{"no_bairro":"SANTA CRUZ"},{"nu_telefone":"(83)33106004"},{"co_cep":"58417290"},{"uf":"PB"},{"cidade":"Campina Grande"},{"ano_ubs_det":"2016"},{"mes_ubs_det":"5"}],"geometry":{"type":"Point","coordinates":[-35.883859114782,-7.22149704]}},{"type":"Feature","properties":[{"gid":"6810"},{"co_cnes":"7508298"},{"lat":"-6.77381212425597"},{"long":"-37.7962222695351"},{"no_fantasia":"USF XII PETROPOLIS"},{"no_logradouro":"MIGUEL ALVES DA SILVA"},{"nu_endereco":"S/N"},{"no_bairro":"PETROPOLIS"},{"nu_telefone":""},{"co_cep":"58840000"},{"uf":"PB"},{"cidade":"Pombal"},{"ano_ubs_det":"2016"},{"mes_ubs_det":"5"}],"geometry":{"type":"Point","coordinates":[-37.796222269535,-6.773812124256]}},{"type":"Feature","properties":[{"gid":"7195"},{"co_cnes":"2334240"},{"lat":"-6.85365557670573"},{"long":"-35.4969978332509"},{"no_fantasia":"UBS PRIMAVERA JOSEFA TOMAZ DE ARRUDA"},{"no_logradouro":"RUA HENRIQUE PACIFICO"},{"nu_endereco":"S/N"},{"no_bairro":"BELA VISTA"},{"nu_telefone":"( )"},{"co_cep":"58200000"},{"uf":"PB"},{"cidade":"Guarabira"},{"ano_ubs_det":"2016"},{"mes_ubs_det":"5"}],"geometry":{"type":"Point","coordinates":[-35.496997833251,-6.8536555767057]}},{"type":"Feature","properties":[{"gid":"6806"},{"co_cnes":"2341670"},{"lat":"-6.43827795982342"},{"long":"-37.6497387886036"},{"no_fantasia":"USF II"},{"no_logradouro":"RUA JOSE CANDIDO DE LIMA"},{"nu_endereco":"S/N"},{"no_bairro":"JOSE AMERICO DE ALME"},{"nu_telefone":"(83)4491060"},{"co_cep":"58870000"},{"uf":"PB"},{"cidade":"Riacho dos Cavalos"},{"ano_ubs_det":"2016"},{"mes_ubs_det":"5"}],"geometry":{"type":"Point","coordinates":[-37.649738788604,-6.4382779598234]}},{"type":"Feature","properties":[{"gid":"7491"},{"co_cnes":"7695268"},{"lat":"-7.2023323646943"},{"long":"-34.8726385831833"},{"no_fantasia":"USF INTEGRADA COLINAS DO SUL II"},{"no_logradouro":"APOSENTADA CLOTILDE MARIA DA CONCEICAO"},{"nu_endereco":"S/N"},{"no_bairro":"GRAMAME"},{"nu_telefone":"83 32356575"},{"co_cep":"58068398"},{"uf":"PB"},{"cidade":"João Pessoa"},{"ano_ubs_det":"2016"},{"mes_ubs_det":"5"}],"geometry":{"type":"Point","coordinates":[-34.872638583183,-7.2023323646943]}},{"type":"Feature","properties":[{"gid":"7205"},{"co_cnes":"2313596"},{"lat":"-6.76694512367229"},{"long":"-38.2339668273915"},{"no_fantasia":"ESF XIV ALTO CAPANEMA"},{"no_logradouro":"RUA JOSE PEREIRA FONTES"},{"nu_endereco":"27"},{"no_bairro":"ESTACAO"},{"nu_telefone":"(83)5222684"},{"co_cep":"58807330"},{"uf":"PB"},{"cidade":"Sousa"},{"ano_ubs_det":"2016"},{"mes_ubs_det":"5"}],"geometry":{"type":"Point","coordinates":[-38.233966827391,-6.7669451236723]}},{"type":"Feature","properties":[{"gid":"7493"},{"co_cnes":"2363771"},{"lat":"-7.37029077318249"},{"long":"-35.2394540486469"},{"no_fantasia":"UNIDADE BASICA DE SAUDE DA FAMILIA PRET SEVERINA G PEREIR"},{"no_logradouro":"RUA TIRADENTES"},{"nu_endereco":"41"},{"no_bairro":"CENTRO"},{"nu_telefone":""},{"co_cep":"58330000"},{"uf":"PB"},{"cidade":"Juripiranga"},{"ano_ubs_det":"2016"},{"mes_ubs_det":"5"}],"geometry":{"type":"Point","coordinates":[-35.239454048647,-7.3702907731825]}},{"type":"Feature","properties":[{"gid":"7490"},{"co_cnes":"5299519"},{"lat":"-6.76759958267192"},{"long":"-37.8005647659291"},{"no_fantasia":"USF VII FRANCISCO DAS CHAGAS WERTON"},{"no_logradouro":"RUA SILVESTRE HONORIO"},{"nu_endereco":"S/N"},{"no_bairro":"JARDIM ROGERIO"},{"nu_telefone":"(83) 3431-2437"},{"co_cep":"58840000"},{"uf":"PB"},{"cidade":"Pombal"},{"ano_ubs_det":"2016"},{"mes_ubs_det":"5"}],"geometry":{"type":"Point","coordinates":[-37.800564765929,-6.7675995826719]}},{"type":"Feature","properties":[{"gid":"7865"},{"co_cnes":"2820188"},{"lat":"-6.48481965064984"},{"long":"-37.4479722976674"},{"no_fantasia":"PSF EULAMPIO CANDIDO DA SILVA"},{"no_logradouro":"R PEDRO PEREIRA DE ALCANTARA"},{"nu_endereco":"S/N"},{"no_bairro":"CENTRO"},{"nu_telefone":""},{"co_cep":"58865000"},{"uf":"PB"},{"cidade":"São Bento"},{"ano_ubs_det":"2016"},{"mes_ubs_det":"5"}],"geometry":{"type":"Point","coordinates":[-37.447972297667,-6.4848196506498]}},{"type":"Feature","properties":[{"gid":"7933"},{"co_cnes":"2342669"},{"lat":"-6.93469047546367"},{"long":"-36.3488459587087"},{"no_fantasia":"UBSF SANTA MARIA"},{"no_logradouro":"SITIO SANTA MARIA"},{"nu_endereco":"S/N"},{"no_bairro":"ZONA RURAL"},{"nu_telefone":"(83)33881005"},{"co_cep":"58158000"},{"uf":"PB"},{"cidade":"São Vicente do Seridó"},{"ano_ubs_det":"2016"},{"mes_ubs_det":"5"}],"geometry":{"type":"Point","coordinates":[-36.348845958709,-6.9346904754637]}},{"type":"Feature","properties":[{"gid":"7616"},{"co_cnes":"2606739"},{"lat":"-6.48802757263165"},{"long":"-37.4525427818287"},{"no_fantasia":"PSF JOSE BORGES DA SILVA"},{"no_logradouro":"R GONZAGA PEDRO DA SILVA"},{"nu_endereco":"65"},{"no_bairro":"HERCULANO"},{"nu_telefone":""},{"co_cep":"58865000"},{"uf":"PB"},{"cidade":"São Bento"},{"ano_ubs_det":"2016"},{"mes_ubs_det":"5"}],"geometry":{"type":"Point","coordinates":[-37.452542781829,-6.4880275726317]}},{"type":"Feature","properties":[{"gid":"7660"},{"co_cnes":"2707586"},{"lat":"-6.94029092788676"},{"long":"-36.6273665428151"},{"no_fantasia":"UNIDADE DE SAUDE DA FAMILIA DE TENORIO"},{"no_logradouro":"RUA 14 DE AGOSTO"},{"nu_endereco":"127"},{"no_bairro":"CENTRO"},{"nu_telefone":"(83)36441003"},{"co_cep":"58665000"},{"uf":"PB"},{"cidade":"Tenório"},{"ano_ubs_det":"2016"},{"mes_ubs_det":"5"}],"geometry":{"type":"Point","coordinates":[-36.627366542815,-6.9402909278868]}},{"type":"Feature","properties":[{"gid":"7703"},{"co_cnes":"8008965"},{"lat":"-7.06536831063555"},{"long":"-36.5707010055171"},{"no_fantasia":"UBSF DA BELA VISTA"},{"no_logradouro":"FRANCISCO TRAJANO CUNHA"},{"nu_endereco":"54"},{"no_bairro":"BELA VISTA"},{"nu_telefone":"(83) 3821240"},{"co_cep":"58660000"},{"uf":"PB"},{"cidade":"Juazeirinho"},{"ano_ubs_det":"2016"},{"mes_ubs_det":"5"}],"geometry":{"type":"Point","coordinates":[-36.570701005517,-7.0653683106355]}},{"type":"Feature","properties":[{"gid":"7812"},{"co_cnes":"2613123"},{"lat":"-7.51428764137233"},{"long":"-34.9178501439553"},{"no_fantasia":"USF PIQUETE"},{"no_logradouro":"RUA CLEMENTE FERREIRA"},{"nu_endereco":"1428"},{"no_bairro":"PIQUETE"},{"nu_telefone":"8332862029"},{"co_cep":"58326000"},{"uf":"PB"},{"cidade":"Caaporã"},{"ano_ubs_det":"2016"},{"mes_ubs_det":"5"}],"geometry":{"type":"Point","coordinates":[-34.917850143955,-7.5142876413723]}},{"type":"Feature","properties":[{"gid":"7682"},{"co_cnes":"2321130"},{"lat":"-7.13727235794047"},{"long":"-37.0482802391042"},{"no_fantasia":"USF MARIA DAS NEVES ANDRADE"},{"no_logradouro":"RUA CAPITAO PEDRO RAFAEL"},{"nu_endereco":"S/N"},{"no_bairro":"CENTRO"},{"nu_telefone":""},{"co_cep":"58734000"},{"uf":"PB"},{"cidade":"Passagem"},{"ano_ubs_det":"2016"},{"mes_ubs_det":"5"}],"geometry":{"type":"Point","coordinates":[-37.048280239104,-7.1372723579405]}},{"type":"Feature","properties":[{"gid":"7995"},{"co_cnes":"2604981"},{"lat":"-7.73386645898496"},{"long":"-37.9936640096162"},{"no_fantasia":"UBS PSF CRUZEIRO"},{"no_logradouro":"RUA MAESTRO JOAQUIM DE CARVALHO"},{"nu_endereco":"S/N"},{"no_bairro":"CRUZEIRO"},{"nu_telefone":""},{"co_cep":"58755000"},{"uf":"PB"},{"cidade":"Princesa Isabel"},{"ano_ubs_det":"2016"},{"mes_ubs_det":"5"}],"geometry":{"type":"Point","coordinates":[-37.993664009616,-7.733866458985]}},{"type":"Feature","properties":[{"gid":"7771"},{"co_cnes":"2321947"},{"lat":"-7.03829884529093"},{"long":"-38.3449888229359"},{"no_fantasia":"UNIDADE DE SAUDE DA FAMILIA DE CARRAPATEIRA"},{"no_logradouro":"RUA JOSE VIEIRA"},{"nu_endereco":"S/N"},{"no_bairro":"CENTRO"},{"nu_telefone":"(83)35531011"},{"co_cep":"58945000"},{"uf":"PB"},{"cidade":"Carrapateira"},{"ano_ubs_det":"2016"},{"mes_ubs_det":"5"}],"geometry":{"type":"Point","coordinates":[-38.344988822936,-7.0382988452909]}},{"type":"Feature","properties":[{"gid":"8058"},{"co_cnes":"2604531"},{"lat":"-7.42228214528532"},{"long":"-38.2189508765067"},{"no_fantasia":"PSF I DR CARLOS FERNANDO DE CARVALHO"},{"no_logradouro":"RUA ANGELICA SOARES"},{"nu_endereco":"S/N"},{"no_bairro":"CENTRO"},{"nu_telefone":"(83)34931031"},{"co_cep":"58993000"},{"uf":"PB"},{"cidade":"Boa Ventura"},{"ano_ubs_det":"2016"},{"mes_ubs_det":"5"}],"geometry":{"type":"Point","coordinates":[-38.218950876507,-7.4222821452853]}},{"type":"Feature","properties":[{"gid":"8253"},{"co_cnes":"2356724"},{"lat":"-6.97095394134501"},{"long":"-34.834234714507"},{"no_fantasia":"USF CENTRO"},{"no_logradouro":"RUA MARIA NAZARE JORGE DE SENA"},{"nu_endereco":"67"},{"no_bairro":"CENTRO"},{"nu_telefone":""},{"co_cep":"58100595"},{"uf":"PB"},{"cidade":"Cabedelo"},{"ano_ubs_det":"2016"},{"mes_ubs_det":"5"}],"geometry":{"type":"Point","coordinates":[-34.834234714507,-6.970953941345]}},{"type":"Feature","properties":[{"gid":"8317"},{"co_cnes":"2322307"},{"lat":"-8.01214456558204"},{"long":"-37.0984911918629"},{"no_fantasia":"USF 11"},{"no_logradouro":"SITIO CACIMBA DE CIMA"},{"nu_endereco":"S/N"},{"no_bairro":"ZONA RURAL"},{"nu_telefone":""},{"co_cep":"58500000"},{"uf":"PB"},{"cidade":"Monteiro"},{"ano_ubs_det":"2016"},{"mes_ubs_det":"5"}],"geometry":{"type":"Point","coordinates":[-37.098491191863,-8.012144565582]}},{"type":"Feature","properties":[{"gid":"8329"},{"co_cnes":"2321971"},{"lat":"-7.3107630818579"},{"long":"-38.5164953050679"},{"no_fantasia":"UBSF II VIANA"},{"no_logradouro":"DISTRITO DE VIANA"},{"nu_endereco":"S/N"},{"no_bairro":"DISTRITO DE VIANA"},{"nu_telefone":"(83)34905033"},{"co_cep":"58960000"},{"uf":"PB"},{"cidade":"Bonito de Santa Fé"},{"ano_ubs_det":"2016"},{"mes_ubs_det":"5"}],"geometry":{"type":"Point","coordinates":[-38.516495305068,-7.3107630818579]}},{"type":"Feature","properties":[{"gid":"8154"},{"co_cnes":"2342359"},{"lat":"-6.97578191757182"},{"long":"-35.8157730102529"},{"no_fantasia":"UBSF II MARIA AUGUSTA LAUREANO"},{"no_logradouro":"AV MONS RUI BARREIRA VIEIRA"},{"nu_endereco":"52"},{"no_bairro":"LAGOA DO MATO"},{"nu_telefone":""},{"co_cep":"58398000"},{"uf":"PB"},{"cidade":"Remígio"},{"ano_ubs_det":"2016"},{"mes_ubs_det":"5"}],"geometry":{"type":"Point","coordinates":[-35.815773010253,-6.9757819175718]}},{"type":"Feature","properties":[{"gid":"8385"},{"co_cnes":"2608596"},{"lat":"-7.37933635711649"},{"long":"-35.626151561736"},{"no_fantasia":"UBSF I SEVERINA MOREIRA"},{"no_logradouro":"RUA MARIA LACERDA CAVALCANTE"},{"nu_endereco":"02"},{"no_bairro":"CENTRO"},{"nu_telefone":"83 988279595"},{"co_cep":"58378000"},{"uf":"PB"},{"cidade":"Itatuba"},{"ano_ubs_det":"2016"},{"mes_ubs_det":"5"}],"geometry":{"type":"Point","coordinates":[-35.626151561736,-7.3793363571165]}},{"type":"Feature","properties":[{"gid":"8292"},{"co_cnes":"2399229"},{"lat":"-7.10757493972758"},{"long":"-34.8609924316396"},{"no_fantasia":"CENTRO DE SAUDE DE MANDACARU"},{"no_logradouro":"RUA MASCARENHAS DE MORAIS"},{"nu_endereco":"S/N"},{"no_bairro":"MANDACARU"},{"nu_telefone":"(83) 3214-7143"},{"co_cep":"58027000"},{"uf":"PB"},{"cidade":"João Pessoa"},{"ano_ubs_det":"2016"},{"mes_ubs_det":"5"}],"geometry":{"type":"Point","coordinates":[-34.86099243164,-7.1075749397276]}},{"type":"Feature","properties":[{"gid":"8221"},{"co_cnes":"2604876"},{"lat":"-7.3020029067991"},{"long":"-38.1504106521595"},{"no_fantasia":"UBSF II DR FRANCISCO N LIMA"},{"no_logradouro":"RUA SANTO ANTONIO"},{"nu_endereco":"03"},{"no_bairro":"CENTRO"},{"nu_telefone":"(83)4512682"},{"co_cep":"58780000"},{"uf":"PB"},{"cidade":"Itaporanga"},{"ano_ubs_det":"2016"},{"mes_ubs_det":"5"}],"geometry":{"type":"Point","coordinates":[-38.15041065216,-7.3020029067991]}},{"type":"Feature","properties":[{"gid":"8034"},{"co_cnes":"2604469"},{"lat":"-7.02332139015177"},{"long":"-37.2819542884816"},{"no_fantasia":"UNIDADE DE SAUDE DA FAMILIA JOSE MAURICIO CAJUAZ"},{"no_logradouro":"RUA PEDRO II"},{"nu_endereco":"S/N"},{"no_bairro":"BELO HORIZONTE"},{"nu_telefone":"(83) 3421-6138"},{"co_cep":"58704038"},{"uf":"PB"},{"cidade":"Patos"},{"ano_ubs_det":"2016"},{"mes_ubs_det":"5"}],"geometry":{"type":"Point","coordinates":[-37.281954288482,-7.0233213901518]}},{"type":"Feature","properties":[{"gid":"8285"},{"co_cnes":"2798514"},{"lat":"-7.13580250740031"},{"long":"-34.9172329902639"},{"no_fantasia":"USF ALTO DO MATEUS I"},{"no_logradouro":"RUA JOAO MARINHO DA SILVA"},{"nu_endereco":"S/N"},{"no_bairro":"ALTO DO MATEUS"},{"nu_telefone":"(83) 3218-9243"},{"co_cep":"58090460"},{"uf":"PB"},{"cidade":"João Pessoa"},{"ano_ubs_det":"2016"},{"mes_ubs_det":"5"}],"geometry":{"type":"Point","coordinates":[-34.917232990264,-7.1358025074003]}},{"type":"Feature","properties":[{"gid":"8391"},{"co_cnes":"2608170"},{"lat":"-6.75404906272869"},{"long":"-35.5662417411794"},{"no_fantasia":"USF DE ROMA"},{"no_logradouro":"SITIO ROMA"},{"nu_endereco":"S/N"},{"no_bairro":"DISTRITO"},{"nu_telefone":"(83)3671125"},{"co_cep":"58220000"},{"uf":"PB"},{"cidade":"Bananeiras"},{"ano_ubs_det":"2016"},{"mes_ubs_det":"5"}],"geometry":{"type":"Point","coordinates":[-35.566241741179,-6.7540490627287]}},{"type":"Feature","properties":[{"gid":"8039"},{"co_cnes":"2313588"},{"lat":"-6.7542314529417"},{"long":"-38.217680454253"},{"no_fantasia":"ESF XI ANGELIM"},{"no_logradouro":"RUA JOAO MOREIRA"},{"nu_endereco":"135"},{"no_bairro":"ANGELIM"},{"nu_telefone":""},{"co_cep":"58800400"},{"uf":"PB"},{"cidade":"Sousa"},{"ano_ubs_det":"2016"},{"mes_ubs_det":"5"}],"geometry":{"type":"Point","coordinates":[-38.217680454253,-6.7542314529417]}},{"type":"Feature","properties":[{"gid":"8679"},{"co_cnes":"2334631"},{"lat":"-6.852715"},{"long":"-35.4899649848849"},{"no_fantasia":"UBS SANTA TEREZINHA DR JOAO SOARES"},{"no_logradouro":"PRACA DA JUVENTUDE"},{"nu_endereco":"S/N"},{"no_bairro":"SANTA TEREZINHA"},{"nu_telefone":"( )"},{"co_cep":"58200000"},{"uf":"PB"},{"cidade":"Guarabira"},{"ano_ubs_det":"2016"},{"mes_ubs_det":"5"}],"geometry":{"type":"Point","coordinates":[-35.489964984885,-6.852715]}},{"type":"Feature","properties":[{"gid":"8795"},{"co_cnes":"3092178"},{"lat":"-6.22676968574506"},{"long":"-37.655382156371"},{"no_fantasia":"UBS DR AMERICO MAIA DE VASCONCELOS"},{"no_logradouro":"SITIO DE CONCEICAO"},{"nu_endereco":"S/N"},{"no_bairro":"SITIO"},{"nu_telefone":"(83)4471049"},{"co_cep":"58884000"},{"uf":"PB"},{"cidade":"Catolé do Rocha"},{"ano_ubs_det":"2016"},{"mes_ubs_det":"5"}],"geometry":{"type":"Point","coordinates":[-37.655382156371,-6.2267696857451]}},{"type":"Feature","properties":[{"gid":"8422"},{"co_cnes":"3800776"},{"lat":"-6.36360526084881"},{"long":"-37.6931476593007"},{"no_fantasia":"UBS DR ANTONIO BENJAMIN FILHO"},{"no_logradouro":"SITIO BOQUEIRAO"},{"nu_endereco":"S/N"},{"no_bairro":"ZONA RURAL"},{"nu_telefone":""},{"co_cep":"58884000"},{"uf":"PB"},{"cidade":"Catolé do Rocha"},{"ano_ubs_det":"2016"},{"mes_ubs_det":"5"}],"geometry":{"type":"Point","coordinates":[-37.693147659301,-6.3636052608488]}},{"type":"Feature","properties":[{"gid":"8568"},{"co_cnes":"2605910"},{"lat":"-7.36427307128885"},{"long":"-35.8671855926503"},{"no_fantasia":"UBSF BAIXA VERDE"},{"no_logradouro":"SITIO BAIXA VERDE"},{"nu_endereco":"S/N"},{"no_bairro":"ZONA RURAL"},{"nu_telefone":"(83)33921109"},{"co_cep":"58475000"},{"uf":"PB"},{"cidade":"Queimadas"},{"ano_ubs_det":"2016"},{"mes_ubs_det":"5"}],"geometry":{"type":"Point","coordinates":[-35.86718559265,-7.3642730712889]}},{"type":"Feature","properties":[{"gid":"8601"},{"co_cnes":"7444036"},{"lat":"-7.13496035211081"},{"long":"-35.3368377685547"},{"no_fantasia":"PSF III VILA NOVA"},{"no_logradouro":"CONJUNTO BOA ESPERANCA"},{"nu_endereco":"22"},{"no_bairro":"ZONA URBANA"},{"nu_telefone":""},{"co_cep":"58350000"},{"uf":"PB"},{"cidade":"Caldas Brandão"},{"ano_ubs_det":"2016"},{"mes_ubs_det":"5"}],"geometry":{"type":"Point","coordinates":[-35.336837768555,-7.1349603521108]}},{"type":"Feature","properties":[{"gid":"8604"},{"co_cnes":"2606054"},{"lat":"-7.38837003707864"},{"long":"-35.9772849082936"},{"no_fantasia":"UBSF CAIXA DAGUA"},{"no_logradouro":"SITIO CAIXA DAGUA"},{"nu_endereco":"S/N"},{"no_bairro":"ZONA RURAL"},{"nu_telefone":"(83)33921109"},{"co_cep":"58475000"},{"uf":"PB"},{"cidade":"Queimadas"},{"ano_ubs_det":"2016"},{"mes_ubs_det":"5"}],"geometry":{"type":"Point","coordinates":[-35.977284908294,-7.3883700370786]}},{"type":"Feature","properties":[{"gid":"9137"},{"co_cnes":"3493121"},{"lat":"-7.01615452766398"},{"long":"-37.2735214233388"},{"no_fantasia":"UNIDADE DE SAUDE DA FAMILIA ROBERTO OBA"},{"no_logradouro":"RUA AURINO PEREIRA"},{"nu_endereco":"S/N"},{"no_bairro":"VITORIA"},{"nu_telefone":""},{"co_cep":"58700970"},{"uf":"PB"},{"cidade":"Patos"},{"ano_ubs_det":"2016"},{"mes_ubs_det":"5"}],"geometry":{"type":"Point","coordinates":[-37.273521423339,-7.016154527664]}},{"type":"Feature","properties":[{"gid":"9198"},{"co_cnes":"2363313"},{"lat":"-7.79257077750369"},{"long":"-36.6615328551699"},{"no_fantasia":"UNIDADE BASICA SAUDE DA FAMILIA I CONGO"},{"no_logradouro":"RUA JOAO DE SOUSA LIMA"},{"nu_endereco":"S/N"},{"no_bairro":"CENTRO"},{"nu_telefone":"(83)33591043"},{"co_cep":"58535000"},{"uf":"PB"},{"cidade":"Congo"},{"ano_ubs_det":"2016"},{"mes_ubs_det":"5"}],"geometry":{"type":"Point","coordinates":[-36.66153285517,-7.7925707775037]}},{"type":"Feature","properties":[{"gid":"8817"},{"co_cnes":"3182738"},{"lat":"-6.75659"},{"long":"-35.6571"},{"no_fantasia":"UNIDADE BASICA DE SAUDE PSF III SOLANEA"},{"no_logradouro":"RUA PROF ALAIDE SILVA"},{"nu_endereco":"S/N"},{"no_bairro":"CENTRO"},{"nu_telefone":"(83)3632872"},{"co_cep":"58225000"},{"uf":"PB"},{"cidade":"Solânea"},{"ano_ubs_det":"2016"},{"mes_ubs_det":"5"}],"geometry":{"type":"Point","coordinates":[-35.6571,-6.75659]}},{"type":"Feature","properties":[{"gid":"9134"},{"co_cnes":"2595389"},{"lat":"-7.2228527"},{"long":"-35.8696581"},{"no_fantasia":"UBS ANTONIO AURELIO VENTURA"},{"no_logradouro":"RUA MARIA EVA DE MOURA"},{"nu_endereco":"S/N"},{"no_bairro":"TRES IRMAS"},{"nu_telefone":"(83)33107072"},{"co_cep":"58423490"},{"uf":"PB"},{"cidade":"Campina Grande"},{"ano_ubs_det":"2016"},{"mes_ubs_det":"5"}],"geometry":{"type":"Point","coordinates":[-35.8696581,-7.2228527]}},{"type":"Feature","properties":[{"gid":"9018"},{"co_cnes":"2608839"},{"lat":"-6.78077459335307"},{"long":"-35.4987788200368"},{"no_fantasia":"UNIDADE DE SAUDE DA FAMILIA HUGO BARBOSA DE PAIVA"},{"no_logradouro":"TRAVESSA PADRE RICARDO"},{"nu_endereco":"S/N"},{"no_bairro":"CENTRO"},{"nu_telefone":"(83)2771018"},{"co_cep":"58213000"},{"uf":"PB"},{"cidade":"Pirpirituba"},{"ano_ubs_det":"2016"},{"mes_ubs_det":"5"}],"geometry":{"type":"Point","coordinates":[-35.498778820037,-6.7807745933531]}},{"type":"Feature","properties":[{"gid":"8807"},{"co_cnes":"5053188"},{"lat":"-7.22149704"},{"long":"-35.8838591147815"},{"no_fantasia":"UBS ARAXA"},{"no_logradouro":"RUA PROFESSOR EURIPEDES GOMES DA CRUZ"},{"nu_endereco":"S/N"},{"no_bairro":"JEREMIAS"},{"nu_telefone":"(83)33106049"},{"co_cep":"58404175"},{"uf":"PB"},{"cidade":"Campina Grande"},{"ano_ubs_det":"2016"},{"mes_ubs_det":"5"}],"geometry":{"type":"Point","coordinates":[-35.883859114782,-7.22149704]}},{"type":"Feature","properties":[{"gid":"9191"},{"co_cnes":"2595478"},{"lat":"-7.22149704"},{"long":"-35.8838591147815"},{"no_fantasia":"UBS WESLEY CARIRY TARGINO"},{"no_logradouro":"RUA JUIZ ORLANDO TEJO"},{"nu_endereco":"30"},{"no_bairro":"NOVA BRASILIA"},{"nu_telefone":"(83)33106353"},{"co_cep":"58406735"},{"uf":"PB"},{"cidade":"Campina Grande"},{"ano_ubs_det":"2016"},{"mes_ubs_det":"5"}],"geometry":{"type":"Point","coordinates":[-35.883859114782,-7.22149704]}},{"type":"Feature","properties":[{"gid":"9286"},{"co_cnes":"2798549"},{"lat":"-7.17655062675455"},{"long":"-34.8942947387685"},{"no_fantasia":"USF INTEGRADA COSTA E SILVA"},{"no_logradouro":"RUA GRACILIANO DELGADO"},{"nu_endereco":"S/N"},{"no_bairro":"COSTA E SILVA"},{"nu_telefone":"(83) 3218-9079"},{"co_cep":"58081000"},{"uf":"PB"},{"cidade":"João Pessoa"},{"ano_ubs_det":"2016"},{"mes_ubs_det":"5"}],"geometry":{"type":"Point","coordinates":[-34.894294738769,-7.1765506267546]}},{"type":"Feature","properties":[{"gid":"9498"},{"co_cnes":"2363941"},{"lat":"-7.3309315"},{"long":"-35.3375333858727"},{"no_fantasia":"UBSF ACUDE DAS PEDRAS"},{"no_logradouro":"RUA PAULO AFONSO"},{"nu_endereco":"10"},{"no_bairro":"ACUDE DAS PEDRAS"},{"nu_telefone":""},{"co_cep":"58360000"},{"uf":"PB"},{"cidade":"Itabaiana"},{"ano_ubs_det":"2016"},{"mes_ubs_det":"5"}],"geometry":{"type":"Point","coordinates":[-35.337533385873,-7.3309315]}},{"type":"Feature","properties":[{"gid":"9322"},{"co_cnes":"2342154"},{"lat":"-6.96698306327964"},{"long":"-34.8394300208048"},{"no_fantasia":"USF JACARE"},{"no_logradouro":"VILA DOS PESCADORES"},{"nu_endereco":"277"},{"no_bairro":"JACARE"},{"nu_telefone":""},{"co_cep":"58105770"},{"uf":"PB"},{"cidade":"Cabedelo"},{"ano_ubs_det":"2016"},{"mes_ubs_det":"5"}],"geometry":{"type":"Point","coordinates":[-34.839430020805,-6.9669830632796]}},{"type":"Feature","properties":[{"gid":"9223"},{"co_cnes":"2321483"},{"lat":"-6.84417960846357"},{"long":"-37.3251148399789"},{"no_fantasia":"UBS DR FRANCISCO WANDERLEY"},{"no_logradouro":"CONJUNTO ADONIAS RODRIGUES"},{"nu_endereco":"S/N"},{"no_bairro":"CENTRO"},{"nu_telefone":""},{"co_cep":"58723000"},{"uf":"PB"},{"cidade":"São José de Espinharas"},{"ano_ubs_det":"2016"},{"mes_ubs_det":"5"}],"geometry":{"type":"Point","coordinates":[-37.325114839979,-6.8441796084636]}},{"type":"Feature","properties":[{"gid":"9514"},{"co_cnes":"2591944"},{"lat":"-7.34287977218607"},{"long":"-35.734577178954"},{"no_fantasia":"UBSF BOM SUCESSO"},{"no_logradouro":"SITIO BOM SUCESSO"},{"nu_endereco":"S/N"},{"no_bairro":"ZONA RURAL"},{"nu_telefone":""},{"co_cep":"58487000"},{"uf":"PB"},{"cidade":"Fagundes"},{"ano_ubs_det":"2016"},{"mes_ubs_det":"5"}],"geometry":{"type":"Point","coordinates":[-35.734577178954,-7.3428797721861]}},{"type":"Feature","properties":[{"gid":"9486"},{"co_cnes":"2592908"},{"lat":"-6.63957"},{"long":"-35.28114"},{"no_fantasia":"CENTRO DE SAUDE SEVERINA FERNANDES"},{"no_logradouro":"AV SENADOR RUI CARNEIRO"},{"nu_endereco":"178"},{"no_bairro":"CENTRO"},{"nu_telefone":""},{"co_cep":"58273000"},{"uf":"PB"},{"cidade":"Pedro Régis"},{"ano_ubs_det":"2016"},{"mes_ubs_det":"5"}],"geometry":{"type":"Point","coordinates":[-35.28114,-6.63957]}},{"type":"Feature","properties":[{"gid":"9456"},{"co_cnes":"2321858"},{"lat":"-6.56208872795086"},{"long":"-38.3478426933277"},{"no_fantasia":"UNIDADE DE SAUDE DA FAMILIA IV JOAO BATISTA VIEIRA"},{"no_logradouro":"RUA PROJETADA"},{"nu_endereco":"S/N"},{"no_bairro":"DISTRITO"},{"nu_telefone":"8335341177"},{"co_cep":"58915000"},{"uf":"PB"},{"cidade":"Uiraúna"},{"ano_ubs_det":"2016"},{"mes_ubs_det":"5"}],"geometry":{"type":"Point","coordinates":[-38.347842693328,-6.5620887279509]}},{"type":"Feature","properties":[{"gid":"9793"},{"co_cnes":"2605007"},{"lat":"-7.73714"},{"long":"-37.97821"},{"no_fantasia":"UBS PSF PADRE IBIAPINA"},{"no_logradouro":"RUA FRANCISCO SALES MAIA"},{"nu_endereco":"S/N"},{"no_bairro":"CENTRO"},{"nu_telefone":""},{"co_cep":"58755000"},{"uf":"PB"},{"cidade":"Princesa Isabel"},{"ano_ubs_det":"2016"},{"mes_ubs_det":"5"}],"geometry":{"type":"Point","coordinates":[-37.97821,-7.73714]}},{"type":"Feature","properties":[{"gid":"9620"},{"co_cnes":"2342669"},{"lat":"-6.93469047546367"},{"long":"-36.3488459587087"},{"no_fantasia":"UBSF SANTA MARIA"},{"no_logradouro":"SITIO SANTA MARIA"},{"nu_endereco":"S/N"},{"no_bairro":"ZONA RURAL"},{"nu_telefone":"(83)33881005"},{"co_cep":"58158000"},{"uf":"PB"},{"cidade":"São Vicente do Seridó"},{"ano_ubs_det":"2016"},{"mes_ubs_det":"5"}],"geometry":{"type":"Point","coordinates":[-36.348845958709,-6.9346904754637]}},{"type":"Feature","properties":[{"gid":"9662"},{"co_cnes":"3914518"},{"lat":"-6.53341054916363"},{"long":"-38.419210910796"},{"no_fantasia":"UNIDADE DE SAUDE DA FAMILIA V LUIZ MARCENA DE ARAGAO"},{"no_logradouro":"CONJUNTO ANANIAS A FIGUEREDO"},{"nu_endereco":"S/N"},{"no_bairro":"AABB"},{"nu_telefone":"8335341177"},{"co_cep":"58915000"},{"uf":"PB"},{"cidade":"Uiraúna"},{"ano_ubs_det":"2016"},{"mes_ubs_det":"5"}],"geometry":{"type":"Point","coordinates":[-38.419210910796,-6.5334105491636]}},{"type":"Feature","properties":[{"gid":"9893"},{"co_cnes":"2613069"},{"lat":"-7.45119810104348"},{"long":"-36.197805404662"},{"no_fantasia":"UBSF MANOEL FRANCINALDO CABRAL DE BRITO"},{"no_logradouro":"SITIO BENTO"},{"nu_endereco":"S/N"},{"no_bairro":"ZONA RURAL"},{"nu_telefone":"(83)33911299"},{"co_cep":"58450000"},{"uf":"PB"},{"cidade":"Boqueirão"},{"ano_ubs_det":"2016"},{"mes_ubs_det":"5"}],"geometry":{"type":"Point","coordinates":[-36.197805404662,-7.4511981010435]}},{"type":"Feature","properties":[{"gid":"9661"},{"co_cnes":"2322110"},{"lat":"-6.92393585280371"},{"long":"-38.6783031916558"},{"no_fantasia":"UNIDADE BASICA SAUDE DA FAMILIA I CENTRO"},{"no_logradouro":"RUA JOSE LEITE ROLIM"},{"nu_endereco":"S/N"},{"no_bairro":"CENTRO"},{"nu_telefone":"(83) 35581021"},{"co_cep":"58935000"},{"uf":"PB"},{"cidade":"Cachoeira dos Índios"},{"ano_ubs_det":"2016"},{"mes_ubs_det":"5"}],"geometry":{"type":"Point","coordinates":[-38.678303191656,-6.9239358528037]}},{"type":"Feature","properties":[{"gid":"9842"},{"co_cnes":"2357674"},{"lat":"-6.60051865435005"},{"long":"-35.0485576738377"},{"no_fantasia":"UBS I JOSE TAVARES BEZERRA"},{"no_logradouro":"RUA DANIEL TOSCANO"},{"nu_endereco":"28"},{"no_bairro":"CENTRO"},{"nu_telefone":"(83) 3297-1318"},{"co_cep":"58292000"},{"uf":"PB"},{"cidade":"Mataraca"},{"ano_ubs_det":"2016"},{"mes_ubs_det":"5"}],"geometry":{"type":"Point","coordinates":[-35.048557673838,-6.60051865435]}},{"type":"Feature","properties":[{"gid":"9988"},{"co_cnes":"2607360"},{"lat":"-7.1473446"},{"long":"-35.958787"},{"no_fantasia":"UNIDADE DE SAUDE DA FAMILIA MATERNO INFANTIL"},{"no_logradouro":"AV 28 DE JANEIRO"},{"nu_endereco":"S/N"},{"no_bairro":"CENTRO"},{"nu_telefone":"( )"},{"co_cep":"58115000"},{"uf":"PB"},{"cidade":"Puxinanã"},{"ano_ubs_det":"2016"},{"mes_ubs_det":"5"}],"geometry":{"type":"Point","coordinates":[-35.958787,-7.1473446]}},{"type":"Feature","properties":[{"gid":"10316"},{"co_cnes":"2321394"},{"lat":"-7.10799223236892"},{"long":"-37.7145859750777"},{"no_fantasia":"UNIDADE DE SAUDE DA FAMILIA DE EMAS"},{"no_logradouro":"RUA VEREADOR MANOEL BATISTA NETO"},{"nu_endereco":"S/N"},{"no_bairro":"CENTRO"},{"nu_telefone":"08334261005"},{"co_cep":"58763000"},{"uf":"PB"},{"cidade":"Emas"},{"ano_ubs_det":"2016"},{"mes_ubs_det":"5"}],"geometry":{"type":"Point","coordinates":[-37.714585975078,-7.1079922323689]}},{"type":"Feature","properties":[{"gid":"10279"},{"co_cnes":"2505029"},{"lat":"-6.86818242073039"},{"long":"-38.4311413764942"},{"no_fantasia":"UBS JOSUE DE SOUSA ROLIM DIVINOPOLIS"},{"no_logradouro":"DIVINOPOLIS"},{"nu_endereco":"100"},{"no_bairro":"DIST DIVINOPOLIS"},{"nu_telefone":"(08)35314399"},{"co_cep":"58900000"},{"uf":"PB"},{"cidade":"Cajazeiras"},{"ano_ubs_det":"2016"},{"mes_ubs_det":"5"}],"geometry":{"type":"Point","coordinates":[-38.431141376494,-6.8681824207304]}},{"type":"Feature","properties":[{"gid":"10276"},{"co_cnes":"2591820"},{"lat":"-6.80757522582988"},{"long":"-35.6035780906667"},{"no_fantasia":"UNIDADE BASICA DE SAUDE PSF I BORBOREMA"},{"no_logradouro":"CONJUNTO NOVA ESPERANCA"},{"nu_endereco":"150"},{"no_bairro":"NOVA ESPERANCA"},{"nu_telefone":"(83)3601036"},{"co_cep":"58394000"},{"uf":"PB"},{"cidade":"Borborema"},{"ano_ubs_det":"2016"},{"mes_ubs_det":"5"}],"geometry":{"type":"Point","coordinates":[-35.603578090667,-6.8075752258299]}},{"type":"Feature","properties":[{"gid":"10397"},{"co_cnes":"2399326"},{"lat":"-7.11801409721354"},{"long":"-34.8353505134572"},{"no_fantasia":"USF JARDIM MIRAMAR I"},{"no_logradouro":"RUA MACRINA BARBOSA DE ABREU"},{"nu_endereco":"95"},{"no_bairro":"MIRAMAR"},{"nu_telefone":"(83) 3214-8907"},{"co_cep":"58027500"},{"uf":"PB"},{"cidade":"João Pessoa"},{"ano_ubs_det":"2016"},{"mes_ubs_det":"5"}],"geometry":{"type":"Point","coordinates":[-34.835350513457,-7.1180140972135]}},{"type":"Feature","properties":[{"gid":"10245"},{"co_cnes":"2607867"},{"lat":"-6.9481404046324"},{"long":"-35.5454913506159"},{"no_fantasia":"UNIDADE DO PSF I"},{"no_logradouro":"RUA JAIME ELOI CAVALCANTE"},{"nu_endereco":"56"},{"no_bairro":"CENTRO"},{"nu_telefone":"( )"},{"co_cep":"58390000"},{"uf":"PB"},{"cidade":"Alagoinha"},{"ano_ubs_det":"2016"},{"mes_ubs_det":"5"}],"geometry":{"type":"Point","coordinates":[-35.545491350616,-6.9481404046324]}},{"type":"Feature","properties":[{"gid":"10201"},{"co_cnes":"3702472"},{"lat":"-7.62130379676797"},{"long":"-35.8163094520558"},{"no_fantasia":"ESF MARIA BARBOSA DE MORAIS"},{"no_logradouro":"SITIO ROSILHA"},{"nu_endereco":"S/N"},{"no_bairro":"ZONA RURAL"},{"nu_telefone":"8333471074"},{"co_cep":"58492000"},{"uf":"PB"},{"cidade":"Gado Bravo"},{"ano_ubs_det":"2016"},{"mes_ubs_det":"5"}],"geometry":{"type":"Point","coordinates":[-35.816309452056,-7.621303796768]}},{"type":"Feature","properties":[{"gid":"10339"},{"co_cnes":"3035506"},{"lat":"-7.305586338043"},{"long":"-38.1622338294972"},{"no_fantasia":"UBSF IV VEREADORA NAZINHA GOMES"},{"no_logradouro":"RUA OSVALDO CRUZ"},{"nu_endereco":"124"},{"no_bairro":"BELA VISTA"},{"nu_telefone":"(83)3451-3371"},{"co_cep":"58780000"},{"uf":"PB"},{"cidade":"Itaporanga"},{"ano_ubs_det":"2016"},{"mes_ubs_det":"5"}],"geometry":{"type":"Point","coordinates":[-38.162233829497,-7.305586338043]}},{"type":"Feature","properties":[{"gid":"10277"},{"co_cnes":"2504650"},{"lat":"-6.8904645"},{"long":"-38.5605303718409"},{"no_fantasia":"USF JOAO BOSCO B BARRETO DOM BOSCO"},{"no_logradouro":"RUA LUIZ PAULO E SILVA"},{"nu_endereco":"92"},{"no_bairro":"CAPOEIRAS"},{"nu_telefone":"(83)05314399"},{"co_cep":"58900000"},{"uf":"PB"},{"cidade":"Cajazeiras"},{"ano_ubs_det":"2016"},{"mes_ubs_det":"5"}],"geometry":{"type":"Point","coordinates":[-38.560530371841,-6.8904645]}},{"type":"Feature","properties":[{"gid":"10317"},{"co_cnes":"2763001"},{"lat":"-7.36306160444852"},{"long":"-35.7846088757702"},{"no_fantasia":"CENTRO DE SAUDE DE FAGUNDES"},{"no_logradouro":"RUA RAIMUNDO TAVEIRA"},{"nu_endereco":"S/N"},{"no_bairro":"CENTRO"},{"nu_telefone":""},{"co_cep":"58487000"},{"uf":"PB"},{"cidade":"Fagundes"},{"ano_ubs_det":"2016"},{"mes_ubs_det":"5"}],"geometry":{"type":"Point","coordinates":[-35.78460887577,-7.3630616044485]}},{"type":"Feature","properties":[{"gid":"10370"},{"co_cnes":"2756102"},{"lat":"-7.09371"},{"long":"-34.86518"},{"no_fantasia":"USF INTEGRADA ALTO DO CEU"},{"no_logradouro":"RUA PORFIRIO RIBEIRO"},{"nu_endereco":"S/N"},{"no_bairro":"ALTO DO CEU"},{"nu_telefone":"(83) 32147129"},{"co_cep":"58027737"},{"uf":"PB"},{"cidade":"João Pessoa"},{"ano_ubs_det":"2016"},{"mes_ubs_det":"5"}],"geometry":{"type":"Point","coordinates":[-34.86518,-7.09371]}},{"type":"Feature","properties":[{"gid":"10275"},{"co_cnes":"2364417"},{"lat":"-6.64240503523788"},{"long":"-36.2530413530428"},{"no_fantasia":"ESF I SEVERINO LUIZ FERNANDES"},{"no_logradouro":"RUA GETULIO VARGAS"},{"nu_endereco":"195"},{"no_bairro":"CENTRO"},{"nu_telefone":"(83)36331151"},{"co_cep":"58188000"},{"uf":"PB"},{"cidade":"Baraúna"},{"ano_ubs_det":"2016"},{"mes_ubs_det":"5"}],"geometry":{"type":"Point","coordinates":[-36.253041353043,-6.6424050352379]}},{"type":"Feature","properties":[{"gid":"10175"},{"co_cnes":"2612550"},{"lat":"-7.43299530218586"},{"long":"-34.9119851554492"},{"no_fantasia":"UNIDADE DE SAUDE DA FAMILIA NOVA ALHANDRA"},{"no_logradouro":"RUA PROJETADA"},{"nu_endereco":"S/N"},{"no_bairro":"NOVA ALHANDRA"},{"nu_telefone":""},{"co_cep":"58320000"},{"uf":"PB"},{"cidade":"Alhandra"},{"ano_ubs_det":"2016"},{"mes_ubs_det":"5"}],"geometry":{"type":"Point","coordinates":[-34.911985155449,-7.4329953021859]}},{"type":"Feature","properties":[{"gid":"10274"},{"co_cnes":"2321254"},{"lat":"-7.12369501302356"},{"long":"-36.9435079583787"},{"no_fantasia":"UNIDADE DE SAUDE DA FAMILIA DE AREIA DE BARAUNAS"},{"no_logradouro":"RUA VALDECI SALES"},{"nu_endereco":"579"},{"no_bairro":"CENTRO"},{"nu_telefone":"(83)34651049"},{"co_cep":"58732000"},{"uf":"PB"},{"cidade":"Areia de Baraúnas"},{"ano_ubs_det":"2016"},{"mes_ubs_det":"5"}],"geometry":{"type":"Point","coordinates":[-36.943507958379,-7.1236950130236]}},{"type":"Feature","properties":[{"gid":"10368"},{"co_cnes":"3015963"},{"lat":"-7.10687"},{"long":"-34.83873"},{"no_fantasia":"USF INTEGRADA SAO JOSE"},{"no_logradouro":"AVENIDA VIGOLVINO FLORENTINO COSTA"},{"nu_endereco":"S/N"},{"no_bairro":"MANAIRA"},{"nu_telefone":"(83) 3214-8257"},{"co_cep":"58038580"},{"uf":"PB"},{"cidade":"João Pessoa"},{"ano_ubs_det":"2016"},{"mes_ubs_det":"5"}],"geometry":{"type":"Point","coordinates":[-34.83873,-7.10687]}},{"type":"Feature","properties":[{"gid":"10347"},{"co_cnes":"3053431"},{"lat":"-7.17815965967372"},{"long":"-34.8445893173218"},{"no_fantasia":"USF INTEGRADA NOVA UNIAO"},{"no_logradouro":"RUA SUBTENENTE JOAQUIM DO NASCIMENTO"},{"nu_endereco":"S/N"},{"no_bairro":"MANGABEIRA"},{"nu_telefone":"32141062"},{"co_cep":"58057590"},{"uf":"PB"},{"cidade":"João Pessoa"},{"ano_ubs_det":"2016"},{"mes_ubs_det":"5"}],"geometry":{"type":"Point","coordinates":[-34.844589317322,-7.1781596596737]}},{"type":"Feature","properties":[{"gid":"10281"},{"co_cnes":"2363321"},{"lat":"-7.89124209512659"},{"long":"-36.8316105814858"},{"no_fantasia":"CENTRO DE SAUDE PSF 02"},{"no_logradouro":"RUA PADRE FREDERICO TELINTELLO"},{"nu_endereco":"S/N"},{"no_bairro":"CENTRO"},{"nu_telefone":"(83)33021008"},{"co_cep":"58530000"},{"uf":"PB"},{"cidade":"Camalaú"},{"ano_ubs_det":"2016"},{"mes_ubs_det":"5"}],"geometry":{"type":"Point","coordinates":[-36.831610581486,-7.8912420951266]}},{"type":"Feature","properties":[{"gid":"10062"},{"co_cnes":"2343010"},{"lat":"-6.96698306327964"},{"long":"-34.8394300208048"},{"no_fantasia":"USF RENASCER II"},{"no_logradouro":"R NOVA ESPERANCA"},{"nu_endereco":"S/N"},{"no_bairro":"RENASCER 2"},{"nu_telefone":""},{"co_cep":"58108156"},{"uf":"PB"},{"cidade":"Cabedelo"},{"ano_ubs_det":"2016"},{"mes_ubs_det":"5"}],"geometry":{"type":"Point","coordinates":[-34.839430020805,-6.9669830632796]}},{"type":"Feature","properties":[{"gid":"10280"},{"co_cnes":"6357954"},{"lat":"-6.97054208115859"},{"long":"-37.8042833862305"},{"no_fantasia":"CENTRO DE SAUDE DALVA ALMEIDA RODRIGUES"},{"no_logradouro":"RUA ADELIA AMELIA DE ALMEIDA"},{"nu_endereco":"11"},{"no_bairro":"CENTRO"},{"nu_telefone":""},{"co_cep":"58855000"},{"uf":"PB"},{"cidade":"Cajazeirinhas"},{"ano_ubs_det":"2016"},{"mes_ubs_det":"5"}],"geometry":{"type":"Point","coordinates":[-37.80428338623,-6.9705420811586]}},{"type":"Feature","properties":[{"gid":"10243"},{"co_cnes":"2606992"},{"lat":"-7.04286"},{"long":"-35.62605"},{"no_fantasia":"UBSF IX CAIANA DOS CRIOLOS"},{"no_logradouro":"ST CAIANA DOS COCAIS"},{"nu_endereco":"S/N"},{"no_bairro":"CAIANA DOS COCAIS"},{"nu_telefone":"( )"},{"co_cep":"58388000"},{"uf":"PB"},{"cidade":"Alagoa Grande"},{"ano_ubs_det":"2016"},{"mes_ubs_det":"5"}],"geometry":{"type":"Point","coordinates":[-35.62605,-7.04286]}},{"type":"Feature","properties":[{"gid":"10244"},{"co_cnes":"3562247"},{"lat":"-7.09437847137431"},{"long":"-35.7946586608876"},{"no_fantasia":"UBSF QUEIRA DEUS"},{"no_logradouro":"DISTRITO QUEIRA DEUS"},{"nu_endereco":"S/N"},{"no_bairro":"ZONA RURAL"},{"nu_telefone":"(83)3651058"},{"co_cep":"58125000"},{"uf":"PB"},{"cidade":"Alagoa Nova"},{"ano_ubs_det":"2016"},{"mes_ubs_det":"5"}],"geometry":{"type":"Point","coordinates":[-35.794658660888,-7.0943784713743]}},{"type":"Feature","properties":[{"gid":"10257"},{"co_cnes":"6350593"},{"lat":"-6.9481404046324"},{"long":"-35.5454913506159"},{"no_fantasia":"UNIDADE DO PSF V"},{"no_logradouro":"RUA SIMAO TADEU"},{"nu_endereco":"S/N"},{"no_bairro":"CENTRO"},{"nu_telefone":""},{"co_cep":"58390000"},{"uf":"PB"},{"cidade":"Alagoinha"},{"ano_ubs_det":"2016"},{"mes_ubs_det":"5"}],"geometry":{"type":"Point","coordinates":[-35.545491350616,-6.9481404046324]}},{"type":"Feature","properties":[{"gid":"10336"},{"co_cnes":"2334615"},{"lat":"-6.8589985370634"},{"long":"-35.4898953437795"},{"no_fantasia":"UBS SAO JOSE DR MILTON DE MOURA RESENDE"},{"no_logradouro":"RUA ARTUR PONTES DA SILVA"},{"nu_endereco":"S/N"},{"no_bairro":"SAO JOSE"},{"nu_telefone":"(83)32718913"},{"co_cep":"58200000"},{"uf":"PB"},{"cidade":"Guarabira"},{"ano_ubs_det":"2016"},{"mes_ubs_det":"5"}],"geometry":{"type":"Point","coordinates":[-35.48989534378,-6.8589985370634]}},{"type":"Feature","properties":[{"gid":"10337"},{"co_cnes":"2334623"},{"lat":"-6.852715"},{"long":"-35.4899649848849"},{"no_fantasia":"UBS JUA APARECIDA"},{"no_logradouro":"AVENIDA JUSCELINO KUBITSCHEK"},{"nu_endereco":"S/N"},{"no_bairro":"JUA"},{"nu_telefone":"(83) 3271-1483"},{"co_cep":"58200000"},{"uf":"PB"},{"cidade":"Guarabira"},{"ano_ubs_det":"2016"},{"mes_ubs_det":"5"}],"geometry":{"type":"Point","coordinates":[-35.489964984885,-6.852715]}},{"type":"Feature","properties":[{"gid":"10533"},{"co_cnes":"2606178"},{"lat":"-6.4467751979826"},{"long":"-37.9285597801197"},{"no_fantasia":"PSF CENTRO DE SAUDE"},{"no_logradouro":"RUA JUSTINO FRAGOSO"},{"nu_endereco":"115"},{"no_bairro":"CENTRO"},{"nu_telefone":"3448-1040"},{"co_cep":"58887000"},{"uf":"PB"},{"cidade":"Bom Sucesso"},{"ano_ubs_det":"2016"},{"mes_ubs_det":"5"}],"geometry":{"type":"Point","coordinates":[-37.92855978012,-6.4467751979826]}},{"type":"Feature","properties":[{"gid":"10696"},{"co_cnes":"2607913"},{"lat":"-6.81020379066447"},{"long":"-35.3725004196157"},{"no_fantasia":"UBS PSF IV CANAFISTULA"},{"no_logradouro":"SITIO CANAFISTULA"},{"nu_endereco":"S/N"},{"no_bairro":"ZONA RURAL"},{"nu_telefone":"(83)2741048"},{"co_cep":"58270000"},{"uf":"PB"},{"cidade":"Araçagi"},{"ano_ubs_det":"2016"},{"mes_ubs_det":"5"}],"geometry":{"type":"Point","coordinates":[-35.372500419616,-6.8102037906645]}},{"type":"Feature","properties":[{"gid":"10778"},{"co_cnes":"2608987"},{"lat":"-6.84781908988933"},{"long":"-35.6305074691762"},{"no_fantasia":"UNIDADE BASICA DE SAUDE BIU PORFIRIO PSFIII"},{"no_logradouro":"SITIO LAGOA DO MATO"},{"nu_endereco":"S/N"},{"no_bairro":"ZONA RURAL"},{"nu_telefone":"(83)2751059"},{"co_cep":"58395000"},{"uf":"PB"},{"cidade":"Serraria"},{"ano_ubs_det":"2016"},{"mes_ubs_det":"5"}],"geometry":{"type":"Point","coordinates":[-35.630507469176,-6.8478190898893]}},{"type":"Feature","properties":[{"gid":"10615"},{"co_cnes":"2606801"},{"lat":"-7.01443791389445"},{"long":"-38.3945989608753"},{"no_fantasia":"UNIDADE DE SAUDE DA FAMILIA GERALDO BATISTA PSF IV"},{"no_logradouro":"DISTRITO DE BOM JESUS"},{"nu_endereco":"S/N"},{"no_bairro":"DISTRITO BOM JESUS"},{"nu_telefone":"(83)35521303"},{"co_cep":"58940000"},{"uf":"PB"},{"cidade":"São José de Piranhas"},{"ano_ubs_det":"2016"},{"mes_ubs_det":"5"}],"geometry":{"type":"Point","coordinates":[-38.394598960875,-7.0144379138944]}},{"type":"Feature","properties":[{"gid":"10611"},{"co_cnes":"3030008"},{"lat":"-7.00108051300028"},{"long":"-35.8081340789785"},{"no_fantasia":"UBSF III MANOEL DIAS DE LUNA"},{"no_logradouro":"SITIO GRAVATA ASSU"},{"nu_endereco":"S/N"},{"no_bairro":"ZONA RURAL"},{"nu_telefone":""},{"co_cep":"58398000"},{"uf":"PB"},{"cidade":"Remígio"},{"ano_ubs_det":"2016"},{"mes_ubs_det":"5"}],"geometry":{"type":"Point","coordinates":[-35.808134078978,-7.0010805130003]}},{"type":"Feature","properties":[{"gid":"10670"},{"co_cnes":"2321289"},{"lat":"-7.21235930264991"},{"long":"-37.0604021093534"},{"no_fantasia":"ESTRATEGIA SAUDE DA FAMILIA MARIA DAS NEVES ARRUDA ALMEIDA"},{"no_logradouro":"RUA VEREADOR MANOEL DE ALMEIDA"},{"nu_endereco":"S/N"},{"no_bairro":"DISTRITO"},{"nu_telefone":"(83)4731046"},{"co_cep":"58698000"},{"uf":"PB"},{"cidade":"Cacimbas"},{"ano_ubs_det":"2016"},{"mes_ubs_det":"5"}],"geometry":{"type":"Point","coordinates":[-37.060402109353,-7.2123593026499]}},{"type":"Feature","properties":[{"gid":"10580"},{"co_cnes":"2607298"},{"lat":"-7.07861726936986"},{"long":"-36.05644228101"},{"no_fantasia":"UBSF PADRE GALVAO"},{"no_logradouro":"SITIO ARRUDA"},{"nu_endereco":"S/N"},{"no_bairro":"ZONA RURAL"},{"nu_telefone":"8333841992"},{"co_cep":"58150000"},{"uf":"PB"},{"cidade":"Pocinhos"},{"ano_ubs_det":"2016"},{"mes_ubs_det":"5"}],"geometry":{"type":"Point","coordinates":[-36.05644228101,-7.0786172693699]}},{"type":"Feature","properties":[{"gid":"10477"},{"co_cnes":"2606828"},{"lat":"-6.21291534073981"},{"long":"-37.3538296761784"},{"no_fantasia":"CENTRO DE SAUDE DR JUAREZ SARAIVA MAIA PSF"},{"no_logradouro":"RUA CONEGO SANDOVAL"},{"nu_endereco":"01"},{"no_bairro":"CENTRO"},{"nu_telefone":"(83)4432661"},{"co_cep":"58893000"},{"uf":"PB"},{"cidade":"São José do Brejo do Cruz"},{"ano_ubs_det":"2016"},{"mes_ubs_det":"5"}],"geometry":{"type":"Point","coordinates":[-37.353829676178,-6.2129153407398]}},{"type":"Feature","properties":[{"gid":"10765"},{"co_cnes":"2343215"},{"lat":"-7.087111"},{"long":"-35.2304326165497"},{"no_fantasia":"UNIDADE SAUDE DA FAMILIAPSF I USINA SANTA HELENA"},{"no_logradouro":"USINA SANTA HELENA"},{"nu_endereco":"S/N"},{"no_bairro":"ZONA RURAL"},{"nu_telefone":""},{"co_cep":"58340000"},{"uf":"PB"},{"cidade":"Sapé"},{"ano_ubs_det":"2016"},{"mes_ubs_det":"5"}],"geometry":{"type":"Point","coordinates":[-35.23043261655,-7.087111]}},{"type":"Feature","properties":[{"gid":"10481"},{"co_cnes":"3063291"},{"lat":"-7.1739624"},{"long":"-34.8758062"},{"no_fantasia":"USF INTEGRADA SAUDE E VIDA"},{"no_logradouro":"RUA DR MAURILIO DE ALMEIDA"},{"nu_endereco":"S/N"},{"no_bairro":"ESPLANADA"},{"nu_telefone":"(83)32189181"},{"co_cep":"58076658"},{"uf":"PB"},{"cidade":"João Pessoa"},{"ano_ubs_det":"2016"},{"mes_ubs_det":"5"}],"geometry":{"type":"Point","coordinates":[-34.8758062,-7.1739624]}},{"type":"Feature","properties":[{"gid":"10567"},{"co_cnes":"3000249"},{"lat":"-6.8084485"},{"long":"-35.0788522259515"},{"no_fantasia":"UNIDADE DE SAUDE DA FAMILIA 5 RUAS"},{"no_logradouro":"RUA SAOPEDRO"},{"nu_endereco":"2198"},{"no_bairro":"CENTRO"},{"nu_telefone":"(83)2912701"},{"co_cep":"58297000"},{"uf":"PB"},{"cidade":"Rio Tinto"},{"ano_ubs_det":"2016"},{"mes_ubs_det":"5"}],"geometry":{"type":"Point","coordinates":[-35.078852225952,-6.8084485]}},{"type":"Feature","properties":[{"gid":"10463"},{"co_cnes":"2342480"},{"lat":"-7.056384"},{"long":"-35.3185424166403"},{"no_fantasia":"CENTRO DE SAUDE DE MARI"},{"no_logradouro":"RUA MANOEL AVELINO DE PAIVA"},{"nu_endereco":"S/N"},{"no_bairro":"CENTRO"},{"nu_telefone":"(83) 32872508"},{"co_cep":"58345000"},{"uf":"PB"},{"cidade":"Mari"},{"ano_ubs_det":"2016"},{"mes_ubs_det":"5"}],"geometry":{"type":"Point","coordinates":[-35.31854241664,-7.056384]}},{"type":"Feature","properties":[{"gid":"10409"},{"co_cnes":"2342979"},{"lat":"-7.06770658493021"},{"long":"-35.3199076652517"},{"no_fantasia":"UNIDADE DE SAUDE DA FAMILIA PROCANOR"},