[{"type":"Feature","properties":[{"gid":"57"},{"co_cnes":"2429624"},{"lat":"-9.14414405822727"},{"long":"-40.3231072425831"},{"no_fantasia":"UBS OSVALDO COELHO"},{"no_logradouro":"RUA ANTONIO RIBEIRO"},{"nu_endereco":"S/N"},{"no_bairro":"ZONA RURAL"},{"nu_telefone":"87 3986 5256"},{"co_cep":"56304020"},{"uf":"PE"},{"cidade":"Petrolina"},{"ano_ubs_det":"2016"},{"mes_ubs_det":"5"}],"geometry":{"type":"Point","coordinates":[-40.323107242583,-9.1441440582273]}},{"type":"Feature","properties":[{"gid":"83"},{"co_cnes":"2714574"},{"lat":"-7.82018755617015"},{"long":"-38.1487798690796"},{"no_fantasia":"USF MANOEL DA PAZ"},{"no_logradouro":"SITIO VELHO"},{"nu_endereco":"S/N"},{"no_bairro":"ZONA RURAL"},{"nu_telefone":"(87)38468149"},{"co_cep":"56895000"},{"uf":"PE"},{"cidade":"Santa Cruz da Baixa Verde"},{"ano_ubs_det":"2016"},{"mes_ubs_det":"5"}],"geometry":{"type":"Point","coordinates":[-38.14877986908,-7.8201875561701]}},{"type":"Feature","properties":[{"gid":"226"},{"co_cnes":"7178689"},{"lat":"-8.882"},{"long":"-36.191"},{"no_fantasia":"UNIDADE DE SAUDE DA FAMILIA MARIA JOSE GONZAGA"},{"no_logradouro":"POVODO DE OLHO DAGUA"},{"nu_endereco":"S/N"},{"no_bairro":"CENTRO"},{"nu_telefone":""},{"co_cep":"55420000"},{"uf":"PE"},{"cidade":"Canhotinho"},{"ano_ubs_det":"2016"},{"mes_ubs_det":"5"}],"geometry":{"type":"Point","coordinates":[-36.191,-8.882]}},{"type":"Feature","properties":[{"gid":"673"},{"co_cnes":"2631458"},{"lat":"-8.60253095626806"},{"long":"-35.9547114372243"},{"no_fantasia":"ESF NOVO HORIZONTE"},{"no_logradouro":"RUA JOSE BONIFACIO"},{"nu_endereco":"S/N"},{"no_bairro":"NOVO HORIZONTE"},{"nu_telefone":""},{"co_cep":"55460000"},{"uf":"PE"},{"cidade":"Cupira"},{"ano_ubs_det":"2016"},{"mes_ubs_det":"5"}],"geometry":{"type":"Point","coordinates":[-35.954711437224,-8.6025309562681]}},{"type":"Feature","properties":[{"gid":"533"},{"co_cnes":"3033503"},{"lat":"-8.09973478317237"},{"long":"-35.0162601470937"},{"no_fantasia":"USF SANTO ALEIXO I"},{"no_logradouro":"RUA SANTA MARTA"},{"nu_endereco":"32"},{"no_bairro":"SANTO ALEIXO"},{"nu_telefone":"81 3481-0170"},{"co_cep":"54140380"},{"uf":"PE"},{"cidade":"Jaboatão dos Guararapes"},{"ano_ubs_det":"2016"},{"mes_ubs_det":"5"}],"geometry":{"type":"Point","coordinates":[-35.016260147094,-8.0997347831724]}},{"type":"Feature","properties":[{"gid":"589"},{"co_cnes":"361"},{"lat":"-8.29779982566809"},{"long":"-35.0369024276723"},{"no_fantasia":"USF SAO FRANCISCO II"},{"no_logradouro":"RUA 03"},{"nu_endereco":"11"},{"no_bairro":"SAO FRANCISCO"},{"nu_telefone":"(81)35249248"},{"co_cep":"54520460"},{"uf":"PE"},{"cidade":"Cabo de Santo Agostinho"},{"ano_ubs_det":"2016"},{"mes_ubs_det":"5"}],"geometry":{"type":"Point","coordinates":[-35.036902427672,-8.2977998256681]}},{"type":"Feature","properties":[{"gid":"424"},{"co_cnes":"26352"},{"lat":"-8.11986"},{"long":"-34.95755"},{"no_fantasia":"US 267 PSF UR 2"},{"no_logradouro":"AV SANTA FE"},{"nu_endereco":"240"},{"no_bairro":"COHAB"},{"nu_telefone":"(81) 33556238"},{"co_cep":"51340240"},{"uf":"PE"},{"cidade":"Recife"},{"ano_ubs_det":"2016"},{"mes_ubs_det":"5"}],"geometry":{"type":"Point","coordinates":[-34.95755,-8.11986]}},{"type":"Feature","properties":[{"gid":"446"},{"co_cnes":"29130"},{"lat":"-8.06276248305241"},{"long":"-34.8889419445777"},{"no_fantasia":"US 285 PSF SAO JOSE DO COQUE"},{"no_logradouro":"AV CENTRAL"},{"nu_endereco":"S/N"},{"no_bairro":"ILHA JOANA BEZERRA"},{"nu_telefone":"(81) 33556226"},{"co_cep":"50080705"},{"uf":"PE"},{"cidade":"Recife"},{"ano_ubs_det":"2016"},{"mes_ubs_det":"5"}],"geometry":{"type":"Point","coordinates":[-34.888941944578,-8.0627624830524]}},{"type":"Feature","properties":[{"gid":"1182"},{"co_cnes":"2631776"},{"lat":"-8.60096454620336"},{"long":"-36.0462069511403"},{"no_fantasia":"ESF SAO JOSE DO BOLA"},{"no_logradouro":"VILA DE SAO JOSE DO BOLA"},{"nu_endereco":"S/N"},{"no_bairro":"ZONA RURAL"},{"nu_telefone":""},{"co_cep":"55473000"},{"uf":"PE"},{"cidade":"Panelas"},{"ano_ubs_det":"2016"},{"mes_ubs_det":"5"}],"geometry":{"type":"Point","coordinates":[-36.04620695114,-8.6009645462034]}},{"type":"Feature","properties":[{"gid":"1013"},{"co_cnes":"3820130"},{"lat":"-9.0577780594961"},{"long":"-36.6214759481747"},{"no_fantasia":"PSF PRETA GOMES"},{"no_logradouro":"RUA CORONEL FRANCISCO MARTINS"},{"nu_endereco":"01"},{"no_bairro":"CENTRO"},{"nu_telefone":""},{"co_cep":"55305000"},{"uf":"PE"},{"cidade":"Terezinha"},{"ano_ubs_det":"2016"},{"mes_ubs_det":"5"}],"geometry":{"type":"Point","coordinates":[-36.621475948175,-9.0577780594961]}},{"type":"Feature","properties":[{"gid":"1016"},{"co_cnes":"2355744"},{"lat":"-7.66183733940102"},{"long":"-35.37831544876"},{"no_fantasia":"PSF BORRACHA"},{"no_logradouro":"R SINEZIO BANDEIRA"},{"nu_endereco":"S/N"},{"no_bairro":"POV BORRACHA"},{"nu_telefone":"(81)36015079"},{"co_cep":"55850000"},{"uf":"PE"},{"cidade":"Vicência"},{"ano_ubs_det":"2016"},{"mes_ubs_det":"5"}],"geometry":{"type":"Point","coordinates":[-35.37831544876,-7.661837339401]}},{"type":"Feature","properties":[{"gid":"1578"},{"co_cnes":"2432374"},{"lat":"-7.77403476474653"},{"long":"-34.8892710487235"},{"no_fantasia":"USF MANGABEIRA"},{"no_logradouro":"RUA PORTO ALEGRE"},{"nu_endereco":"S/N"},{"no_bairro":"MANGABEIRA"},{"nu_telefone":"(81)35430262"},{"co_cep":"53700000"},{"uf":"PE"},{"cidade":"Itapissuma"},{"ano_ubs_det":"2016"},{"mes_ubs_det":"5"}],"geometry":{"type":"Point","coordinates":[-34.889271048724,-7.7740347647465]}},{"type":"Feature","properties":[{"gid":"1596"},{"co_cnes":"2635399"},{"lat":"-8.15857172012305"},{"long":"-40.6113266944873"},{"no_fantasia":"USF DE SANTA FILOMENA"},{"no_logradouro":"PRACA DA MATRIZ"},{"nu_endereco":"S/N"},{"no_bairro":"CENTRO"},{"nu_telefone":"(87)38747156"},{"co_cep":"56210000"},{"uf":"PE"},{"cidade":"Santa Filomena"},{"ano_ubs_det":"2016"},{"mes_ubs_det":"5"}],"geometry":{"type":"Point","coordinates":[-40.611326694487,-8.158571720123]}},{"type":"Feature","properties":[{"gid":"1541"},{"co_cnes":"5512387"},{"lat":"-7.51174567401951"},{"long":"-35.3187721210384"},{"no_fantasia":"PSF OZANA"},{"no_logradouro":"RUA PATATIVA"},{"nu_endereco":"S/N"},{"no_bairro":"LOT OZANA"},{"nu_telefone":"8136310907"},{"co_cep":"55870000"},{"uf":"PE"},{"cidade":"Timbaúba"},{"ano_ubs_det":"2016"},{"mes_ubs_det":"5"}],"geometry":{"type":"Point","coordinates":[-35.318772121038,-7.5117456740195]}},{"type":"Feature","properties":[{"gid":"1563"},{"co_cnes":"6759157"},{"lat":"-8.39412331581091"},{"long":"-39.7755289077747"},{"no_fantasia":"USF AGROVILA 43"},{"no_logradouro":"AGROVILA 43 PROJETO CARAIBAS"},{"nu_endereco":"S/N"},{"no_bairro":"ZONA RURAL"},{"nu_telefone":""},{"co_cep":"56380000"},{"uf":"PE"},{"cidade":"Santa Maria da Boa Vista"},{"ano_ubs_det":"2016"},{"mes_ubs_det":"5"}],"geometry":{"type":"Point","coordinates":[-39.775528907775,-8.3941233158109]}},{"type":"Feature","properties":[{"gid":"1264"},{"co_cnes":"5702445"},{"lat":"-8.82788502205398"},{"long":"-36.0119895299569"},{"no_fantasia":"UNIDADE DE SAUDE DA FAMILIA FERNANDO SALES DOS SANTOS"},{"no_logradouro":"RUA PROFESSOR NIVALDO MAURICIO SANTOS"},{"nu_endereco":"S/N"},{"no_bairro":"CENTRO"},{"nu_telefone":""},{"co_cep":"55415000"},{"uf":"PE"},{"cidade":"Quipapá"},{"ano_ubs_det":"2016"},{"mes_ubs_det":"5"}],"geometry":{"type":"Point","coordinates":[-36.011989529957,-8.827885022054]}},{"type":"Feature","properties":[{"gid":"1733"},{"co_cnes":"2352052"},{"lat":"-7.65444517135598"},{"long":"-35.477020740508"},{"no_fantasia":"UNIDADE DE SAUDE DA FAMILIA CENTRO SIRIJI"},{"no_logradouro":"RUA SANDOVAL DO EGITO"},{"nu_endereco":"S/N"},{"no_bairro":"SIRIJI"},{"nu_telefone":"(81)36051094"},{"co_cep":"55860000"},{"uf":"PE"},{"cidade":"São Vicente Ferrer"},{"ano_ubs_det":"2016"},{"mes_ubs_det":"5"}],"geometry":{"type":"Point","coordinates":[-35.477020740508,-7.654445171356]}},{"type":"Feature","properties":[{"gid":"1807"},{"co_cnes":"2631237"},{"lat":"-8.58134150505041"},{"long":"-35.8769059181203"},{"no_fantasia":"USF VILA DE SANTANA HERMENEGILDO F DE AMORIM"},{"no_logradouro":"PRACA JOSE GUEDES"},{"nu_endereco":"S/N"},{"no_bairro":"RURAL"},{"nu_telefone":""},{"co_cep":"55670000"},{"uf":"PE"},{"cidade":"São Joaquim do Monte"},{"ano_ubs_det":"2016"},{"mes_ubs_det":"5"}],"geometry":{"type":"Point","coordinates":[-35.87690591812,-8.5813415050504]}},{"type":"Feature","properties":[{"gid":"1614"},{"co_cnes":"3854221"},{"lat":"-8.68630170822118"},{"long":"-35.5961537361135"},{"no_fantasia":"UNIDADE DE SAUDE DA FAMILIA ANTONIO RICARDO MELO MADEIRA"},{"no_logradouro":"AVENIDA CORONEL PEDRO PARANHOS"},{"nu_endereco":"S/N"},{"no_bairro":"CENTRO"},{"nu_telefone":""},{"co_cep":"55540000"},{"uf":"PE"},{"cidade":"Palmares"},{"ano_ubs_det":"2016"},{"mes_ubs_det":"5"}],"geometry":{"type":"Point","coordinates":[-35.596153736114,-8.6863017082212]}},{"type":"Feature","properties":[{"gid":"1712"},{"co_cnes":"2355779"},{"lat":"-7.6529595"},{"long":"-35.320300689316"},{"no_fantasia":"PSF IMBU"},{"no_logradouro":"ENGENHO IMBU"},{"nu_endereco":"S/N"},{"no_bairro":"ZONA RURAL"},{"nu_telefone":"(81)36411334"},{"co_cep":"55850000"},{"uf":"PE"},{"cidade":"Vicência"},{"ano_ubs_det":"2016"},{"mes_ubs_det":"5"}],"geometry":{"type":"Point","coordinates":[-35.320300689316,-7.6529595]}},{"type":"Feature","properties":[{"gid":"1911"},{"co_cnes":"2356422"},{"lat":"-8.8396156570785"},{"long":"-36.0081624984741"},{"no_fantasia":"UNIDADE DE SAUDE DA FAMILIA ANTONIO ELIAS BRASIL"},{"no_logradouro":"VILA NOVA"},{"nu_endereco":"S/N"},{"no_bairro":"ZONA RURAL"},{"nu_telefone":""},{"co_cep":"55415000"},{"uf":"PE"},{"cidade":"Quipapá"},{"ano_ubs_det":"2016"},{"mes_ubs_det":"5"}],"geometry":{"type":"Point","coordinates":[-36.008162498474,-8.8396156570785]}},{"type":"Feature","properties":[{"gid":"1908"},{"co_cnes":"2637448"},{"lat":"-7.67605304717995"},{"long":"-40.0816440582264"},{"no_fantasia":"USF 09 ESPEDITO GOMES DINIZ"},{"no_logradouro":"SITIO CUPIM"},{"nu_endereco":"S/N"},{"no_bairro":"CUPIM"},{"nu_telefone":""},{"co_cep":"56220000"},{"uf":"PE"},{"cidade":"Bodocó"},{"ano_ubs_det":"2016"},{"mes_ubs_det":"5"}],"geometry":{"type":"Point","coordinates":[-40.081644058226,-7.67605304718]}},{"type":"Feature","properties":[{"gid":"1972"},{"co_cnes":"2633108"},{"lat":"-8.08381319045997"},{"long":"-37.2635006904591"},{"no_fantasia":"USF ALTO DO RIO BRANCO"},{"no_logradouro":"RUA TENENTE JOSE PIRES"},{"nu_endereco":"S/N"},{"no_bairro":"ALTO DO RIO BRANCO"},{"nu_telefone":"(87)38411554"},{"co_cep":"56600000"},{"uf":"PE"},{"cidade":"Sertânia"},{"ano_ubs_det":"2016"},{"mes_ubs_det":"5"}],"geometry":{"type":"Point","coordinates":[-37.263500690459,-8.08381319046]}},{"type":"Feature","properties":[{"gid":"1925"},{"co_cnes":"2428172"},{"lat":"-7.91322469711281"},{"long":"-35.6261730194081"},{"no_fantasia":"PSF DE QUEIMADOS"},{"no_logradouro":"SITIO QUEIMADAS"},{"nu_endereco":"55675000"},{"no_bairro":"CENTRO"},{"nu_telefone":"(81)36541156"},{"co_cep":"55675000"},{"uf":"PE"},{"cidade":"Salgadinho"},{"ano_ubs_det":"2016"},{"mes_ubs_det":"5"}],"geometry":{"type":"Point","coordinates":[-35.626173019408,-7.9132246971128]}},{"type":"Feature","properties":[{"gid":"1811"},{"co_cnes":"5683173"},{"lat":"-8.88890553"},{"long":"-36.4930502821005"},{"no_fantasia":"USF HELIOPOLIS I"},{"no_logradouro":"RUA AUGUSTINHO BRANCO"},{"nu_endereco":"S/N"},{"no_bairro":"HELIOPOLIS"},{"nu_telefone":"37627034"},{"co_cep":"55296350"},{"uf":"PE"},{"cidade":"Garanhuns"},{"ano_ubs_det":"2016"},{"mes_ubs_det":"5"}],"geometry":{"type":"Point","coordinates":[-36.4930502821,-8.88890553]}},{"type":"Feature","properties":[{"gid":"1983"},{"co_cnes":"3033554"},{"lat":"-8.09980988502479"},{"long":"-35.0161743164052"},{"no_fantasia":"USF SANTO ALEIXO II"},{"no_logradouro":"RUA SANTA MARTA"},{"nu_endereco":"32"},{"no_bairro":"SANTO ALEIXO"},{"nu_telefone":"81-3481-0170"},{"co_cep":"54140380"},{"uf":"PE"},{"cidade":"Jaboatão dos Guararapes"},{"ano_ubs_det":"2016"},{"mes_ubs_det":"5"}],"geometry":{"type":"Point","coordinates":[-35.016174316405,-8.0998098850248]}},{"type":"Feature","properties":[{"gid":"1984"},{"co_cnes":"3001369"},{"lat":"-8.95808458328221"},{"long":"-36.6192555427541"},{"no_fantasia":"USF MIRACICA I"},{"no_logradouro":"DISTRITO DE MIRACICA"},{"nu_endereco":"S/N"},{"no_bairro":"RURAL"},{"nu_telefone":""},{"co_cep":"55296350"},{"uf":"PE"},{"cidade":"Garanhuns"},{"ano_ubs_det":"2016"},{"mes_ubs_det":"5"}],"geometry":{"type":"Point","coordinates":[-36.619255542754,-8.9580845832822]}},{"type":"Feature","properties":[{"gid":"1674"},{"co_cnes":"3779785"},{"lat":"-8.16539146735745"},{"long":"-34.9211734672603"},{"no_fantasia":"USF CURADO III II"},{"no_logradouro":"RUA ANTONIO JACOME BEZERRA"},{"nu_endereco":"S/N"},{"no_bairro":"CURADO III"},{"nu_telefone":"81-3452-3869"},{"co_cep":"54220240"},{"uf":"PE"},{"cidade":"Jaboatão dos Guararapes"},{"ano_ubs_det":"2016"},{"mes_ubs_det":"5"}],"geometry":{"type":"Point","coordinates":[-34.92117346726,-8.1653914673575]}},{"type":"Feature","properties":[{"gid":"1632"},{"co_cnes":"2637022"},{"lat":"-7.70723104476906"},{"long":"-35.6821131706227"},{"no_fantasia":"PSF DE VILA NOVA"},{"no_logradouro":"ST VILA NOVA"},{"nu_endereco":"S/N"},{"no_bairro":"ZONA RURAL"},{"nu_telefone":"(81)36349156"},{"co_cep":"55755000"},{"uf":"PE"},{"cidade":"Casinhas"},{"ano_ubs_det":"2016"},{"mes_ubs_det":"5"}],"geometry":{"type":"Point","coordinates":[-35.682113170623,-7.7072310447691]}},{"type":"Feature","properties":[{"gid":"1839"},{"co_cnes":"2432463"},{"lat":"-8.00914049148536"},{"long":"-37.9964947700489"},{"no_fantasia":"PSF SAO JOAO DOS LEITES"},{"no_logradouro":"RUA SAO JOAO DOS LEITES"},{"nu_endereco":"120"},{"no_bairro":"POVOADO DE SAO JOAO"},{"nu_telefone":"(81)38571156"},{"co_cep":"56850000"},{"uf":"PE"},{"cidade":"Flores"},{"ano_ubs_det":"2016"},{"mes_ubs_det":"5"}],"geometry":{"type":"Point","coordinates":[-37.996494770049,-8.0091404914854]}},{"type":"Feature","properties":[{"gid":"1943"},{"co_cnes":"3350487"},{"lat":"-8.47037"},{"long":"-35.72646"},{"no_fantasia":"CEO CENTRO DE ESPECIALIZACAO ODONTOLOGICA"},{"no_logradouro":"RUA DEPUTADO PAULO VIANA DE QUEIROZ"},{"nu_endereco":"S/N"},{"no_bairro":"CENTRO"},{"nu_telefone":""},{"co_cep":"55680000"},{"uf":"PE"},{"cidade":"Bonito"},{"ano_ubs_det":"2016"},{"mes_ubs_det":"5"}],"geometry":{"type":"Point","coordinates":[-35.72646,-8.47037]}},{"type":"Feature","properties":[{"gid":"1787"},{"co_cnes":"2638150"},{"lat":"-8.12355"},{"long":"-35.3131"},{"no_fantasia":"U S F LAGOA REDONDA"},{"no_logradouro":"RUA PROF VALDINETE GUEDES"},{"nu_endereco":"100"},{"no_bairro":"LAGOA REDONDA"},{"nu_telefone":"(81)35237544"},{"co_cep":"55602000"},{"uf":"PE"},{"cidade":"Vitória de Santo Antão"},{"ano_ubs_det":"2016"},{"mes_ubs_det":"5"}],"geometry":{"type":"Point","coordinates":[-35.3131,-8.12355]}},{"type":"Feature","properties":[{"gid":"1667"},{"co_cnes":"2704188"},{"lat":"-8.96917819976781"},{"long":"-37.2934341430653"},{"no_fantasia":"UNIDADE DE SAUDE DA FAMILIA MARIA SIRINA DA LUZ"},{"no_logradouro":"ASSENTAMENTO BARRA VERDE"},{"nu_endereco":"S/N"},{"no_bairro":"ZONA RURAL"},{"nu_telefone":""},{"co_cep":"56550000"},{"uf":"PE"},{"cidade":"Itaíba"},{"ano_ubs_det":"2016"},{"mes_ubs_det":"5"}],"geometry":{"type":"Point","coordinates":[-37.293434143065,-8.9691781997678]}},{"type":"Feature","properties":[{"gid":"1767"},{"co_cnes":"2345846"},{"lat":"-8.25796365737891"},{"long":"-35.8829355239858"},{"no_fantasia":"UBS GONCALVES FERREIRA"},{"no_logradouro":"RUA SAO PEDRO"},{"nu_endereco":"S/N"},{"no_bairro":"VILA GONCALVES FERRE"},{"nu_telefone":"(81)37221402"},{"co_cep":"55105000"},{"uf":"PE"},{"cidade":"Caruaru"},{"ano_ubs_det":"2016"},{"mes_ubs_det":"5"}],"geometry":{"type":"Point","coordinates":[-35.882935523986,-8.2579636573789]}},{"type":"Feature","properties":[{"gid":"1913"},{"co_cnes":"2349981"},{"lat":"-8.18622700894123"},{"long":"-36.7058798977192"},{"no_fantasia":"PSF RENASCENCA"},{"no_logradouro":"RUA LAURENTINO C AGUIAR"},{"nu_endereco":"S/N"},{"no_bairro":"BELA VISTA"},{"nu_telefone":"(81)38341156"},{"co_cep":"55240000"},{"uf":"PE"},{"cidade":"Poção"},{"ano_ubs_det":"2016"},{"mes_ubs_det":"5"}],"geometry":{"type":"Point","coordinates":[-36.705879897719,-8.1862270089412]}},{"type":"Feature","properties":[{"gid":"1877"},{"co_cnes":"2343991"},{"lat":"-8.95545601844762"},{"long":"-36.348009109496"},{"no_fantasia":"PSF DE SANTA RITA"},{"no_logradouro":"SITIO SANTA RITA"},{"nu_endereco":"S/N"},{"no_bairro":"ZONA RURAL"},{"nu_telefone":"(81)37841152"},{"co_cep":"55435000"},{"uf":"PE"},{"cidade":"São João"},{"ano_ubs_det":"2016"},{"mes_ubs_det":"5"}],"geometry":{"type":"Point","coordinates":[-36.348009109496,-8.9554560184476]}},{"type":"Feature","properties":[{"gid":"2327"},{"co_cnes":"1813"},{"lat":"-8.03859114646888"},{"long":"-34.9309229850759"},{"no_fantasia":"US 112 CS DR JOSE DUSTAN CARVALHO SOARES"},{"no_logradouro":"AV MAURICIO DE NASSAU"},{"nu_endereco":"S/N"},{"no_bairro":"IPUTINGA"},{"nu_telefone":"(81) 33554389"},{"co_cep":"50731490"},{"uf":"PE"},{"cidade":"Recife"},{"ano_ubs_det":"2016"},{"mes_ubs_det":"5"}],"geometry":{"type":"Point","coordinates":[-34.930922985076,-8.0385911464689]}},{"type":"Feature","properties":[{"gid":"2110"},{"co_cnes":"7205929"},{"lat":"-8.50347413888055"},{"long":"-35.3776566772461"},{"no_fantasia":"ESF XII FIRMINO SOUZA BARROSO"},{"no_logradouro":"TRAV NOVA YORK"},{"nu_endereco":"S/N"},{"no_bairro":"CANAVIAL"},{"nu_telefone":""},{"co_cep":"55520000"},{"uf":"PE"},{"cidade":"Ribeirão"},{"ano_ubs_det":"2016"},{"mes_ubs_det":"5"}],"geometry":{"type":"Point","coordinates":[-35.377656677246,-8.5034741388806]}},{"type":"Feature","properties":[{"gid":"2155"},{"co_cnes":"5321476"},{"lat":"-9.36278700828525"},{"long":"-40.6167984008777"},{"no_fantasia":"UBS GILDEVANIA DE OLIVEIRA SILVA"},{"no_logradouro":"VILA NOVA"},{"nu_endereco":"S/N"},{"no_bairro":"N5"},{"nu_telefone":""},{"co_cep":"56337600"},{"uf":"PE"},{"cidade":"Petrolina"},{"ano_ubs_det":"2016"},{"mes_ubs_det":"5"}],"geometry":{"type":"Point","coordinates":[-40.616798400878,-9.3627870082853]}},{"type":"Feature","properties":[{"gid":"2018"},{"co_cnes":"2714167"},{"lat":"-7.88067340850807"},{"long":"-35.4432034492482"},{"no_fantasia":"UNIDADE DE SAUDE DA FAMILIA HELENA LAURENTINA DA CUNHA"},{"no_logradouro":"RUA JUCA MARINHO"},{"nu_endereco":"S/N"},{"no_bairro":"COHAB VELHA"},{"nu_telefone":"(81)36285552"},{"co_cep":"55700000"},{"uf":"PE"},{"cidade":"Limoeiro"},{"ano_ubs_det":"2016"},{"mes_ubs_det":"5"}],"geometry":{"type":"Point","coordinates":[-35.443203449248,-7.8806734085081]}},{"type":"Feature","properties":[{"gid":"2048"},{"co_cnes":"7446527"},{"lat":"-8.57864485135162"},{"long":"-36.1609840393066"},{"no_fantasia":"USF MUTIRAO"},{"no_logradouro":"RUA 26 DE MARCO"},{"nu_endereco":"00"},{"no_bairro":"MUTIRAO"},{"nu_telefone":""},{"co_cep":"55390000"},{"uf":"PE"},{"cidade":"Ibirajuba"},{"ano_ubs_det":"2016"},{"mes_ubs_det":"5"}],"geometry":{"type":"Point","coordinates":[-36.160984039307,-8.5786448513516]}},{"type":"Feature","properties":[{"gid":"2161"},{"co_cnes":"5155479"},{"lat":"-8.16539146735745"},{"long":"-34.9211734672603"},{"no_fantasia":"USF CORREGO DA GAMELEIRA"},{"no_logradouro":"RUA NOSSA SENHORA DO DESTERRO"},{"nu_endereco":"444"},{"no_bairro":"JARDIM JORDAO"},{"nu_telefone":"81-3462-1469"},{"co_cep":"54320410"},{"uf":"PE"},{"cidade":"Jaboatão dos Guararapes"},{"ano_ubs_det":"2016"},{"mes_ubs_det":"5"}],"geometry":{"type":"Point","coordinates":[-34.92117346726,-8.1653914673575]}},{"type":"Feature","properties":[{"gid":"2364"},{"co_cnes":"2706784"},{"lat":"-8.76153230667089"},{"long":"-35.6749033927907"},{"no_fantasia":"PSF SANTO ANTONIO DOS PALMARES"},{"no_logradouro":"RUA 19 DE OUTUBRO"},{"nu_endereco":"S/N"},{"no_bairro":"ZONA RURAL"},{"nu_telefone":""},{"co_cep":"55540000"},{"uf":"PE"},{"cidade":"Palmares"},{"ano_ubs_det":"2016"},{"mes_ubs_det":"5"}],"geometry":{"type":"Point","coordinates":[-35.674903392791,-8.7615323066709]}},{"type":"Feature","properties":[{"gid":"2323"},{"co_cnes":"2344173"},{"lat":"-8.3345246315"},{"long":"-35.8146142959584"},{"no_fantasia":"UNIDADE DE SAUDE DE SAPUCARANA"},{"no_logradouro":"VILA DE SAPUCARANA"},{"nu_endereco":"S/N"},{"no_bairro":"SAPUCARANA"},{"nu_telefone":"(81)37283260"},{"co_cep":"55660000"},{"uf":"PE"},{"cidade":"Bezerros"},{"ano_ubs_det":"2016"},{"mes_ubs_det":"5"}],"geometry":{"type":"Point","coordinates":[-35.814614295958,-8.3345246315]}},{"type":"Feature","properties":[{"gid":"2336"},{"co_cnes":"2435942"},{"lat":"-8.2059995"},{"long":"-35.5714923938373"},{"no_fantasia":"PSF DE MANDACARU"},{"no_logradouro":"RUA CONEGO AMERICO PITA"},{"nu_endereco":"S/N"},{"no_bairro":"MANDACARU"},{"nu_telefone":"(81)35281062"},{"co_cep":"55640992"},{"uf":"PE"},{"cidade":"Gravatá"},{"ano_ubs_det":"2016"},{"mes_ubs_det":"5"}],"geometry":{"type":"Point","coordinates":[-35.571492393837,-8.2059995]}},{"type":"Feature","properties":[{"gid":"2212"},{"co_cnes":"26379"},{"lat":"-8.06276248305241"},{"long":"-34.8889419445777"},{"no_fantasia":"US 269 PSF BEIRA DO RIO COMUNIDADE BOA VIAGEM"},{"no_logradouro":"RUA RIBEIRO DE BRITO"},{"nu_endereco":"1361"},{"no_bairro":"BOA VIAGEM"},{"nu_telefone":"(81) 33556090"},{"co_cep":"51021310"},{"uf":"PE"},{"cidade":"Recife"},{"ano_ubs_det":"2016"},{"mes_ubs_det":"5"}],"geometry":{"type":"Point","coordinates":[-34.888941944578,-8.0627624830524]}},{"type":"Feature","properties":[{"gid":"2123"},{"co_cnes":"3044378"},{"lat":"-9.39365386962863"},{"long":"-40.5033731460559"},{"no_fantasia":"UBS AMALIA GRANJA DE ALENCAR"},{"no_logradouro":"RUA PROJETADA"},{"nu_endereco":"S/N"},{"no_bairro":"VILA MOCO"},{"nu_telefone":""},{"co_cep":"56304430"},{"uf":"PE"},{"cidade":"Petrolina"},{"ano_ubs_det":"2016"},{"mes_ubs_det":"5"}],"geometry":{"type":"Point","coordinates":[-40.503373146056,-9.3936538696286]}},{"type":"Feature","properties":[{"gid":"2437"},{"co_cnes":"2630990"},{"lat":"-8.35872"},{"long":"-36.70023"},{"no_fantasia":"POSTO DE SAUDE MUTUCA"},{"no_logradouro":"DISTRITO DE MUTUCA"},{"nu_endereco":"S/N"},{"no_bairro":"CENTRO"},{"nu_telefone":""},{"co_cep":"55200000"},{"uf":"PE"},{"cidade":"Pesqueira"},{"ano_ubs_det":"2016"},{"mes_ubs_det":"5"}],"geometry":{"type":"Point","coordinates":[-36.70023,-8.35872]}},{"type":"Feature","properties":[{"gid":"2488"},{"co_cnes":"2631946"},{"lat":"-9.19957995414707"},{"long":"-36.4778065681447"},{"no_fantasia":"PSF IGAPO"},{"no_logradouro":"POVOADO DE IGAPO"},{"nu_endereco":"S/N"},{"no_bairro":"ZONA RURAL"},{"nu_telefone":"(87)37851133"},{"co_cep":"55320000"},{"uf":"PE"},{"cidade":"Lagoa do Ouro"},{"ano_ubs_det":"2016"},{"mes_ubs_det":"5"}],"geometry":{"type":"Point","coordinates":[-36.477806568145,-9.1995799541471]}},{"type":"Feature","properties":[{"gid":"2532"},{"co_cnes":"3036456"},{"lat":"-8.13242554664588"},{"long":"-35.8606839179982"},{"no_fantasia":"PAM POSTO DE ASSISTENCIA MEDICA DE RIACHO DAS ALMAS"},{"no_logradouro":"RUA JANIN MOTA"},{"nu_endereco":"S/N"},{"no_bairro":"BRASILIA TEIMOSA"},{"nu_telefone":"(81)37451133"},{"co_cep":"55120000"},{"uf":"PE"},{"cidade":"Riacho das Almas"},{"ano_ubs_det":"2016"},{"mes_ubs_det":"5"}],"geometry":{"type":"Point","coordinates":[-35.860683917998,-8.1324255466459]}},{"type":"Feature","properties":[{"gid":"2777"},{"co_cnes":"3996662"},{"lat":"-7.943188"},{"long":"-34.8847916197368"},{"no_fantasia":"USF ARTHUR LUNDGREN I"},{"no_logradouro":"RUA CARPINA"},{"nu_endereco":"185"},{"no_bairro":"ARTHUR LUNDGREN I"},{"nu_telefone":"34384930"},{"co_cep":"53401441"},{"uf":"PE"},{"cidade":"Paulista"},{"ano_ubs_det":"2016"},{"mes_ubs_det":"5"}],"geometry":{"type":"Point","coordinates":[-34.884791619737,-7.943188]}},{"type":"Feature","properties":[{"gid":"2718"},{"co_cnes":"3567869"},{"lat":"-7.37035573926697"},{"long":"-37.4800327232567"},{"no_fantasia":"PSF DA VILA MARIA LICA"},{"no_logradouro":"RUA PEDRO BERNARDO NUNES"},{"nu_endereco":"203"},{"no_bairro":"CENTRO"},{"nu_telefone":"(87)38591204"},{"co_cep":"56750000"},{"uf":"PE"},{"cidade":"Santa Terezinha"},{"ano_ubs_det":"2016"},{"mes_ubs_det":"5"}],"geometry":{"type":"Point","coordinates":[-37.480032723257,-7.370355739267]}},{"type":"Feature","properties":[{"gid":"2698"},{"co_cnes":"2429616"},{"lat":"-9.36408519744846"},{"long":"-40.5480694770801"},{"no_fantasia":"UBS ANALIA BATISTA"},{"no_logradouro":"RUA 13"},{"nu_endereco":"S/N"},{"no_bairro":"COSME E DAMIAO"},{"nu_telefone":"(87) 3863-2572"},{"co_cep":"56304020"},{"uf":"PE"},{"cidade":"Petrolina"},{"ano_ubs_det":"2016"},{"mes_ubs_det":"5"}],"geometry":{"type":"Point","coordinates":[-40.54806947708,-9.3640851974485]}},{"type":"Feature","properties":[{"gid":"2554"},{"co_cnes":"2632381"},{"lat":"-9.17422771453831"},{"long":"-36.6951298713673"},{"no_fantasia":"USF DR JOSE BARBOSA DE OLIVEIRA"},{"no_logradouro":"RUA SAO SEVERINO"},{"nu_endereco":"72"},{"no_bairro":"SAO RAFAEL"},{"nu_telefone":""},{"co_cep":"55330000"},{"uf":"PE"},{"cidade":"Bom Conselho"},{"ano_ubs_det":"2016"},{"mes_ubs_det":"5"}],"geometry":{"type":"Point","coordinates":[-36.695129871367,-9.1742277145383]}},{"type":"Feature","properties":[{"gid":"2413"},{"co_cnes":"2346141"},{"lat":"-8.0205217674976"},{"long":"-34.9957213563856"},{"no_fantasia":"USF CEU AZUL"},{"no_logradouro":"RUA ANTONIO SOARES DE LIMA"},{"nu_endereco":"S/N"},{"no_bairro":"CEU AZUL"},{"nu_telefone":"(81)34586012"},{"co_cep":"54765480"},{"uf":"PE"},{"cidade":"Camaragibe"},{"ano_ubs_det":"2016"},{"mes_ubs_det":"5"}],"geometry":{"type":"Point","coordinates":[-34.995721356386,-8.0205217674976]}},{"type":"Feature","properties":[{"gid":"3160"},{"co_cnes":"2631490"},{"lat":"-8.61128266016394"},{"long":"-35.9502573664167"},{"no_fantasia":"ESF SAMBAQUIM"},{"no_logradouro":"SITIO SAMBAQUIM"},{"nu_endereco":"S/N"},{"no_bairro":"ZONA RURAL"},{"nu_telefone":""},{"co_cep":"55460000"},{"uf":"PE"},{"cidade":"Cupira"},{"ano_ubs_det":"2016"},{"mes_ubs_det":"5"}],"geometry":{"type":"Point","coordinates":[-35.950257366417,-8.6112826601639]}},{"type":"Feature","properties":[{"gid":"2676"},{"co_cnes":"3854213"},{"lat":"-8.68168830871557"},{"long":"-35.5916047096242"},{"no_fantasia":"PSF SANTO ANTONIO II"},{"no_logradouro":"AVENIDA FREI CANECA"},{"nu_endereco":"S/N"},{"no_bairro":"SANTO ANTONIO"},{"nu_telefone":""},{"co_cep":"55540000"},{"uf":"PE"},{"cidade":"Palmares"},{"ano_ubs_det":"2016"},{"mes_ubs_det":"5"}],"geometry":{"type":"Point","coordinates":[-35.591604709624,-8.6816883087156]}},{"type":"Feature","properties":[{"gid":"3029"},{"co_cnes":"2343797"},{"lat":"-8.12389612197852"},{"long":"-35.1022410392751"},{"no_fantasia":"PSF HERACLITO MONTENEGRO"},{"no_logradouro":"R JORNALISTA JOAO CARNEIRO DA CUNHA"},{"nu_endereco":"1076"},{"no_bairro":"COHAB"},{"nu_telefone":"(81)35350339"},{"co_cep":"54800000"},{"uf":"PE"},{"cidade":"Moreno"},{"ano_ubs_det":"2016"},{"mes_ubs_det":"5"}],"geometry":{"type":"Point","coordinates":[-35.102241039275,-8.1238961219785]}},{"type":"Feature","properties":[{"gid":"3093"},{"co_cnes":"3053644"},{"lat":"-8.51365327835058"},{"long":"-35.3843665122976"},{"no_fantasia":"POSTO DO PSF JOSE REGIS DE MOURA"},{"no_logradouro":"RUA DO CAMPO"},{"nu_endereco":"S/N"},{"no_bairro":"ALTO DA FE"},{"nu_telefone":""},{"co_cep":"55520000"},{"uf":"PE"},{"cidade":"Ribeirão"},{"ano_ubs_det":"2016"},{"mes_ubs_det":"5"}],"geometry":{"type":"Point","coordinates":[-35.384366512298,-8.5136532783506]}},{"type":"Feature","properties":[{"gid":"2948"},{"co_cnes":"2636751"},{"lat":"-7.50868"},{"long":"-35.32368"},{"no_fantasia":"PSF ALTO DA INDEPENDENCIA"},{"no_logradouro":"ALTO DA INDEPENDENCIA"},{"nu_endereco":"S/N"},{"no_bairro":"ALTO DA IDEPENDENCIA"},{"nu_telefone":"(81)36310131"},{"co_cep":"55870000"},{"uf":"PE"},{"cidade":"Timbaúba"},{"ano_ubs_det":"2016"},{"mes_ubs_det":"5"}],"geometry":{"type":"Point","coordinates":[-35.32368,-7.50868]}},{"type":"Feature","properties":[{"gid":"2875"},{"co_cnes":"5552680"},{"lat":"-7.44974970817544"},{"long":"-35.245578289031"},{"no_fantasia":"PSF PEDRO TAVARES DE MELO"},{"no_logradouro":"RUA SAO VICENTE DE PAULA"},{"nu_endereco":"39"},{"no_bairro":"CENTRO"},{"nu_telefone":""},{"co_cep":"55880000"},{"uf":"PE"},{"cidade":"Ferreiros"},{"ano_ubs_det":"2016"},{"mes_ubs_det":"5"}],"geometry":{"type":"Point","coordinates":[-35.245578289031,-7.4497497081754]}},{"type":"Feature","properties":[{"gid":"3059"},{"co_cnes":"2631768"},{"lat":"-8.71896028518651"},{"long":"-36.0658407211293"},{"no_fantasia":"ESF SAO LAZARO"},{"no_logradouro":"VILA SAO LAZARO"},{"nu_endereco":"S/N"},{"no_bairro":"ZONA RURAL"},{"nu_telefone":""},{"co_cep":"55473000"},{"uf":"PE"},{"cidade":"Panelas"},{"ano_ubs_det":"2016"},{"mes_ubs_det":"5"}],"geometry":{"type":"Point","coordinates":[-36.065840721129,-8.7189602851865]}},{"type":"Feature","properties":[{"gid":"2929"},{"co_cnes":"2704196"},{"lat":"-8.88774633407567"},{"long":"-37.3694372177113"},{"no_fantasia":"UNIDADE DE SAUDE DA FAMILIA JOSE PEREIRA LOPES"},{"no_logradouro":"POVOADO SALGADO"},{"nu_endereco":"100"},{"no_bairro":"CENTRO"},{"nu_telefone":""},{"co_cep":"56550000"},{"uf":"PE"},{"cidade":"Itaíba"},{"ano_ubs_det":"2016"},{"mes_ubs_det":"5"}],"geometry":{"type":"Point","coordinates":[-37.369437217711,-8.8877463340757]}},{"type":"Feature","properties":[{"gid":"2901"},{"co_cnes":"2428059"},{"lat":"-7.55923185486716"},{"long":"-34.9983762971528"},{"no_fantasia":"PSF PONTAS DE PEDRA"},{"no_logradouro":"RUA DO MEIO"},{"nu_endereco":"396"},{"no_bairro":"DISTRITO DE PONTAS D"},{"nu_telefone":""},{"co_cep":"55900000"},{"uf":"PE"},{"cidade":"Goiana"},{"ano_ubs_det":"2016"},{"mes_ubs_det":"5"}],"geometry":{"type":"Point","coordinates":[-34.998376297153,-7.5592318548672]}},{"type":"Feature","properties":[{"gid":"3116"},{"co_cnes":"2352184"},{"lat":"-8.60280990600561"},{"long":"-36.3800454139699"},{"no_fantasia":"USF DE QUEIMADA GRANDE"},{"no_logradouro":"VILA DE QUEIMADA GRANDE"},{"nu_endereco":"S/N"},{"no_bairro":"ZONA RURAL"},{"nu_telefone":""},{"co_cep":"55370000"},{"uf":"PE"},{"cidade":"São Bento do Una"},{"ano_ubs_det":"2016"},{"mes_ubs_det":"5"}],"geometry":{"type":"Point","coordinates":[-36.38004541397,-8.6028099060056]}},{"type":"Feature","properties":[{"gid":"3151"},{"co_cnes":"2344521"},{"lat":"-8.15401196479774"},{"long":"-35.9260439872731"},{"no_fantasia":"POSTO DE SAUDE DE VITURINO PSF III"},{"no_logradouro":"VILA VITURINO"},{"nu_endereco":"S/N"},{"no_bairro":"POVOADO"},{"nu_telefone":"(81)37451133"},{"co_cep":"55120000"},{"uf":"PE"},{"cidade":"Riacho das Almas"},{"ano_ubs_det":"2016"},{"mes_ubs_det":"5"}],"geometry":{"type":"Point","coordinates":[-35.926043987273,-8.1540119647977]}},{"type":"Feature","properties":[{"gid":"2918"},{"co_cnes":"5172764"},{"lat":"-7.38083178121596"},{"long":"-37.188818603754"},{"no_fantasia":"CENTRO DE SAUDE DE ITAPETIM"},{"no_logradouro":"RUA JUVINO LEITE"},{"nu_endereco":"86"},{"no_bairro":"CENTRO"},{"nu_telefone":""},{"co_cep":"56720000"},{"uf":"PE"},{"cidade":"Itapetim"},{"ano_ubs_det":"2016"},{"mes_ubs_det":"5"}],"geometry":{"type":"Point","coordinates":[-37.188818603754,-7.380831781216]}},{"type":"Feature","properties":[{"gid":"3080"},{"co_cnes":"2352753"},{"lat":"-7.71746923330341"},{"long":"-39.2371382153378"},{"no_fantasia":"UNIDADE BASICA DE SAUDE VIRGINIA TAVARES CRUZ PSF II"},{"no_logradouro":"SITIO RECANTO PE 475"},{"nu_endereco":"S/N"},{"no_bairro":"ZONA RURAL"},{"nu_telefone":""},{"co_cep":"56130000"},{"uf":"PE"},{"cidade":"Cedro"},{"ano_ubs_det":"2016"},{"mes_ubs_det":"5"}],"geometry":{"type":"Point","coordinates":[-39.237138215338,-7.7174692333034]}},{"type":"Feature","properties":[{"gid":"3075"},{"co_cnes":"2712873"},{"lat":"-8.23796111841332"},{"long":"-40.3376876555693"},{"no_fantasia":"USF DE POCO DANTAS"},{"no_logradouro":"POVOADO DE POCO DANTAS"},{"nu_endereco":"S/N"},{"no_bairro":"0"},{"nu_telefone":"(87)38748125"},{"co_cep":"56215000"},{"uf":"PE"},{"cidade":"Santa Cruz"},{"ano_ubs_det":"2016"},{"mes_ubs_det":"5"}],"geometry":{"type":"Point","coordinates":[-40.337687655569,-8.2379611184133]}},{"type":"Feature","properties":[{"gid":"3102"},{"co_cnes":"2429896"},{"lat":"-9.35928940772983"},{"long":"-40.5393791198719"},{"no_fantasia":"UBS ALVARO MOREIRA ROCHA"},{"no_logradouro":"RUA 12"},{"nu_endereco":"S/N"},{"no_bairro":"JOAO DE DEUS"},{"nu_telefone":"(87) 3863-3068"},{"co_cep":"56316140"},{"uf":"PE"},{"cidade":"Petrolina"},{"ano_ubs_det":"2016"},{"mes_ubs_det":"5"}],"geometry":{"type":"Point","coordinates":[-40.539379119872,-9.3592894077298]}},{"type":"Feature","properties":[{"gid":"2983"},{"co_cnes":"2431076"},{"lat":"-7.43408560752847"},{"long":"-39.841489791869"},{"no_fantasia":"UNIDADE DE SAUDE DA FAMILIA DE TABOCAS"},{"no_logradouro":"POVOADO DE TABOCAS"},{"nu_endereco":"S/N"},{"no_bairro":"CENTRO"},{"nu_telefone":""},{"co_cep":"56230000"},{"uf":"PE"},{"cidade":"Exu"},{"ano_ubs_det":"2016"},{"mes_ubs_det":"5"}],"geometry":{"type":"Point","coordinates":[-39.841489791869,-7.4340856075285]}},{"type":"Feature","properties":[{"gid":"2805"},{"co_cnes":"2351382"},{"lat":"-7.68155694007851"},{"long":"-34.8371529579153"},{"no_fantasia":"POSTO MEDICO E DENTARIO VIEIRA DE MENEZES"},{"no_logradouro":"RUA DA LAMA"},{"nu_endereco":"09"},{"no_bairro":"DISTRITO BARRA DE CA"},{"nu_telefone":"(81)36260263"},{"co_cep":"55900000"},{"uf":"PE"},{"cidade":"Goiana"},{"ano_ubs_det":"2016"},{"mes_ubs_det":"5"}],"geometry":{"type":"Point","coordinates":[-34.837152957915,-7.6815569400785]}},{"type":"Feature","properties":[{"gid":"3401"},{"co_cnes":"2435969"},{"lat":"-8.2059995"},{"long":"-35.5714923938373"},{"no_fantasia":"PSF DE URUCU MIRIM"},{"no_logradouro":"RUA CICERO TRAJANO"},{"nu_endereco":"S/N"},{"no_bairro":"URUCU MIRIM"},{"nu_telefone":"(81)35283043"},{"co_cep":"55640991"},{"uf":"PE"},{"cidade":"Gravatá"},{"ano_ubs_det":"2016"},{"mes_ubs_det":"5"}],"geometry":{"type":"Point","coordinates":[-35.571492393837,-8.2059995]}},{"type":"Feature","properties":[{"gid":"3445"},{"co_cnes":"29068"},{"lat":"-8.12811"},{"long":"-34.94997"},{"no_fantasia":"US 282 PSF VILA DAS AEROMOCAS"},{"no_logradouro":"RUA AIQUARA"},{"nu_endereco":"25"},{"no_bairro":"COHAB"},{"nu_telefone":"(81) 33554620"},{"co_cep":"51320670"},{"uf":"PE"},{"cidade":"Recife"},{"ano_ubs_det":"2016"},{"mes_ubs_det":"5"}],"geometry":{"type":"Point","coordinates":[-34.94997,-8.12811]}},{"type":"Feature","properties":[{"gid":"3595"},{"co_cnes":"2703181"},{"lat":"-7.80472397804238"},{"long":"-35.7727074623098"},{"no_fantasia":"POSTO DE APOIO DO TAMBOR"},{"no_logradouro":"SITIO VERMELHO"},{"nu_endereco":"S/N"},{"no_bairro":"ZONA RURAL"},{"nu_telefone":"(81)36347144"},{"co_cep":"55760000"},{"uf":"PE"},{"cidade":"Vertente do Lério"},{"ano_ubs_det":"2016"},{"mes_ubs_det":"5"}],"geometry":{"type":"Point","coordinates":[-35.77270746231,-7.8047239780424]}},{"type":"Feature","properties":[{"gid":"3494"},{"co_cnes":"3011119"},{"lat":"-8.4489262104032"},{"long":"-39.768018722533"},{"no_fantasia":"USF AGROVILA 15"},{"no_logradouro":"AGROVILA 15 PROJETO CARAIBAS"},{"nu_endereco":"S/N"},{"no_bairro":"ZONA RURAL"},{"nu_telefone":"(87)38691156"},{"co_cep":"56380000"},{"uf":"PE"},{"cidade":"Santa Maria da Boa Vista"},{"ano_ubs_det":"2016"},{"mes_ubs_det":"5"}],"geometry":{"type":"Point","coordinates":[-39.768018722533,-8.4489262104032]}},{"type":"Feature","properties":[{"gid":"3549"},{"co_cnes":"2635526"},{"lat":"-7.37842852842198"},{"long":"-37.1884393109605"},{"no_fantasia":"PSF I UNIDADE DE SAUDE ALZIRA ALVES DA COSTA"},{"no_logradouro":"PAULINO SOARES"},{"nu_endereco":"116"},{"no_bairro":"CENTRO"},{"nu_telefone":"(87)38531156"},{"co_cep":"56720000"},{"uf":"PE"},{"cidade":"Itapetim"},{"ano_ubs_det":"2016"},{"mes_ubs_det":"5"}],"geometry":{"type":"Point","coordinates":[-37.18843931096,-7.378428528422]}},{"type":"Feature","properties":[{"gid":"3533"},{"co_cnes":"3136876"},{"lat":"-9.38386917114231"},{"long":"-40.5456018447864"},{"no_fantasia":"UBS DRA SINHA"},{"no_logradouro":"RUA 26"},{"nu_endereco":"S/N"},{"no_bairro":"ALTO DA BOA VISTA"},{"nu_telefone":"(87) 3863-6715"},{"co_cep":"56312301"},{"uf":"PE"},{"cidade":"Petrolina"},{"ano_ubs_det":"2016"},{"mes_ubs_det":"5"}],"geometry":{"type":"Point","coordinates":[-40.545601844786,-9.3838691711423]}},{"type":"Feature","properties":[{"gid":"3259"},{"co_cnes":"2344122"},{"lat":"-8.11622443716002"},{"long":"-35.7583976478577"},{"no_fantasia":"UNIDADE DE SAUDE DE AREIAS"},{"no_logradouro":"SITIO AREIAS"},{"nu_endereco":"S/N"},{"no_bairro":"SITIO AREIAS"},{"nu_telefone":"(81)37283260"},{"co_cep":"55660000"},{"uf":"PE"},{"cidade":"Bezerros"},{"ano_ubs_det":"2016"},{"mes_ubs_det":"5"}],"geometry":{"type":"Point","coordinates":[-35.758397647858,-8.11622443716]}},{"type":"Feature","properties":[{"gid":"3523"},{"co_cnes":"5356881"},{"lat":"-8.06276248305241"},{"long":"-34.8889419445777"},{"no_fantasia":"US 339 PSF ALTO DO CAPITAO"},{"no_logradouro":"TUPIRACABA"},{"nu_endereco":"S/N"},{"no_bairro":"DOIS UNIDOS"},{"nu_telefone":"(81) 33554190"},{"co_cep":"52150155"},{"uf":"PE"},{"cidade":"Recife"},{"ano_ubs_det":"2016"},{"mes_ubs_det":"5"}],"geometry":{"type":"Point","coordinates":[-34.888941944578,-8.0627624830524]}},{"type":"Feature","properties":[{"gid":"3253"},{"co_cnes":"2713810"},{"lat":"-7.91792618454634"},{"long":"-34.9304562807083"},{"no_fantasia":"USF CAETES I A"},{"no_logradouro":"RUA CENTO E OITENTA E SEIS"},{"nu_endereco":"154"},{"no_bairro":"CAETES I"},{"nu_telefone":""},{"co_cep":"53530468"},{"uf":"PE"},{"cidade":"Abreu e Lima"},{"ano_ubs_det":"2016"},{"mes_ubs_det":"5"}],"geometry":{"type":"Point","coordinates":[-34.930456280708,-7.9179261845463]}},{"type":"Feature","properties":[{"gid":"3263"},{"co_cnes":"3778762"},{"lat":"-7.9279947192459"},{"long":"-34.8541259765625"},{"no_fantasia":"USF EDGAR ALVES II"},{"no_logradouro":"RUA CASTELO BRANCO"},{"nu_endereco":"S/N"},{"no_bairro":"ENG MARANGUAPE"},{"nu_telefone":"8134363896"},{"co_cep":"53423300"},{"uf":"PE"},{"cidade":"Paulista"},{"ano_ubs_det":"2016"},{"mes_ubs_det":"5"}],"geometry":{"type":"Point","coordinates":[-34.854125976562,-7.9279947192459]}},{"type":"Feature","properties":[{"gid":"3261"},{"co_cnes":"2347075"},{"lat":"-7.94390916824318"},{"long":"-35.4044938087453"},{"no_fantasia":"PSF QUATRO CONTAS"},{"no_logradouro":"SITIO NOVO"},{"nu_endereco":"S/N"},{"no_bairro":"ZONA RURAL"},{"nu_telefone":"(81)36451192"},{"co_cep":"55715000"},{"uf":"PE"},{"cidade":"Feira Nova"},{"ano_ubs_det":"2016"},{"mes_ubs_det":"5"}],"geometry":{"type":"Point","coordinates":[-35.404493808745,-7.9439091682432]}},{"type":"Feature","properties":[{"gid":"3260"},{"co_cnes":"2347067"},{"lat":"-7.93703198432899"},{"long":"-35.3906106948842"},{"no_fantasia":"PSF SAO JOSE DA CACHOEIRA"},{"no_logradouro":"AV OTAVIANO HERACLIO"},{"nu_endereco":"S/N"},{"no_bairro":"LOTSAO JOSE DA CACHO"},{"nu_telefone":"(81)36451284"},{"co_cep":"55715000"},{"uf":"PE"},{"cidade":"Feira Nova"},{"ano_ubs_det":"2016"},{"mes_ubs_det":"5"}],"geometry":{"type":"Point","coordinates":[-35.390610694884,-7.937031984329]}},{"type":"Feature","properties":[{"gid":"3242"},{"co_cnes":"6513484"},{"lat":"-7.60212568424899"},{"long":"-37.6474702370334"},{"no_fantasia":"ESF DE PELO SINAL"},{"no_logradouro":"POVOADO DE PELO SINAL"},{"nu_endereco":"100"},{"no_bairro":"ZONA RURAL"},{"nu_telefone":""},{"co_cep":"56795000"},{"uf":"PE"},{"cidade":"Solidão"},{"ano_ubs_det":"2016"},{"mes_ubs_det":"5"}],"geometry":{"type":"Point","coordinates":[-37.647470237033,-7.602125684249]}},{"type":"Feature","properties":[{"gid":"3270"},{"co_cnes":"5859891"},{"lat":"-8.8025271892545"},{"long":"-36.0908389091481"},{"no_fantasia":"UNIDADE DE SAUDE DA FAMILIA ANTONIO TOMAS BATISTA"},{"no_logradouro":"VILA DO CRUZEIRO"},{"nu_endereco":"S/N"},{"no_bairro":"ZONA RURAL"},{"nu_telefone":""},{"co_cep":"55415000"},{"uf":"PE"},{"cidade":"Quipapá"},{"ano_ubs_det":"2016"},{"mes_ubs_det":"5"}],"geometry":{"type":"Point","coordinates":[-36.090838909148,-8.8025271892545]}},{"type":"Feature","properties":[{"gid":"3419"},{"co_cnes":"2347865"},{"lat":"-7.85855054855324"},{"long":"-35.8061170577993"},{"no_fantasia":"UNIDADE DE SAUDE DA FAMILIA DE LAGOA DA VACA"},{"no_logradouro":"SITIO LAGOA DA VACA"},{"nu_endereco":"S/N"},{"no_bairro":"ZONA RURAL"},{"nu_telefone":"(81)36341584"},{"co_cep":"55750000"},{"uf":"PE"},{"cidade":"Surubim"},{"ano_ubs_det":"2016"},{"mes_ubs_det":"5"}],"geometry":{"type":"Point","coordinates":[-35.806117057799,-7.8585505485532]}},{"type":"Feature","properties":[{"gid":"3448"},{"co_cnes":"3003736"},{"lat":"-8.51510548326908"},{"long":"-39.3098413379707"},{"no_fantasia":"PSF OTILIA DE SA NOVAES"},{"no_logradouro":"RUA JOAQUIM VENANCIO DE MENEZES"},{"nu_endereco":"161"},{"no_bairro":"SUBSTACAO"},{"nu_telefone":"(87) 3875-1710"},{"co_cep":"56180000"},{"uf":"PE"},{"cidade":"Cabrobó"},{"ano_ubs_det":"2016"},{"mes_ubs_det":"5"}],"geometry":{"type":"Point","coordinates":[-39.309841337971,-8.5151054832691]}},{"type":"Feature","properties":[{"gid":"3258"},{"co_cnes":"2344149"},{"lat":"-8.14285397529578"},{"long":"-35.7256078720082"},{"no_fantasia":"UNIDADE DE SAUDE DE CAJAZEIRAS"},{"no_logradouro":"CAJAZEIRAS"},{"nu_endereco":"S/N"},{"no_bairro":"CAJAZEIRAS"},{"nu_telefone":"(81)37283260"},{"co_cep":"55660000"},{"uf":"PE"},{"cidade":"Bezerros"},{"ano_ubs_det":"2016"},{"mes_ubs_det":"5"}],"geometry":{"type":"Point","coordinates":[-35.725607872008,-8.1428539752958]}},{"type":"Feature","properties":[{"gid":"3611"},{"co_cnes":"2347644"},{"lat":"-7.71812641014088"},{"long":"-37.8464456195457"},{"no_fantasia":"PSF MARIA DAS DORES PEREIRA DE CARVALHO"},{"no_logradouro":"RUA BENEDITO PEREIRA DE CARVALHO"},{"nu_endereco":"S/N"},{"no_bairro":"CENTRO"},{"nu_telefone":"(81)38548152"},{"co_cep":"56828000"},{"uf":"PE"},{"cidade":"Quixaba"},{"ano_ubs_det":"2016"},{"mes_ubs_det":"5"}],"geometry":{"type":"Point","coordinates":[-37.846445619546,-7.7181264101409]}},{"type":"Feature","properties":[{"gid":"3691"},{"co_cnes":"2435950"},{"lat":"-8.15425872802711"},{"long":"-35.4585242271413"},{"no_fantasia":"PSF DE RUSSINHA"},{"no_logradouro":"RUA DA LAMA"},{"nu_endereco":"S/N"},{"no_bairro":"RUSSINHA"},{"nu_telefone":"(81)35331294"},{"co_cep":"55640990"},{"uf":"PE"},{"cidade":"Gravatá"},{"ano_ubs_det":"2016"},{"mes_ubs_det":"5"}],"geometry":{"type":"Point","coordinates":[-35.458524227141,-8.1542587280271]}},{"type":"Feature","properties":[{"gid":"3605"},{"co_cnes":"2704153"},{"lat":"-9.25319194793674"},{"long":"-37.1538734436024"},{"no_fantasia":"USF ZUMBI"},{"no_logradouro":"POVOADO DE TANQUINHOS"},{"nu_endereco":"S/N"},{"no_bairro":"DISTRITO"},{"nu_telefone":""},{"co_cep":"55340000"},{"uf":"PE"},{"cidade":"Águas Belas"},{"ano_ubs_det":"2016"},{"mes_ubs_det":"5"}],"geometry":{"type":"Point","coordinates":[-37.153873443602,-9.2531919479367]}},{"type":"Feature","properties":[{"gid":"3944"},{"co_cnes":"2714043"},{"lat":"-7.94166684150673"},{"long":"-35.1221323013295"},{"no_fantasia":"PSF GUADALAJARA II"},{"no_logradouro":"BR 408"},{"nu_endereco":"S/N"},{"no_bairro":"GUADALAJARA"},{"nu_telefone":""},{"co_cep":"55825000"},{"uf":"PE"},{"cidade":"Paudalho"},{"ano_ubs_det":"2016"},{"mes_ubs_det":"5"}],"geometry":{"type":"Point","coordinates":[-35.12213230133,-7.9416668415067]}},{"type":"Feature","properties":[{"gid":"3631"},{"co_cnes":"6507085"},{"lat":"-8.98722410202"},{"long":"-36.637966632842"},{"no_fantasia":"PSF SANTA TEREZA"},{"no_logradouro":"SITIO SANTA TEREZA"},{"nu_endereco":"S/N"},{"no_bairro":"RURAL"},{"nu_telefone":""},{"co_cep":"55350000"},{"uf":"PE"},{"cidade":"Saloá"},{"ano_ubs_det":"2016"},{"mes_ubs_det":"5"}],"geometry":{"type":"Point","coordinates":[-36.637966632842,-8.98722410202]}},{"type":"Feature","properties":[{"gid":"3608"},{"co_cnes":"2427192"},{"lat":"-7.99732804298378"},{"long":"-35.3576731681813"},{"no_fantasia":"PSF ARACA"},{"no_logradouro":"SITIO ARACA"},{"nu_endereco":"S/N"},{"no_bairro":"ZONA RURAL"},{"nu_telefone":"(81)36581156"},{"co_cep":"55620000"},{"uf":"PE"},{"cidade":"Glória do Goitá"},{"ano_ubs_det":"2016"},{"mes_ubs_det":"5"}],"geometry":{"type":"Point","coordinates":[-35.357673168181,-7.9973280429838]}},{"type":"Feature","properties":[{"gid":"3657"},{"co_cnes":"2634058"},{"lat":"-8.82616281509374"},{"long":"-38.3972811698902"},{"no_fantasia":"PSF AGROVILA 04 BLOCO 4"},{"no_logradouro":"AGROVILA 04 BLOCO 04"},{"nu_endereco":"S/N"},{"no_bairro":"ZONA RURAL"},{"nu_telefone":""},{"co_cep":"56460000"},{"uf":"PE"},{"cidade":"Petrolândia"},{"ano_ubs_det":"2016"},{"mes_ubs_det":"5"}],"geometry":{"type":"Point","coordinates":[-38.39728116989,-8.8261628150937]}},{"type":"Feature","properties":[{"gid":"3762"},{"co_cnes":"2638746"},{"lat":"-8.16539146735745"},{"long":"-34.9211734672603"},{"no_fantasia":"USF JARDIM PIEDADE II"},{"no_logradouro":"RUA DAS FLORES"},{"nu_endereco":"S/N"},{"no_bairro":"PIEDADE"},{"nu_telefone":"81-3468-5534"},{"co_cep":"54410700"},{"uf":"PE"},{"cidade":"Jaboatão dos Guararapes"},{"ano_ubs_det":"2016"},{"mes_ubs_det":"5"}],"geometry":{"type":"Point","coordinates":[-34.92117346726,-8.1653914673575]}},{"type":"Feature","properties":[{"gid":"3687"},{"co_cnes":"2433729"},{"lat":"-8.0701661109922"},{"long":"-36.5617704391469"},{"no_fantasia":"POSTO DE SAUDE DE JACU"},{"no_logradouro":"DISTRITO DE JACU"},{"nu_endereco":"S/N"},{"no_bairro":"CENTRO"},{"nu_telefone":""},{"co_cep":"55180000"},{"uf":"PE"},{"cidade":"Jataúba"},{"ano_ubs_det":"2016"},{"mes_ubs_det":"5"}],"geometry":{"type":"Point","coordinates":[-36.561770439147,-8.0701661109922]}},{"type":"Feature","properties":[{"gid":"3730"},{"co_cnes":"2353202"},{"lat":"-8.01521301269508"},{"long":"-40.4153537750232"},{"no_fantasia":"USF VIDEU"},{"no_logradouro":"POVOADO VIDEU"},{"nu_endereco":"S/N"},{"no_bairro":"ZONA RURAL"},{"nu_telefone":"(87)38741595"},{"co_cep":"56200000"},{"uf":"PE"},{"cidade":"Ouricuri"},{"ano_ubs_det":"2016"},{"mes_ubs_det":"5"}],"geometry":{"type":"Point","coordinates":[-40.415353775023,-8.0152130126951]}},{"type":"Feature","properties":[{"gid":"4141"},{"co_cnes":"2429799"},{"lat":"-9.38349366188022"},{"long":"-40.5369758605945"},{"no_fantasia":"UBS RICARDO SOARES COELHO"},{"no_logradouro":"RUA 22"},{"nu_endereco":"S/N"},{"no_bairro":"COHAB MASSANGANO"},{"nu_telefone":"(87) 3863-2944"},{"co_cep":"56302000"},{"uf":"PE"},{"cidade":"Petrolina"},{"ano_ubs_det":"2016"},{"mes_ubs_det":"5"}],"geometry":{"type":"Point","coordinates":[-40.536975860595,-9.3834936618802]}},{"type":"Feature","properties":[{"gid":"4089"},{"co_cnes":"2070"},{"lat":"-8.12159"},{"long":"-34.9162"},{"no_fantasia":"US 173 PSF DANCING DAYS"},{"no_logradouro":"RUA DANCING DAYS"},{"nu_endereco":"109"},{"no_bairro":"IMBIRIBEIRA"},{"nu_telefone":"(81) 33556118"},{"co_cep":"51180340"},{"uf":"PE"},{"cidade":"Recife"},{"ano_ubs_det":"2016"},{"mes_ubs_det":"5"}],"geometry":{"type":"Point","coordinates":[-34.9162,-8.12159]}},{"type":"Feature","properties":[{"gid":"4212"},{"co_cnes":"2347148"},{"lat":"-7.81784534454323"},{"long":"-35.2010750770559"},{"no_fantasia":"PSF ACUDINHO"},{"no_logradouro":"SITIO ACUDINHO"},{"nu_endereco":"S/N"},{"no_bairro":"RURAL"},{"nu_telefone":"(81)34641160"},{"co_cep":"55805000"},{"uf":"PE"},{"cidade":"Tracunhaém"},{"ano_ubs_det":"2016"},{"mes_ubs_det":"5"}],"geometry":{"type":"Point","coordinates":[-35.201075077056,-7.8178453445432]}},{"type":"Feature","properties":[{"gid":"4242"},{"co_cnes":"3002462"},{"lat":"-8.89688"},{"long":"-36.49443"},{"no_fantasia":"USF DA BELA VISTA"},{"no_logradouro":"RUA MARIO NOTARO"},{"nu_endereco":"S/N"},{"no_bairro":"BELA VISTA"},{"nu_telefone":"(72)7627071"},{"co_cep":"55294816"},{"uf":"PE"},{"cidade":"Garanhuns"},{"ano_ubs_det":"2016"},{"mes_ubs_det":"5"}],"geometry":{"type":"Point","coordinates":[-36.49443,-8.89688]}},{"type":"Feature","properties":[{"gid":"4323"},{"co_cnes":"2319292"},{"lat":"-8.4895925"},{"long":"-36.0596997585832"},{"no_fantasia":"UNIDADE DE SAUDE DA FAMILIA LINDAURA ALVES"},{"no_logradouro":"RUA LUIZ BENEVIDES DE MELO"},{"nu_endereco":"S/N"},{"no_bairro":"VILA NOVA"},{"nu_telefone":"(81)37391140"},{"co_cep":"55490000"},{"uf":"PE"},{"cidade":"Altinho"},{"ano_ubs_det":"2016"},{"mes_ubs_det":"5"}],"geometry":{"type":"Point","coordinates":[-36.059699758583,-8.4895925]}},{"type":"Feature","properties":[{"gid":"4175"},{"co_cnes":"3002713"},{"lat":"-8.88727"},{"long":"-36.49878"},{"no_fantasia":"USF DE MIRACICA II"},{"no_logradouro":"SITIO MOCHILA"},{"nu_endereco":"S/N"},{"no_bairro":"RURAL"},{"nu_telefone":""},{"co_cep":"55296350"},{"uf":"PE"},{"cidade":"Garanhuns"},{"ano_ubs_det":"2016"},{"mes_ubs_det":"5"}],"geometry":{"type":"Point","coordinates":[-36.49878,-8.88727]}},{"type":"Feature","properties":[{"gid":"4244"},{"co_cnes":"3002489"},{"lat":"-8.88082"},{"long":"-36.50404"},{"no_fantasia":"USF DA BRASILIA"},{"no_logradouro":"RUA CAPITAO PEDRO RODRIGUES"},{"nu_endereco":"896"},{"no_bairro":"MAGANO"},{"nu_telefone":"87 37620213"},{"co_cep":"55294310"},{"uf":"PE"},{"cidade":"Garanhuns"},{"ano_ubs_det":"2016"},{"mes_ubs_det":"5"}],"geometry":{"type":"Point","coordinates":[-36.50404,-8.88082]}},{"type":"Feature","properties":[{"gid":"4122"},{"co_cnes":"2714698"},{"lat":"-7.861"},{"long":"-38.76"},{"no_fantasia":"UNIDADE DE SAUDE DA FAMILIA ADELMO ALVES TERTO"},{"no_logradouro":"RUA SAO PAULO"},{"nu_endereco":"S/N"},{"no_bairro":"VILA DELMIRO"},{"nu_telefone":""},{"co_cep":"56950000"},{"uf":"PE"},{"cidade":"São José do Belmonte"},{"ano_ubs_det":"2016"},{"mes_ubs_det":"5"}],"geometry":{"type":"Point","coordinates":[-38.76,-7.861]}},{"type":"Feature","properties":[{"gid":"4107"},{"co_cnes":"2712938"},{"lat":"-8.09013832716909"},{"long":"-39.5757868229726"},{"no_fantasia":"USF SAO DOMINGOS"},{"no_logradouro":"POVOADO SAO DOMINGOS"},{"nu_endereco":"16"},{"no_bairro":"POVOADO"},{"nu_telefone":"(87)38831015"},{"co_cep":"56163000"},{"uf":"PE"},{"cidade":"Parnamirim"},{"ano_ubs_det":"2016"},{"mes_ubs_det":"5"}],"geometry":{"type":"Point","coordinates":[-39.575786822973,-8.0901383271691]}},{"type":"Feature","properties":[{"gid":"4136"},{"co_cnes":"2631954"},{"lat":"-9.12417183792504"},{"long":"-36.4643169318296"},{"no_fantasia":"PSF DO CABOCLO"},{"no_logradouro":"SITIO CABOCLO"},{"nu_endereco":"S/N"},{"no_bairro":"ZONA RURAL"},{"nu_telefone":"(87)37851133"},{"co_cep":"55320000"},{"uf":"PE"},{"cidade":"Lagoa do Ouro"},{"ano_ubs_det":"2016"},{"mes_ubs_det":"5"}],"geometry":{"type":"Point","coordinates":[-36.46431693183,-9.124171837925]}},{"type":"Feature","properties":[{"gid":"4115"},{"co_cnes":"1511"},{"lat":"-8.03453"},{"long":"-34.93274"},{"no_fantasia":"US 184 PSF VILA UNIAO"},{"no_logradouro":"RUA NOVA ALIANCA"},{"nu_endereco":"S/N"},{"no_bairro":"IPUTINGA"},{"nu_telefone":"(81) 33554716"},{"co_cep":"50680280"},{"uf":"PE"},{"cidade":"Recife"},{"ano_ubs_det":"2016"},{"mes_ubs_det":"5"}],"geometry":{"type":"Point","coordinates":[-34.93274,-8.03453]}},{"type":"Feature","properties":[{"gid":"4194"},{"co_cnes":"2632446"},{"lat":"-9.26608800888034"},{"long":"-36.7048072814931"},{"no_fantasia":"USF LAGOA DE SAO JOSE"},{"no_logradouro":"LAGOA DE SAO JOSE"},{"nu_endereco":"S/N"},{"no_bairro":"DISTRITO"},{"nu_telefone":""},{"co_cep":"55330000"},{"uf":"PE"},{"cidade":"Bom Conselho"},{"ano_ubs_det":"2016"},{"mes_ubs_det":"5"}],"geometry":{"type":"Point","coordinates":[-36.704807281493,-9.2660880088803]}},{"type":"Feature","properties":[{"gid":"4067"},{"co_cnes":"5446481"},{"lat":"-7.6515857"},{"long":"-40.1485284"},{"no_fantasia":"ESF CENTRO"},{"no_logradouro":"AV JOAO EUGENIO DA SILVA"},{"nu_endereco":"S/N"},{"no_bairro":"CENTRO"},{"nu_telefone":"87-3881-1177"},{"co_cep":"56260000"},{"uf":"PE"},{"cidade":"Ipubi"},{"ano_ubs_det":"2016"},{"mes_ubs_det":"5"}],"geometry":{"type":"Point","coordinates":[-40.1485284,-7.6515857]}},{"type":"Feature","properties":[{"gid":"4086"},{"co_cnes":"2436345"},{"lat":"-8.33422504386808"},{"long":"-36.4311710000038"},{"no_fantasia":"POLICLINICA PADRE JOSE MIGUEL LAGOA"},{"no_logradouro":"AVENIDA CORONEL JOAO LEITE"},{"nu_endereco":"607"},{"no_bairro":"BOM CONSELHO"},{"nu_telefone":"81 34111600"},{"co_cep":"55150001"},{"uf":"PE"},{"cidade":"Belo Jardim"},{"ano_ubs_det":"2016"},{"mes_ubs_det":"5"}],"geometry":{"type":"Point","coordinates":[-36.431171000004,-8.3342250438681]}},{"type":"Feature","properties":[{"gid":"4247"},{"co_cnes":"2633205"},{"lat":"-8.57652690116664"},{"long":"-36.8783720838698"},{"no_fantasia":"UBSF UNIDADE DE SAUDE DO TARA"},{"no_logradouro":"VILA DO TARA"},{"nu_endereco":"S/N"},{"no_bairro":"ZONA RURAL"},{"nu_telefone":"(87)38331178"},{"co_cep":"55270000"},{"uf":"PE"},{"cidade":"Venturosa"},{"ano_ubs_det":"2016"},{"mes_ubs_det":"5"}],"geometry":{"type":"Point","coordinates":[-36.87837208387,-8.5765269011666]}},{"type":"Feature","properties":[{"gid":"4129"},{"co_cnes":"6515789"},{"lat":"-7.8748798370359"},{"long":"-35.3223323822011"},{"no_fantasia":"POSTO DE SAUDE FRANCISCA MARIA CAVALCANTE DE MELO"},{"no_logradouro":"SITIO CHA DE VENTENAS"},{"nu_endereco":"S/N"},{"no_bairro":"ZONA RURAL"},{"nu_telefone":"36218959"},{"co_cep":"55820000"},{"uf":"PE"},{"cidade":"Lagoa do Carro"},{"ano_ubs_det":"2016"},{"mes_ubs_det":"5"}],"geometry":{"type":"Point","coordinates":[-35.322332382201,-7.8748798370359]}},{"type":"Feature","properties":[{"gid":"4150"},{"co_cnes":"3002594"},{"lat":"-8.87736"},{"long":"-36.47211"},{"no_fantasia":"USF DA VILA DO QUARTEL"},{"no_logradouro":"RUA CAETES"},{"nu_endereco":"S/N"},{"no_bairro":"NOVO HELIOPOLIS"},{"nu_telefone":"(87)37635732"},{"co_cep":"55297250"},{"uf":"PE"},{"cidade":"Garanhuns"},{"ano_ubs_det":"2016"},{"mes_ubs_det":"5"}],"geometry":{"type":"Point","coordinates":[-36.47211,-8.87736]}},{"type":"Feature","properties":[{"gid":"4172"},{"co_cnes":"2713071"},{"lat":"-8.36932897567725"},{"long":"-35.226674079894"},{"no_fantasia":"UNIDADE DE SAUDE DA FAMILIA MANGUEIRA"},{"no_logradouro":"AVENIDA NOVA ESCADA"},{"nu_endereco":"S/N"},{"no_bairro":"NOVA ESCADA"},{"nu_telefone":""},{"co_cep":"55500000"},{"uf":"PE"},{"cidade":"Escada"},{"ano_ubs_det":"2016"},{"mes_ubs_det":"5"}],"geometry":{"type":"Point","coordinates":[-35.226674079894,-8.3693289756773]}},{"type":"Feature","properties":[{"gid":"4211"},{"co_cnes":"2428083"},{"lat":"-7.5605097"},{"long":"-35.000486"},{"no_fantasia":"PSF BARRO VERMELHO"},{"no_logradouro":"RUA DO GOITI"},{"nu_endereco":"100"},{"no_bairro":"CENTRO"},{"nu_telefone":"81-94658287"},{"co_cep":"55900000"},{"uf":"PE"},{"cidade":"Goiana"},{"ano_ubs_det":"2016"},{"mes_ubs_det":"5"}],"geometry":{"type":"Point","coordinates":[-35.000486,-7.5605097]}},{"type":"Feature","properties":[{"gid":"4004"},{"co_cnes":"6363725"},{"lat":"-8.00004243850685"},{"long":"-34.8687171936025"},{"no_fantasia":"USF VILA MANCHETE"},{"no_logradouro":"R JENIPAPO"},{"nu_endereco":"S/N"},{"no_bairro":"OURO PRETO"},{"nu_telefone":""},{"co_cep":"53330570"},{"uf":"PE"},{"cidade":"Olinda"},{"ano_ubs_det":"2016"},{"mes_ubs_det":"5"}],"geometry":{"type":"Point","coordinates":[-34.868717193602,-8.0000424385068]}},{"type":"Feature","properties":[{"gid":"4180"},{"co_cnes":"2348861"},{"lat":"-7.9368356990636"},{"long":"-34.8881149291992"},{"no_fantasia":"USF JURANDIR FREIRE REZENDE I"},{"no_logradouro":"RUA 116"},{"nu_endereco":"186"},{"no_bairro":"JARDIM MARANGUAPE"},{"nu_telefone":"(81)34916861"},{"co_cep":"53401441"},{"uf":"PE"},{"cidade":"Paulista"},{"ano_ubs_det":"2016"},{"mes_ubs_det":"5"}],"geometry":{"type":"Point","coordinates":[-34.888114929199,-7.9368356990636]}},{"type":"Feature","properties":[{"gid":"4065"},{"co_cnes":"6344658"},{"lat":"-8.6739850044248"},{"long":"-35.5875492095937"},{"no_fantasia":"PSF SANTO ONOFRE III"},{"no_logradouro":"RUA DA LAVANDERIA"},{"nu_endereco":"S/N"},{"no_bairro":"SANTO ONOFRE"},{"nu_telefone":""},{"co_cep":"55540000"},{"uf":"PE"},{"cidade":"Palmares"},{"ano_ubs_det":"2016"},{"mes_ubs_det":"5"}],"geometry":{"type":"Point","coordinates":[-35.587549209594,-8.6739850044248]}},{"type":"Feature","properties":[{"gid":"4054"},{"co_cnes":"2712555"},{"lat":"-7.9334485530851"},{"long":"-35.2917337417592"},{"no_fantasia":"POSTO DE SAUDE DA FAMILIA PROGRESSO"},{"no_logradouro":"RUA ANTONIO BATISTA RAMOS"},{"nu_endereco":"S/N"},{"no_bairro":"CENTRO"},{"nu_telefone":""},{"co_cep":"55840000"},{"uf":"PE"},{"cidade":"Lagoa de Itaenga"},{"ano_ubs_det":"2016"},{"mes_ubs_det":"5"}],"geometry":{"type":"Point","coordinates":[-35.291733741759,-7.9334485530851]}},{"type":"Feature","properties":[{"gid":"4135"},{"co_cnes":"6681956"},{"lat":"-8.42093503757972"},{"long":"-35.6628188858245"},{"no_fantasia":"PSF CARANGUEIJO"},{"no_logradouro":"SITIO CARANGUEIJO"},{"nu_endereco":"S/N"},{"no_bairro":"ZONA RURAL"},{"nu_telefone":""},{"co_cep":"55690000"},{"uf":"PE"},{"cidade":"Barra de Guabiraba"},{"ano_ubs_det":"2016"},{"mes_ubs_det":"5"}],"geometry":{"type":"Point","coordinates":[-35.662818885824,-8.4209350375797]}},{"type":"Feature","properties":[{"gid":"4320"},{"co_cnes":"2433990"},{"lat":"-8.45554590225195"},{"long":"-35.9413433074941"},{"no_fantasia":"USF MARIA ALICE DAMASCENO ALVES"},{"no_logradouro":"AVENIDA DR GENIVAL VASCONCELOS"},{"nu_endereco":"76"},{"no_bairro":"IPIRANGA"},{"nu_telefone":"(81)37441122"},{"co_cep":"55495000"},{"uf":"PE"},{"cidade":"Agrestina"},{"ano_ubs_det":"2016"},{"mes_ubs_det":"5"}],"geometry":{"type":"Point","coordinates":[-35.941343307494,-8.455545902252]}},{"type":"Feature","properties":[{"gid":"4265"},{"co_cnes":"2713977"},{"lat":"-7.893307203234"},{"long":"-34.9124199180603"},{"no_fantasia":"USF DESTERRO II"},{"no_logradouro":"RUA ROSA PEREIRA DA CRUZ"},{"nu_endereco":"S/N"},{"no_bairro":"ALTO SAO MIGUEL"},{"nu_telefone":"(81)35424798"},{"co_cep":"53550080"},{"uf":"PE"},{"cidade":"Abreu e Lima"},{"ano_ubs_det":"2016"},{"mes_ubs_det":"5"}],"geometry":{"type":"Point","coordinates":[-34.91241991806,-7.893307203234]}},{"type":"Feature","properties":[{"gid":"4215"},{"co_cnes":"5751772"},{"lat":"-9.10569964429411"},{"long":"-38.1534611596796"},{"no_fantasia":"ESF III OLHO DAGUA DO BRUNO"},{"no_logradouro":"SITIO OLHO DAGUA DO BRUNO"},{"nu_endereco":"S/N"},{"no_bairro":"CENTRO"},{"nu_telefone":"(87)3843-1121"},{"co_cep":"56480000"},{"uf":"PE"},{"cidade":"Tacaratu"},{"ano_ubs_det":"2016"},{"mes_ubs_det":"5"}],"geometry":{"type":"Point","coordinates":[-38.15346115968,-9.1056996442941]}},{"type":"Feature","properties":[{"gid":"4277"},{"co_cnes":"2349442"},{"lat":"-7.95434039807981"},{"long":"-39.2926231743621"},{"no_fantasia":"PSF MARIA ANDRELINA"},{"no_logradouro":"CONJUNTO HABITACIONAL MANOEL CECILIO"},{"nu_endereco":"S/N"},{"no_bairro":"CENTRO"},{"nu_telefone":"(81)38821268"},{"co_cep":"56140000"},{"uf":"PE"},{"cidade":"Serrita"},{"ano_ubs_det":"2016"},{"mes_ubs_det":"5"}],"geometry":{"type":"Point","coordinates":[-39.292623174362,-7.9543403980798]}},{"type":"Feature","properties":[{"gid":"4132"},{"co_cnes":"3476049"},{"lat":"-7.85423755645729"},{"long":"-38.1542944908131"},{"no_fantasia":"USF JOAO DE QUINZEIRO"},{"no_logradouro":"SITIO BOM JESUS"},{"nu_endereco":"S/N"},{"no_bairro":"ZONA RURAL"},{"nu_telefone":""},{"co_cep":"56895000"},{"uf":"PE"},{"cidade":"Santa Cruz da Baixa Verde"},{"ano_ubs_det":"2016"},{"mes_ubs_det":"5"}],"geometry":{"type":"Point","coordinates":[-38.154294490813,-7.8542375564573]}},{"type":"Feature","properties":[{"gid":"4763"},{"co_cnes":"1236"},{"lat":"-8.054"},{"long":"-34.881"},{"no_fantasia":"US 152 CS INA ROSA BORGES"},{"no_logradouro":"RUA SENADOR MILTON CAMPOS"},{"nu_endereco":"S/N"},{"no_bairro":"VASCO DA GAMA"},{"nu_telefone":"(81) 3355-4408/4409"},{"co_cep":"52081170"},{"uf":"PE"},{"cidade":"Recife"},{"ano_ubs_det":"2016"},{"mes_ubs_det":"5"}],"geometry":{"type":"Point","coordinates":[-34.881,-8.054]}},{"type":"Feature","properties":[{"gid":"4756"},{"co_cnes":"1414"},{"lat":"-8.08998227119422"},{"long":"-34.9422097206106"},{"no_fantasia":"US 117 CS GASPAR REGUEIRA COSTA"},{"no_logradouro":"RUA PADRE DIOGO RODRIGUES"},{"nu_endereco":"144"},{"no_bairro":"BARRO"},{"nu_telefone":"(81) 33554404"},{"co_cep":"50900110"},{"uf":"PE"},{"cidade":"Recife"},{"ano_ubs_det":"2016"},{"mes_ubs_det":"5"}],"geometry":{"type":"Point","coordinates":[-34.942209720611,-8.0899822711942]}},{"type":"Feature","properties":[{"gid":"4559"},{"co_cnes":"2435896"},{"lat":"-8.2059995"},{"long":"-35.5714923938373"},{"no_fantasia":"PSF DE AVENCAS"},{"no_logradouro":"SITIO AVENCAS"},{"nu_endereco":"S/N"},{"no_bairro":"AVENCAS"},{"nu_telefone":"(81)35639024"},{"co_cep":"55642160"},{"uf":"PE"},{"cidade":"Gravatá"},{"ano_ubs_det":"2016"},{"mes_ubs_det":"5"}],"geometry":{"type":"Point","coordinates":[-35.571492393837,-8.2059995]}},{"type":"Feature","properties":[{"gid":"4721"},{"co_cnes":"2713195"},{"lat":"-7.86225199699379"},{"long":"-35.5879569053639"},{"no_fantasia":"UNIDADE DE SAUDE DA FAMILIA DE OLHO DAGUA CERCADO"},{"no_logradouro":"ZONA RURAL"},{"nu_endereco":"S/N"},{"no_bairro":"ZONA RURAL"},{"nu_telefone":"(81)36481228"},{"co_cep":"55720000"},{"uf":"PE"},{"cidade":"João Alfredo"},{"ano_ubs_det":"2016"},{"mes_ubs_det":"5"}],"geometry":{"type":"Point","coordinates":[-35.587956905364,-7.8622519969938]}},{"type":"Feature","properties":[{"gid":"4433"},{"co_cnes":"2713861"},{"lat":"-7.9077162"},{"long":"-34.9005597"},{"no_fantasia":"USF CENTRO I"},{"no_logradouro":"PRACA POLI"},{"nu_endereco":"S/N"},{"no_bairro":"CENTRO"},{"nu_telefone":""},{"co_cep":"53510170"},{"uf":"PE"},{"cidade":"Abreu e Lima"},{"ano_ubs_det":"2016"},{"mes_ubs_det":"5"}],"geometry":{"type":"Point","coordinates":[-34.9005597,-7.9077162]}},{"type":"Feature","properties":[{"gid":"4603"},{"co_cnes":"2630567"},{"lat":"-8.4197087"},{"long":"-35.6605216"},{"no_fantasia":"PSF II NOVA ESPERANCA"},{"no_logradouro":"LOTEAMENTO DO FUTURO"},{"nu_endereco":"S/N"},{"no_bairro":"NOVA ESPERANCA"},{"nu_telefone":"87352080"},{"co_cep":"55690000"},{"uf":"PE"},{"cidade":"Barra de Guabiraba"},{"ano_ubs_det":"2016"},{"mes_ubs_det":"5"}],"geometry":{"type":"Point","coordinates":[-35.6605216,-8.4197087]}},{"type":"Feature","properties":[{"gid":"4556"},{"co_cnes":"2636743"},{"lat":"-7.50716"},{"long":"-35.31828"},{"no_fantasia":"PSF JARDIM GUARANI"},{"no_logradouro":"RUA PAULO JOSE DOS SANTOS"},{"nu_endereco":"S/N"},{"no_bairro":"JARDIM GUARANI"},{"nu_telefone":"(81)36310131"},{"co_cep":"55870000"},{"uf":"PE"},{"cidade":"Timbaúba"},{"ano_ubs_det":"2016"},{"mes_ubs_det":"5"}],"geometry":{"type":"Point","coordinates":[-35.31828,-7.50716]}},{"type":"Feature","properties":[{"gid":"4746"},{"co_cnes":"5656893"},{"lat":"-8.06276248305241"},{"long":"-34.8889419445777"},{"no_fantasia":"US 347 PSF PARQUE DO MILAGRE"},{"no_logradouro":"RUA CANTORA DE ELISETE CARDOSO"},{"nu_endereco":"S/N"},{"no_bairro":"BARRO"},{"nu_telefone":"(81) 33556190"},{"co_cep":"51275280"},{"uf":"PE"},{"cidade":"Recife"},{"ano_ubs_det":"2016"},{"mes_ubs_det":"5"}],"geometry":{"type":"Point","coordinates":[-34.888941944578,-8.0627624830524]}},{"type":"Feature","properties":[{"gid":"4712"},{"co_cnes":"1112"},{"lat":"-8.09838"},{"long":"-34.94102"},{"no_fantasia":"US 186 PSF JARDIM UCHOA"},{"no_logradouro":"RUA JUPIRACY"},{"nu_endereco":"S/N"},{"no_bairro":"AREIAS"},{"nu_telefone":"(81) 33556211"},{"co_cep":"50780280"},{"uf":"PE"},{"cidade":"Recife"},{"ano_ubs_det":"2016"},{"mes_ubs_det":"5"}],"geometry":{"type":"Point","coordinates":[-34.94102,-8.09838]}},{"type":"Feature","properties":[{"gid":"4582"},{"co_cnes":"2630583"},{"lat":"-8.4197087"},{"long":"-35.6605216"},{"no_fantasia":"PSF I JOSE MARCOLINO DO NASCIMENTO"},{"no_logradouro":"AV AFONSO ALVES"},{"nu_endereco":"S/N"},{"no_bairro":"NOVA ESPERANCA"},{"nu_telefone":"88382923"},{"co_cep":"55690000"},{"uf":"PE"},{"cidade":"Barra de Guabiraba"},{"ano_ubs_det":"2016"},{"mes_ubs_det":"5"}],"geometry":{"type":"Point","coordinates":[-35.6605216,-8.4197087]}},{"type":"Feature","properties":[{"gid":"4411"},{"co_cnes":"7758758"},{"lat":"-8.1445926"},{"long":"-34.941015"},{"no_fantasia":"USF DOIS CARNEIROS BAIXO III"},{"no_logradouro":"AVENIDA MANOEL CARNEIRO LEAO"},{"nu_endereco":"S/N"},{"no_bairro":"DOIS CARNEIROS"},{"nu_telefone":""},{"co_cep":"54320000"},{"uf":"PE"},{"cidade":"Jaboatão dos Guararapes"},{"ano_ubs_det":"2016"},{"mes_ubs_det":"5"}],"geometry":{"type":"Point","coordinates":[-34.941015,-8.1445926]}},{"type":"Feature","properties":[{"gid":"4729"},{"co_cnes":"817"},{"lat":"-8.03069472312904"},{"long":"-34.9553203582754"},{"no_fantasia":"US 149 CS OLINTO OLIVEIRA"},{"no_logradouro":"RUA FRANCISCO DE PAULA"},{"nu_endereco":"47"},{"no_bairro":"CAXANGA"},{"nu_telefone":"(81) 33556442/6443"},{"co_cep":"50800270"},{"uf":"PE"},{"cidade":"Recife"},{"ano_ubs_det":"2016"},{"mes_ubs_det":"5"}],"geometry":{"type":"Point","coordinates":[-34.955320358275,-8.030694723129]}},{"type":"Feature","properties":[{"gid":"4696"},{"co_cnes":"22276"},{"lat":"-8.018546"},{"long":"-34.8831074"},{"no_fantasia":"US 231 PSF CORREGO DA BICA"},{"no_logradouro":"RUA SANTA TEREZA"},{"nu_endereco":"S/N"},{"no_bairro":"GUABIRABA"},{"nu_telefone":"(81) 33556114/6115"},{"co_cep":"52130110"},{"uf":"PE"},{"cidade":"Recife"},{"ano_ubs_det":"2016"},{"mes_ubs_det":"5"}],"geometry":{"type":"Point","coordinates":[-34.8831074,-8.018546]}},{"type":"Feature","properties":[{"gid":"4740"},{"co_cnes":"3703223"},{"lat":"-8.03754"},{"long":"-34.98055"},{"no_fantasia":"US 331 PSF PROF AMAURY DE MEDEIROS"},{"no_logradouro":"RUA RORAIMA"},{"nu_endereco":"102"},{"no_bairro":"UR 07 VARZEA"},{"nu_telefone":"(81) 32324805/7889"},{"co_cep":"50960120"},{"uf":"PE"},{"cidade":"Recife"},{"ano_ubs_det":"2016"},{"mes_ubs_det":"5"}],"geometry":{"type":"Point","coordinates":[-34.98055,-8.03754]}},{"type":"Feature","properties":[{"gid":"4767"},{"co_cnes":"2429128"},{"lat":"-7.40926386"},{"long":"-35.1106273574317"},{"no_fantasia":"UNIDADE DE SAUDE DA FAMILIA CARICE"},{"no_logradouro":"RUA JOAQUIM BARBALHO"},{"nu_endereco":"S/N"},{"no_bairro":"CARICE"},{"nu_telefone":""},{"co_cep":"55920000"},{"uf":"PE"},{"cidade":"Itambé"},{"ano_ubs_det":"2016"},{"mes_ubs_det":"5"}],"geometry":{"type":"Point","coordinates":[-35.110627357432,-7.40926386]}},{"type":"Feature","properties":[{"gid":"4630"},{"co_cnes":"2638088"},{"lat":"-8.05783631489578"},{"long":"-35.2130657348633"},{"no_fantasia":"U S F CAIC"},{"no_logradouro":"TRAV PROF FELIX PAIVA"},{"nu_endereco":"100"},{"no_bairro":"AGUAS BRANCA"},{"nu_telefone":"(81)32534050"},{"co_cep":"55610351"},{"uf":"PE"},{"cidade":"Vitória de Santo Antão"},{"ano_ubs_det":"2016"},{"mes_ubs_det":"5"}],"geometry":{"type":"Point","coordinates":[-35.213065734863,-8.0578363148958]}},{"type":"Feature","properties":[{"gid":"4927"},{"co_cnes":"2631202"},{"lat":"-8.00336837768531"},{"long":"-36.0624074935903"},{"no_fantasia":"PSF INDEPENDENTE"},{"no_logradouro":"RUA SAO JOSE"},{"nu_endereco":"15"},{"no_bairro":"INDEPENDENTE"},{"nu_telefone":"(81)37411864"},{"co_cep":"55125000"},{"uf":"PE"},{"cidade":"Toritama"},{"ano_ubs_det":"2016"},{"mes_ubs_det":"5"}],"geometry":{"type":"Point","coordinates":[-36.06240749359,-8.0033683776853]}},{"type":"Feature","properties":[{"gid":"4966"},{"co_cnes":"3778800"},{"lat":"-7.93306342924271"},{"long":"-34.858355820179"},{"no_fantasia":"USF NOSSA SENHORA DOS PRAZERES II"},{"no_logradouro":"AVN A"},{"nu_endereco":"S/N"},{"no_bairro":"MARNGUAPE II"},{"nu_telefone":"8134379883"},{"co_cep":"53401441"},{"uf":"PE"},{"cidade":"Paulista"},{"ano_ubs_det":"2016"},{"mes_ubs_det":"5"}],"geometry":{"type":"Point","coordinates":[-34.858355820179,-7.9330634292427]}},{"type":"Feature","properties":[{"gid":"4964"},{"co_cnes":"3132374"},{"lat":"-9.3906548"},{"long":"-40.508391"},{"no_fantasia":"UBS ROZA MARIA RIBEIRO"},{"no_logradouro":"AVENIDA DAS NACOES"},{"nu_endereco":"1000"},{"no_bairro":"GERCINO COELHO"},{"nu_telefone":"3863-3805"},{"co_cep":"56306260"},{"uf":"PE"},{"cidade":"Petrolina"},{"ano_ubs_det":"2016"},{"mes_ubs_det":"5"}],"geometry":{"type":"Point","coordinates":[-40.508391,-9.3906548]}},{"type":"Feature","properties":[{"gid":"4851"},{"co_cnes":"2347598"},{"lat":"-7.73002982139565"},{"long":"-37.2386956214894"},{"no_fantasia":"UNID DE SAUDE DA FAMILIA DE SANTA RITA"},{"no_logradouro":"DISTRITO DE SANTA RITA"},{"nu_endereco":"S/N"},{"no_bairro":"ZONA RURAL"},{"nu_telefone":"38281156"},{"co_cep":"56760000"},{"uf":"PE"},{"cidade":"Tuparetama"},{"ano_ubs_det":"2016"},{"mes_ubs_det":"5"}],"geometry":{"type":"Point","coordinates":[-37.238695621489,-7.7300298213957]}},{"type":"Feature","properties":[{"gid":"4817"},{"co_cnes":"2347555"},{"lat":"-8.81016612052892"},{"long":"-35.6872200965871"},{"no_fantasia":"PSF 06 DO ENGENHO LIMAO"},{"no_logradouro":"ENGENHO LIMAO"},{"nu_endereco":"S/N"},{"no_bairro":"ZONA RURAL"},{"nu_telefone":"( )"},{"co_cep":"55555000"},{"uf":"PE"},{"cidade":"Xexéu"},{"ano_ubs_det":"2016"},{"mes_ubs_det":"5"}],"geometry":{"type":"Point","coordinates":[-35.687220096587,-8.8101661205289]}},{"type":"Feature","properties":[{"gid":"5059"},{"co_cnes":"3983714"},{"lat":"-7.47402518326653"},{"long":"-37.2750721852438"},{"no_fantasia":"ESF CENTRAL"},{"no_logradouro":"RUA VEREADOR RAIMUNDO EUFRASIO"},{"nu_endereco":"58"},{"no_bairro":"CENTRO"},{"nu_telefone":"38441055"},{"co_cep":"56700000"},{"uf":"PE"},{"cidade":"São José do Egito"},{"ano_ubs_det":"2016"},{"mes_ubs_det":"5"}],"geometry":{"type":"Point","coordinates":[-37.275072185244,-7.4740251832665]}},{"type":"Feature","properties":[{"gid":"4815"},{"co_cnes":"2349426"},{"lat":"-7.85769224166847"},{"long":"-39.5643424987781"},{"no_fantasia":"PSF SAO FRANCISCO DO BRIGIDA"},{"no_logradouro":"VILA DE SAO FRANCISCO DO BRIGIDA"},{"nu_endereco":"S/N"},{"no_bairro":"DISTRITO"},{"nu_telefone":"(81)38829004"},{"co_cep":"56140000"},{"uf":"PE"},{"cidade":"Serrita"},{"ano_ubs_det":"2016"},{"mes_ubs_det":"5"}],"geometry":{"type":"Point","coordinates":[-39.564342498778,-7.8576922416685]}},{"type":"Feature","properties":[{"gid":"5044"},{"co_cnes":"2712601"},{"lat":"-8.81043823419498"},{"long":"-35.9311226193514"},{"no_fantasia":"UBS SANTA RITA"},{"no_logradouro":"RUA ABMAEL GOMES DA SILVA"},{"nu_endereco":"S/N"},{"no_bairro":"CENTRO"},{"nu_telefone":""},{"co_cep":"55410000"},{"uf":"PE"},{"cidade":"São Benedito do Sul"},{"ano_ubs_det":"2016"},{"mes_ubs_det":"5"}],"geometry":{"type":"Point","coordinates":[-35.931122619351,-8.810438234195]}},{"type":"Feature","properties":[{"gid":"5195"},{"co_cnes":"2630826"},{"lat":"-8.42890620231604"},{"long":"-36.5290904045094"},{"no_fantasia":"UBS MULUNGU"},{"no_logradouro":"RUA MANOEL RAIMUNDO OLIVEIRA"},{"nu_endereco":"S/N"},{"no_bairro":"ZONA RURAL"},{"nu_telefone":"(87)38361192"},{"co_cep":"55250000"},{"uf":"PE"},{"cidade":"Sanharó"},{"ano_ubs_det":"2016"},{"mes_ubs_det":"5"}],"geometry":{"type":"Point","coordinates":[-36.529090404509,-8.428906202316]}},{"type":"Feature","properties":[{"gid":"4933"},{"co_cnes":"6745768"},{"lat":"-7.98067688941932"},{"long":"-38.2788133621205"},{"no_fantasia":"USF COHAB II"},{"no_logradouro":"RUA JOSE MARCOLINO"},{"nu_endereco":"S/N"},{"no_bairro":"COHAB"},{"nu_telefone":""},{"co_cep":"56903300"},{"uf":"PE"},{"cidade":"Serra Talhada"},{"ano_ubs_det":"2016"},{"mes_ubs_det":"5"}],"geometry":{"type":"Point","coordinates":[-38.278813362121,-7.9806768894193]}},{"type":"Feature","properties":[{"gid":"5429"},{"co_cnes":"5481287"},{"lat":"-8.0131638050077"},{"long":"-36.0537385940541"},{"no_fantasia":"UBS CANAA"},{"no_logradouro":"VILA CANAA"},{"nu_endereco":"S/N"},{"no_bairro":"VILA CANAA"},{"nu_telefone":""},{"co_cep":"55008000"},{"uf":"PE"},{"cidade":"Caruaru"},{"ano_ubs_det":"2016"},{"mes_ubs_det":"5"}],"geometry":{"type":"Point","coordinates":[-36.053738594054,-8.0131638050077]}},{"type":"Feature","properties":[{"gid":"5440"},{"co_cnes":"2682516"},{"lat":"-8.285898"},{"long":"-35.9670733600535"},{"no_fantasia":"UBS JARDIM PANORAMA I"},{"no_logradouro":"RUA PROFESSOR ESMERALDA BARROS"},{"nu_endereco":"38"},{"no_bairro":"JARDIM PANORAMA"},{"nu_telefone":"(81)37011429"},{"co_cep":"55044070"},{"uf":"PE"},{"cidade":"Caruaru"},{"ano_ubs_det":"2016"},{"mes_ubs_det":"5"}],"geometry":{"type":"Point","coordinates":[-35.967073360053,-8.285898]}},{"type":"Feature","properties":[{"gid":"5434"},{"co_cnes":"2353423"},{"lat":"-7.3456712759663"},{"long":"-37.2873345539797"},{"no_fantasia":"PSF VILA DE FATIMA"},{"no_logradouro":"VILA DE FATIMA"},{"nu_endereco":"S/N"},{"no_bairro":"CENTRO"},{"nu_telefone":"(81)38501156"},{"co_cep":"56740000"},{"uf":"PE"},{"cidade":"Brejinho"},{"ano_ubs_det":"2016"},{"mes_ubs_det":"5"}],"geometry":{"type":"Point","coordinates":[-37.28733455398,-7.3456712759663]}},{"type":"Feature","properties":[{"gid":"5261"},{"co_cnes":"1090"},{"lat":"-8.11569929122901"},{"long":"-34.9106454849233"},{"no_fantasia":"US 126 CS VER ROMILDO GOMES"},{"no_logradouro":"RUA JALISCO"},{"nu_endereco":"S/N"},{"no_bairro":"IMBIRIBEIRA"},{"nu_telefone":"(81) 33554448/4449"},{"co_cep":"51150460"},{"uf":"PE"},{"cidade":"Recife"},{"ano_ubs_det":"2016"},{"mes_ubs_det":"5"}],"geometry":{"type":"Point","coordinates":[-34.910645484923,-8.115699291229]}},{"type":"Feature","properties":[{"gid":"5405"},{"co_cnes":"2345137"},{"lat":"-7.98777937889076"},{"long":"-34.876914024352"},{"no_fantasia":"USF BASE RURAL"},{"no_logradouro":"BASE RURAL"},{"nu_endereco":"S/N"},{"no_bairro":"OURO PRETO"},{"nu_telefone":"(81)99647855"},{"co_cep":"53120970"},{"uf":"PE"},{"cidade":"Olinda"},{"ano_ubs_det":"2016"},{"mes_ubs_det":"5"}],"geometry":{"type":"Point","coordinates":[-34.876914024352,-7.9877793788908]}},{"type":"Feature","properties":[{"gid":"5592"},{"co_cnes":"3503941"},{"lat":"-7.60319352149941"},{"long":"-37.3081970214833"},{"no_fantasia":"UNIDADE DE SAUDE DA FAMILIA JOSE LUCIANO DE LIMA"},{"no_logradouro":"RUA DAMIAO JOSE DA SILVA"},{"nu_endereco":"S/N"},{"no_bairro":"CENTRO"},{"nu_telefone":""},{"co_cep":"56760000"},{"uf":"PE"},{"cidade":"Tuparetama"},{"ano_ubs_det":"2016"},{"mes_ubs_det":"5"}],"geometry":{"type":"Point","coordinates":[-37.308197021483,-7.6031935214994]}},{"type":"Feature","properties":[{"gid":"5242"},{"co_cnes":"5320380"},{"lat":"-8.03947091102577"},{"long":"-34.950213432311"},{"no_fantasia":"US 337 PSF SITIO WANDERLEY"},{"no_logradouro":"RUA HEMETRIO MACIEL"},{"nu_endereco":"311"},{"no_bairro":"VARZEA"},{"nu_telefone":"33556874"},{"co_cep":"50740120"},{"uf":"PE"},{"cidade":"Recife"},{"ano_ubs_det":"2016"},{"mes_ubs_det":"5"}],"geometry":{"type":"Point","coordinates":[-34.950213432311,-8.0394709110258]}},{"type":"Feature","properties":[{"gid":"5399"},{"co_cnes":"2632853"},{"lat":"-8.66285686583942"},{"long":"-36.3214966175308"},{"no_fantasia":"PSF LUIZA FRAYJOL BOM JESUS"},{"no_logradouro":"POVOADO BOM JESUS"},{"nu_endereco":"S/N"},{"no_bairro":"BOM JESUS"},{"nu_telefone":"87 3773-1195"},{"co_cep":"55385000"},{"uf":"PE"},{"cidade":"Lajedo"},{"ano_ubs_det":"2016"},{"mes_ubs_det":"5"}],"geometry":{"type":"Point","coordinates":[-36.321496617531,-8.6628568658394]}},{"type":"Feature","properties":[{"gid":"5504"},{"co_cnes":"2704021"},{"lat":"-8.35545610783496"},{"long":"-36.6955147218979"},{"no_fantasia":"POSTO DE SAUDE MIMOSO"},{"no_logradouro":"DISTRITO MIMOSO"},{"nu_endereco":"S/N"},{"no_bairro":"ZONA RURAL"},{"nu_telefone":""},{"co_cep":"55200000"},{"uf":"PE"},{"cidade":"Pesqueira"},{"ano_ubs_det":"2016"},{"mes_ubs_det":"5"}],"geometry":{"type":"Point","coordinates":[-36.695514721898,-8.355456107835]}},{"type":"Feature","properties":[{"gid":"5370"},{"co_cnes":"2703580"},{"lat":"-7.99960847212724"},{"long":"-35.2923223922623"},{"no_fantasia":"PSF TAPERA DE SANTA MARIA"},{"no_logradouro":"SITIO TAPERA DE SANTA MARIA"},{"nu_endereco":"S/N"},{"no_bairro":"ZONA RURAL"},{"nu_telefone":""},{"co_cep":"55620000"},{"uf":"PE"},{"cidade":"Glória do Goitá"},{"ano_ubs_det":"2016"},{"mes_ubs_det":"5"}],"geometry":{"type":"Point","coordinates":[-35.292322392262,-7.9996084721272]}},{"type":"Feature","properties":[{"gid":"5932"},{"co_cnes":"3470261"},{"lat":"-8.10169"},{"long":"-34.88544"},{"no_fantasia":"US 326 PSF JADER DE ANDRADE COMUNIDADE ENTRA APULSO"},{"no_logradouro":"RUA CEL ANIZIO RODRIGUES COELHO"},{"nu_endereco":"8"},{"no_bairro":"BOA VIAGEM"},{"nu_telefone":"(81) 32323064/4373"},{"co_cep":"51021130"},{"uf":"PE"},{"cidade":"Recife"},{"ano_ubs_det":"2016"},{"mes_ubs_det":"5"}],"geometry":{"type":"Point","coordinates":[-34.88544,-8.10169]}},{"type":"Feature","properties":[{"gid":"5738"},{"co_cnes":"2432862"},{"lat":"-8.17409634590125"},{"long":"-34.9994802474965"},{"no_fantasia":"UBS MURIBECA DOS GUARARAPES"},{"no_logradouro":"RUA DA MATRIZ"},{"nu_endereco":"S/N"},{"no_bairro":"MURIBECA"},{"nu_telefone":"81 3476-6610"},{"co_cep":"54350110"},{"uf":"PE"},{"cidade":"Jaboatão dos Guararapes"},{"ano_ubs_det":"2016"},{"mes_ubs_det":"5"}],"geometry":{"type":"Point","coordinates":[-34.999480247496,-8.1740963459012]}},{"type":"Feature","properties":[{"gid":"5838"},{"co_cnes":"2713837"},{"lat":"-7.90444899"},{"long":"-34.8991305847304"},{"no_fantasia":"USF CAETES III A"},{"no_logradouro":"RUA OITENTA"},{"nu_endereco":"S/N"},{"no_bairro":"CAETES III"},{"nu_telefone":""},{"co_cep":"53545240"},{"uf":"PE"},{"cidade":"Abreu e Lima"},{"ano_ubs_det":"2016"},{"mes_ubs_det":"5"}],"geometry":{"type":"Point","coordinates":[-34.89913058473,-7.90444899]}},{"type":"Feature","properties":[{"gid":"5846"},{"co_cnes":"2347563"},{"lat":"-7.59875946480798"},{"long":"-37.3111818112638"},{"no_fantasia":"UNID DE SAU DA FAMILIA DA VILA B JESUS"},{"no_logradouro":"AV CARLOS CARIBE"},{"nu_endereco":"S/N"},{"no_bairro":"VILA BOM JESUS"},{"nu_telefone":"(81)38281116"},{"co_cep":"56760000"},{"uf":"PE"},{"cidade":"Tuparetama"},{"ano_ubs_det":"2016"},{"mes_ubs_det":"5"}],"geometry":{"type":"Point","coordinates":[-37.311181811264,-7.598759464808]}},{"type":"Feature","properties":[{"gid":"5815"},{"co_cnes":"2345870"},{"lat":"-8.05905103683448"},{"long":"-36.0648965835561"},{"no_fantasia":"UBS MALHADA DE BARREIRAS QUEIMADAS"},{"no_logradouro":"POVOADO MALHADA DE BARREIRAS QUEIMADAS"},{"nu_endereco":"S/N"},{"no_bairro":"POVOADO MALHADA DE B"},{"nu_telefone":""},{"co_cep":"55008000"},{"uf":"PE"},{"cidade":"Caruaru"},{"ano_ubs_det":"2016"},{"mes_ubs_det":"5"}],"geometry":{"type":"Point","coordinates":[-36.064896583556,-8.0590510368345]}},{"type":"Feature","properties":[{"gid":"5613"},{"co_cnes":"2434377"},{"lat":"-7.74657331766388"},{"long":"-34.823950567034"},{"no_fantasia":"USF SOSSEGO"},{"no_logradouro":"RUA MARIA BETANIA"},{"nu_endereco":"S/N"},{"no_bairro":"SOSSEGO"},{"nu_telefone":"(81)35441070"},{"co_cep":"53900000"},{"uf":"PE"},{"cidade":"Ilha de Itamaracá"},{"ano_ubs_det":"2016"},{"mes_ubs_det":"5"}],"geometry":{"type":"Point","coordinates":[-34.823950567034,-7.7465733176639]}},{"type":"Feature","properties":[{"gid":"5905"},{"co_cnes":"2428040"},{"lat":"-7.55795001983621"},{"long":"-34.9961113929738"},{"no_fantasia":"PSF BALDO DO RIO"},{"no_logradouro":"AVENIDA NUNES MACHADO"},{"nu_endereco":"45"},{"no_bairro":"GOIANA"},{"nu_telefone":""},{"co_cep":"55900000"},{"uf":"PE"},{"cidade":"Goiana"},{"ano_ubs_det":"2016"},{"mes_ubs_det":"5"}],"geometry":{"type":"Point","coordinates":[-34.996111392974,-7.5579500198362]}},{"type":"Feature","properties":[{"gid":"5762"},{"co_cnes":"2634791"},{"lat":"-8.61887382006989"},{"long":"-39.6007715482712"},{"no_fantasia":"PSF CASA NOVA"},{"no_logradouro":"FAZENDA CASA NOVA"},{"nu_endereco":"S/N"},{"no_bairro":"FAZENDA CASA NOVA"},{"nu_telefone":"(87)38871060"},{"co_cep":"56170000"},{"uf":"PE"},{"cidade":"Orocó"},{"ano_ubs_det":"2016"},{"mes_ubs_det":"5"}],"geometry":{"type":"Point","coordinates":[-39.600771548271,-8.6188738200699]}},{"type":"Feature","properties":[{"gid":"5629"},{"co_cnes":"7058640"},{"lat":"-8.2169908443385"},{"long":"-34.9288308620453"},{"no_fantasia":"USF BARRA DE JANGADA II"},{"no_logradouro":"RUA CUIABA"},{"nu_endereco":"S/N"},{"no_bairro":"BARRA DE JANGADA"},{"nu_telefone":""},{"co_cep":"54460130"},{"uf":"PE"},{"cidade":"Jaboatão dos Guararapes"},{"ano_ubs_det":"2016"},{"mes_ubs_det":"5"}],"geometry":{"type":"Point","coordinates":[-34.928830862045,-8.2169908443385]}},{"type":"Feature","properties":[{"gid":"5847"},{"co_cnes":"3003728"},{"lat":"-8.51510548326908"},{"long":"-39.3098413379707"},{"no_fantasia":"PSF ALEXANDRINA DE SOUZA BARBOSA"},{"no_logradouro":"RUA COHAB"},{"nu_endereco":"02"},{"no_bairro":"COHAB"},{"nu_telefone":"(87) 38752625"},{"co_cep":"56180000"},{"uf":"PE"},{"cidade":"Cabrobó"},{"ano_ubs_det":"2016"},{"mes_ubs_det":"5"}],"geometry":{"type":"Point","coordinates":[-39.309841337971,-8.5151054832691]}},{"type":"Feature","properties":[{"gid":"5830"},{"co_cnes":"2347237"},{"lat":"-7.95717000961281"},{"long":"-35.7122182846059"},{"no_fantasia":"UNIDADE DE SAUDE DA FAMILIA CHEUS"},{"no_logradouro":"SITIO CHEUS"},{"nu_endereco":"S/N"},{"no_bairro":"RURAL"},{"nu_telefone":"(81)36341584"},{"co_cep":"55750000"},{"uf":"PE"},{"cidade":"Surubim"},{"ano_ubs_det":"2016"},{"mes_ubs_det":"5"}],"geometry":{"type":"Point","coordinates":[-35.712218284606,-7.9571700096128]}},{"type":"Feature","properties":[{"gid":"5835"},{"co_cnes":"2713896"},{"lat":"-7.8505"},{"long":"-35.11954"},{"no_fantasia":"USF CHA DE CRUZ"},{"no_logradouro":"RUA ARCO IRIS"},{"nu_endereco":"S/N"},{"no_bairro":"CHA DE CRUZ"},{"nu_telefone":""},{"co_cep":"53550500"},{"uf":"PE"},{"cidade":"Abreu e Lima"},{"ano_ubs_det":"2016"},{"mes_ubs_det":"5"}],"geometry":{"type":"Point","coordinates":[-35.11954,-7.8505]}},{"type":"Feature","properties":[{"gid":"5729"},{"co_cnes":"2429683"},{"lat":"-9.44321036338779"},{"long":"-40.5672097206104"},{"no_fantasia":"UBS JOAO AUGUSTO DA SILVA"},{"no_logradouro":"POVOADO AGROVILA MASSANGANO"},{"nu_endereco":"S/N"},{"no_bairro":"ZONA RURAL"},{"nu_telefone":"39851035"},{"co_cep":"56304020"},{"uf":"PE"},{"cidade":"Petrolina"},{"ano_ubs_det":"2016"},{"mes_ubs_det":"5"}],"geometry":{"type":"Point","coordinates":[-40.56720972061,-9.4432103633878]}},{"type":"Feature","properties":[{"gid":"6313"},{"co_cnes":"2350343"},{"lat":"-8.58079433441137"},{"long":"-40.6927800178516"},{"no_fantasia":"UBS MARCELINO FRANCISCO DE MACEDO"},{"no_logradouro":"AV 01"},{"nu_endereco":"22"},{"no_bairro":"POVOADO DE CAATINGA"},{"nu_telefone":""},{"co_cep":"56355000"},{"uf":"PE"},{"cidade":"Dormentes"},{"ano_ubs_det":"2016"},{"mes_ubs_det":"5"}],"geometry":{"type":"Point","coordinates":[-40.692780017852,-8.5807943344114]}},{"type":"Feature","properties":[{"gid":"6098"},{"co_cnes":"2434334"},{"lat":"-7.74657331766388"},{"long":"-34.823950567034"},{"no_fantasia":"USF VILA VELHA"},{"no_logradouro":"R JOAO PAULO II"},{"nu_endereco":"S/N"},{"no_bairro":"VILA VELHA"},{"nu_telefone":""},{"co_cep":"53900000"},{"uf":"PE"},{"cidade":"Ilha de Itamaracá"},{"ano_ubs_det":"2016"},{"mes_ubs_det":"5"}],"geometry":{"type":"Point","coordinates":[-34.823950567034,-7.7465733176639]}},{"type":"Feature","properties":[{"gid":"6399"},{"co_cnes":"3153479"},{"lat":"-8.06276248305241"},{"long":"-34.8889419445777"},{"no_fantasia":"US 299 PSF JORDAO BAIXO"},{"no_logradouro":"RUA JOSE MARTORANO"},{"nu_endereco":"100"},{"no_bairro":"JORDAO"},{"nu_telefone":"(81) 33553407/3408"},{"co_cep":"51260760"},{"uf":"PE"},{"cidade":"Recife"},{"ano_ubs_det":"2016"},{"mes_ubs_det":"5"}],"geometry":{"type":"Point","coordinates":[-34.888941944578,-8.0627624830524]}},{"type":"Feature","properties":[{"gid":"6034"},{"co_cnes":"2714221"},{"lat":"-8.05835366249061"},{"long":"-40.0024008750904"},{"no_fantasia":"USF SAO JOAO DOS LOPES"},{"no_logradouro":"POVOADO DO LOPES"},{"nu_endereco":"S/N"},{"no_bairro":"ZONA RURAL"},{"nu_telefone":"(87)38741595"},{"co_cep":"56200000"},{"uf":"PE"},{"cidade":"Ouricuri"},{"ano_ubs_det":"2016"},{"mes_ubs_det":"5"}],"geometry":{"type":"Point","coordinates":[-40.00240087509,-8.0583536624906]}},{"type":"Feature","properties":[{"gid":"6144"},{"co_cnes":"6933939"},{"lat":"-8.09086203575111"},{"long":"-39.5781612396229"},{"no_fantasia":"USF LEOPOLDINA"},{"no_logradouro":"RUA DOUTOR MIGUEL"},{"nu_endereco":"S/N"},{"no_bairro":"CENTRO"},{"nu_telefone":""},{"co_cep":"56163000"},{"uf":"PE"},{"cidade":"Parnamirim"},{"ano_ubs_det":"2016"},{"mes_ubs_det":"5"}],"geometry":{"type":"Point","coordinates":[-39.578161239623,-8.0908620357511]}},{"type":"Feature","properties":[{"gid":"6102"},{"co_cnes":"3390942"},{"lat":"-7.80305821890566"},{"long":"-37.793398902551"},{"no_fantasia":"UNIDADE DE SAUDE DA FAMILIA DO POVOADO DA ITA"},{"no_logradouro":"RUA NOSSA SENHORA DA SAUDE"},{"nu_endereco":"S/N"},{"no_bairro":"POVOADO DA ITA"},{"nu_telefone":"87-3837-1156"},{"co_cep":"56820000"},{"uf":"PE"},{"cidade":"Carnaíba"},{"ano_ubs_det":"2016"},{"mes_ubs_det":"5"}],"geometry":{"type":"Point","coordinates":[-37.793398902551,-7.8030582189057]}},{"type":"Feature","properties":[{"gid":"6099"},{"co_cnes":"2352648"},{"lat":"-8.2257617874979"},{"long":"-34.9466514587402"},{"no_fantasia":"UBS PRAIA DO SOL"},{"no_logradouro":"RUA CAXIAS DO SUL"},{"nu_endereco":"S/N"},{"no_bairro":"BARRA DE JANGADA"},{"nu_telefone":"81-3468-2674"},{"co_cep":"54470030"},{"uf":"PE"},{"cidade":"Jaboatão dos Guararapes"},{"ano_ubs_det":"2016"},{"mes_ubs_det":"5"}],"geometry":{"type":"Point","coordinates":[-34.94665145874,-8.2257617874979]}},{"type":"Feature","properties":[{"gid":"6175"},{"co_cnes":"2698838"},{"lat":"-8.87755937542735"},{"long":"-36.3682530765329"},{"no_fantasia":"PSF LUIZ AUGUSTO RODRIGUES"},{"no_logradouro":"RUA MANOEL RODRIGUES"},{"nu_endereco":"S/N"},{"no_bairro":"CENTRO"},{"nu_telefone":""},{"co_cep":"55435000"},{"uf":"PE"},{"cidade":"São João"},{"ano_ubs_det":"2016"},{"mes_ubs_det":"5"}],"geometry":{"type":"Point","coordinates":[-36.368253076533,-8.8775593754273]}},{"type":"Feature","properties":[{"gid":"6368"},{"co_cnes":"2713829"},{"lat":"-7.9214521"},{"long":"-34.928735"},{"no_fantasia":"USF CAETES I"},{"no_logradouro":"RUA CENTO E OITENTA E SEIS"},{"nu_endereco":"154"},{"no_bairro":"CAETES I"},{"nu_telefone":""},{"co_cep":"53530468"},{"uf":"PE"},{"cidade":"Abreu e Lima"},{"ano_ubs_det":"2016"},{"mes_ubs_det":"5"}],"geometry":{"type":"Point","coordinates":[-34.928735,-7.9214521]}},{"type":"Feature","properties":[{"gid":"6394"},{"co_cnes":"2428326"},{"lat":"-9.00639653205845"},{"long":"-36.704077720641"},{"no_fantasia":"PSF VARZEA DA SERRA"},{"no_logradouro":"SITIO VARZEA DA SERRA"},{"nu_endereco":"S/N"},{"no_bairro":"ZONA RURAL"},{"nu_telefone":"(87)37821104"},{"co_cep":"55350000"},{"uf":"PE"},{"cidade":"Saloá"},{"ano_ubs_det":"2016"},{"mes_ubs_det":"5"}],"geometry":{"type":"Point","coordinates":[-36.704077720641,-9.0063965320584]}},{"type":"Feature","properties":[{"gid":"6122"},{"co_cnes":"2707047"},{"lat":"-7.77083158493019"},{"long":"-40.2708148956287"},{"no_fantasia":"USF VILA SAO PEDRO"},{"no_logradouro":"RUA SAO PEDRO"},{"nu_endereco":"S/N"},{"no_bairro":"VILA SAO PEDRO"},{"nu_telefone":"(87)38701074"},{"co_cep":"56250000"},{"uf":"PE"},{"cidade":"Trindade"},{"ano_ubs_det":"2016"},{"mes_ubs_det":"5"}],"geometry":{"type":"Point","coordinates":[-40.270814895629,-7.7708315849302]}},{"type":"Feature","properties":[{"gid":"6197"},{"co_cnes":"6624588"},{"lat":"-8.16539146735745"},{"long":"-34.9211734672603"},{"no_fantasia":"USF CURADO II II"},{"no_logradouro":"RUA FRANCISCO SERPA"},{"nu_endereco":"S/N"},{"no_bairro":"CURADO II"},{"nu_telefone":"81 3452-5777"},{"co_cep":"54320000"},{"uf":"PE"},{"cidade":"Jaboatão dos Guararapes"},{"ano_ubs_det":"2016"},{"mes_ubs_det":"5"}],"geometry":{"type":"Point","coordinates":[-34.92117346726,-8.1653914673575]}},{"type":"Feature","properties":[{"gid":"6252"},{"co_cnes":"7484976"},{"lat":"-8.88397387945215"},{"long":"-36.2776744232178"},{"no_fantasia":"PSF NOVA ALIANCA"},{"no_logradouro":"RUA NOVA ALIANCA"},{"nu_endereco":"S/N"},{"no_bairro":"CENTRO"},{"nu_telefone":""},{"co_cep":"55430000"},{"uf":"PE"},{"cidade":"Angelim"},{"ano_ubs_det":"2016"},{"mes_ubs_det":"5"}],"geometry":{"type":"Point","coordinates":[-36.277674423218,-8.8839738794522]}},{"type":"Feature","properties":[{"gid":"6158"},{"co_cnes":"2351978"},{"lat":"-7.50586520956365"},{"long":"-37.1934574842453"},{"no_fantasia":"ESF DE CURRALINHO"},{"no_logradouro":"POVOADO DE CURRALINHO"},{"nu_endereco":"100"},{"no_bairro":"ZONA RURAL"},{"nu_telefone":""},{"co_cep":"56700000"},{"uf":"PE"},{"cidade":"São José do Egito"},{"ano_ubs_det":"2016"},{"mes_ubs_det":"5"}],"geometry":{"type":"Point","coordinates":[-37.193457484245,-7.5058652095636]}},{"type":"Feature","properties":[{"gid":"6215"},{"co_cnes":"22454"},{"lat":"-8.13018"},{"long":"-34.94653"},{"no_fantasia":"US 228 USF UPINHA DIA DES JOSE MANOEL DE FREITAS UR 4UR 5"},{"no_logradouro":"RUA CAPITAO VICENTE CURADO"},{"nu_endereco":"33"},{"no_bairro":"COHAB"},{"nu_telefone":"(81) 33556166"},{"co_cep":"51300010"},{"uf":"PE"},{"cidade":"Recife"},{"ano_ubs_det":"2016"},{"mes_ubs_det":"5"}],"geometry":{"type":"Point","coordinates":[-34.94653,-8.13018]}},{"type":"Feature","properties":[{"gid":"6444"},{"co_cnes":"2635585"},{"lat":"-7.67779719451529"},{"long":"-37.4576704743563"},{"no_fantasia":"UNIDADE DE SAUDE DA FAMILIA SANTA ROSA"},{"no_logradouro":"RUA DO COMERCIO"},{"nu_endereco":"200"},{"no_bairro":"SANTA ROSA"},{"nu_telefone":"(87)38291161"},{"co_cep":"56830000"},{"uf":"PE"},{"cidade":"Ingazeira"},{"ano_ubs_det":"2016"},{"mes_ubs_det":"5"}],"geometry":{"type":"Point","coordinates":[-37.457670474356,-7.6777971945153]}},{"type":"Feature","properties":[{"gid":"6486"},{"co_cnes":"2346710"},{"lat":"-8.10671925544715"},{"long":"-35.0230622291555"},{"no_fantasia":"USF VICENTE ALBERTO CARICIO MALVINAS I"},{"no_logradouro":"RUA CARUARU"},{"nu_endereco":"S/N"},{"no_bairro":"VISTA ALEGRE"},{"nu_telefone":"81-3482-7680"},{"co_cep":"54070190"},{"uf":"PE"},{"cidade":"Jaboatão dos Guararapes"},{"ano_ubs_det":"2016"},{"mes_ubs_det":"5"}],"geometry":{"type":"Point","coordinates":[-35.023062229155,-8.1067192554471]}},{"type":"Feature","properties":[{"gid":"6638"},{"co_cnes":"2349639"},{"lat":"-8.10572147369361"},{"long":"-34.9817776679983"},{"no_fantasia":"UBS SUCUPIRA"},{"no_logradouro":"RUA MARECHAL CANDIDO RONDON"},{"nu_endereco":"109"},{"no_bairro":"SUCUPIRA"},{"nu_telefone":"81 3252-9731"},{"co_cep":"54170051"},{"uf":"PE"},{"cidade":"Jaboatão dos Guararapes"},{"ano_ubs_det":"2016"},{"mes_ubs_det":"5"}],"geometry":{"type":"Point","coordinates":[-34.981777667998,-8.1057214736936]}},{"type":"Feature","properties":[{"gid":"6596"},{"co_cnes":"4017617"},{"lat":"-8.33970665931678"},{"long":"-36.4101934432973"},{"no_fantasia":"UBS COHAB I 01 ALUIZIO CLEMENTE"},{"no_logradouro":"AV SENADOR PAULO GUERRA"},{"nu_endereco":"01"},{"no_bairro":"COHAB I"},{"nu_telefone":"(81)37268720"},{"co_cep":"55157020"},{"uf":"PE"},{"cidade":"Belo Jardim"},{"ano_ubs_det":"2016"},{"mes_ubs_det":"5"}],"geometry":{"type":"Point","coordinates":[-36.410193443297,-8.3397066593168]}},{"type":"Feature","properties":[{"gid":"6724"},{"co_cnes":"2429853"},{"lat":"-8.815376"},{"long":"-40.833809"},{"no_fantasia":"UBS RAJADA PLINIO AMORIM"},{"no_logradouro":"ANTONIO VOZ FILGUEIRA"},{"nu_endereco":"015"},{"no_bairro":"RAJADA"},{"nu_telefone":"38622100 /3865-2584"},{"co_cep":"56345000"},{"uf":"PE"},{"cidade":"Petrolina"},{"ano_ubs_det":"2016"},{"mes_ubs_det":"5"}],"geometry":{"type":"Point","coordinates":[-40.833809,-8.815376]}},{"type":"Feature","properties":[{"gid":"6526"},{"co_cnes":"3007995"},{"lat":"-8.10617"},{"long":"-34.92034"},{"no_fantasia":"US 292 PSF VILA DO IPSEP"},{"no_logradouro":"RUA VIRGINIA HERACLIO"},{"nu_endereco":"S/N"},{"no_bairro":"IPSEP"},{"nu_telefone":"(81) 33556687"},{"co_cep":"51350250"},{"uf":"PE"},{"cidade":"Recife"},{"ano_ubs_det":"2016"},{"mes_ubs_det":"5"}],"geometry":{"type":"Point","coordinates":[-34.92034,-8.10617]}},{"type":"Feature","properties":[{"gid":"6438"},{"co_cnes":"3031136"},{"lat":"-7.47550964355447"},{"long":"-35.2685594558706"},{"no_fantasia":"POSTO DE SAUDE SANDOVAL VELOSO BORBA"},{"no_logradouro":"SITIO ARACA"},{"nu_endereco":"S/N"},{"no_bairro":"ZONA RURAL"},{"nu_telefone":"(81)36571147"},{"co_cep":"55880000"},{"uf":"PE"},{"cidade":"Ferreiros"},{"ano_ubs_det":"2016"},{"mes_ubs_det":"5"}],"geometry":{"type":"Point","coordinates":[-35.268559455871,-7.4755096435545]}},{"type":"Feature","properties":[{"gid":"6543"},{"co_cnes":"3153487"},{"lat":"-8.06276248305241"},{"long":"-34.8889419445777"},{"no_fantasia":"US 295 PSF COSME E DAMIAO"},{"no_logradouro":"RUA TOMAZ FERREIRA"},{"nu_endereco":"93"},{"no_bairro":"VARZEA"},{"nu_telefone":"(81) 33550304"},{"co_cep":"50960530"},{"uf":"PE"},{"cidade":"Recife"},{"ano_ubs_det":"2016"},{"mes_ubs_det":"5"}],"geometry":{"type":"Point","coordinates":[-34.888941944578,-8.0627624830524]}},{"type":"Feature","properties":[{"gid":"6771"},{"co_cnes":"2347628"},{"lat":"-7.71228432655312"},{"long":"-37.9177665710438"},{"no_fantasia":"PSF ANTONIA RAINHA DE FRANCA"},{"no_logradouro":"SITIO SANTA CRUZ"},{"nu_endereco":"100"},{"no_bairro":"ZONA RURAL"},{"nu_telefone":"(87)38548102"},{"co_cep":"56828000"},{"uf":"PE"},{"cidade":"Quixaba"},{"ano_ubs_det":"2016"},{"mes_ubs_det":"5"}],"geometry":{"type":"Point","coordinates":[-37.917766571044,-7.7122843265531]}},{"type":"Feature","properties":[{"gid":"6538"},{"co_cnes":"2703009"},{"lat":"-9.02633070945714"},{"long":"-37.0535802841176"},{"no_fantasia":"USF DE CURRAL NOVO"},{"no_logradouro":"POVOADO DO CURRAL NOVO"},{"nu_endereco":"S/N"},{"no_bairro":"DISTRITO"},{"nu_telefone":"(87)37752564"},{"co_cep":"55340000"},{"uf":"PE"},{"cidade":"Águas Belas"},{"ano_ubs_det":"2016"},{"mes_ubs_det":"5"}],"geometry":{"type":"Point","coordinates":[-37.053580284118,-9.0263307094571]}},{"type":"Feature","properties":[{"gid":"6483"},{"co_cnes":"3445275"},{"lat":"-8.06276248305241"},{"long":"-34.8889419445777"},{"no_fantasia":"US 327 PSF CLUBE DOS DELEGADOS"},{"no_logradouro":"RUA JOAO CAVALCANTI PETRIBU"},{"nu_endereco":"S/N"},{"no_bairro":"DOIS UNIDOS"},{"nu_telefone":"81/ 3355-6905"},{"co_cep":"52160230"},{"uf":"PE"},{"cidade":"Recife"},{"ano_ubs_det":"2016"},{"mes_ubs_det":"5"}],"geometry":{"type":"Point","coordinates":[-34.888941944578,-8.0627624830524]}},{"type":"Feature","properties":[{"gid":"6550"},{"co_cnes":"2631970"},{"lat":"-8.70609685279338"},{"long":"-36.4117337384655"},{"no_fantasia":"ESF MAURO ANDRE DE OLIVEIRA"},{"no_logradouro":"POVOADO DE COLONIA"},{"nu_endereco":"S/N"},{"no_bairro":"RURAL"},{"nu_telefone":""},{"co_cep":"55395000"},{"uf":"PE"},{"cidade":"Jupi"},{"ano_ubs_det":"2016"},{"mes_ubs_det":"5"}],"geometry":{"type":"Point","coordinates":[-36.411733738466,-8.7060968527934]}},{"type":"Feature","properties":[{"gid":"6646"},{"co_cnes":"5720141"},{"lat":"-7.99877643585182"},{"long":"-34.8529028892507"},{"no_fantasia":"USF BULTRINS MONTE I E II"},{"no_logradouro":"RUA PROFESSOR MANOEL REGUEIRA"},{"nu_endereco":"821"},{"no_bairro":"BULTRINS"},{"nu_telefone":"(81)34940177"},{"co_cep":"53320491"},{"uf":"PE"},{"cidade":"Olinda"},{"ano_ubs_det":"2016"},{"mes_ubs_det":"5"}],"geometry":{"type":"Point","coordinates":[-34.852902889251,-7.9987764358518]}},{"type":"Feature","properties":[{"gid":"6930"},{"co_cnes":"5939674"},{"lat":"-7.7479143538985"},{"long":"-34.9339914321899"},{"no_fantasia":"USF BOTAFOGO II"},{"no_logradouro":"RUA I"},{"nu_endereco":"S/N"},{"no_bairro":"BOTAFOGO"},{"nu_telefone":""},{"co_cep":"53700000"},{"uf":"PE"},{"cidade":"Itapissuma"},{"ano_ubs_det":"2016"},{"mes_ubs_det":"5"}],"geometry":{"type":"Point","coordinates":[-34.93399143219,-7.7479143538985]}},{"type":"Feature","properties":[{"gid":"6912"},{"co_cnes":"2429020"},{"lat":"-7.40926386"},{"long":"-35.1106273574317"},{"no_fantasia":"UNIDADE DE SAUDE ENGENHO JARDIM"},{"no_logradouro":"ENGENHO JARDIM"},{"nu_endereco":"S/N"},{"no_bairro":"ZONA RURAL"},{"nu_telefone":""},{"co_cep":"55920000"},{"uf":"PE"},{"cidade":"Itambé"},{"ano_ubs_det":"2016"},{"mes_ubs_det":"5"}],"geometry":{"type":"Point","coordinates":[-35.110627357432,-7.40926386]}},{"type":"Feature","properties":[{"gid":"6841"},{"co_cnes":"7728565"},{"lat":"-8.152451"},{"long":"-34.915742"},{"no_fantasia":"USF MASSARANDUBA DO CAMPO"},{"no_logradouro":"RUA CONSUELO LOURDES DUTRA"},{"nu_endereco":"55"},{"no_bairro":"PRAZERES"},{"nu_telefone":"81 3342-3728"},{"co_cep":"54310058"},{"uf":"PE"},{"cidade":"Jaboatão dos Guararapes"},{"ano_ubs_det":"2016"},{"mes_ubs_det":"5"}],"geometry":{"type":"Point","coordinates":[-34.915742,-8.152451]}},{"type":"Feature","properties":[{"gid":"7109"},{"co_cnes":"2714744"},{"lat":"-8.09282541275001"},{"long":"-39.785313606261"},{"no_fantasia":"USF ICAICARA"},{"no_logradouro":"POVOADO ICAICARA"},{"nu_endereco":"S/N"},{"no_bairro":"ICAICARA"},{"nu_telefone":"(87)38831056"},{"co_cep":"56163000"},{"uf":"PE"},{"cidade":"Parnamirim"},{"ano_ubs_det":"2016"},{"mes_ubs_det":"5"}],"geometry":{"type":"Point","coordinates":[-39.785313606261,-8.09282541275]}},{"type":"Feature","properties":[{"gid":"7167"},{"co_cnes":"2348578"},{"lat":"-7.59113651302262"},{"long":"-37.5402657741875"},{"no_fantasia":"USF RIACHO DO GADO"},{"no_logradouro":"DOM MOTA"},{"nu_endereco":"S/N"},{"no_bairro":"RIACHO DO GADO"},{"nu_telefone":""},{"co_cep":"56780000"},{"uf":"PE"},{"cidade":"Tabira"},{"ano_ubs_det":"2016"},{"mes_ubs_det":"5"}],"geometry":{"type":"Point","coordinates":[-37.540265774188,-7.5911365130226]}},{"type":"Feature","properties":[{"gid":"7000"},{"co_cnes":"2433303"},{"lat":"-7.69921660423256"},{"long":"-35.5127263069143"},{"no_fantasia":"POSTO DE SAUDE JOSEFA ANA DA CONCEICAO"},{"no_logradouro":"SITIO SIQUEIRA"},{"nu_endereco":"S/N"},{"no_bairro":"ZONA RURAL"},{"nu_telefone":"(81)36491162"},{"co_cep":"55740000"},{"uf":"PE"},{"cidade":"Machados"},{"ano_ubs_det":"2016"},{"mes_ubs_det":"5"}],"geometry":{"type":"Point","coordinates":[-35.512726306914,-7.6992166042326]}},{"type":"Feature","properties":[{"gid":"6931"},{"co_cnes":"7570740"},{"lat":"-8.96409740007715"},{"long":"-37.628345489502"},{"no_fantasia":"PSF SEVERINA FERREIRA BARROS"},{"no_logradouro":"SIITIO MINADOR"},{"nu_endereco":"S/N"},{"no_bairro":"RURAL"},{"nu_telefone":""},{"co_cep":"56565000"},{"uf":"PE"},{"cidade":"Manari"},{"ano_ubs_det":"2016"},{"mes_ubs_det":"5"}],"geometry":{"type":"Point","coordinates":[-37.628345489502,-8.9640974000771]}},{"type":"Feature","properties":[{"gid":"7153"},{"co_cnes":"2353466"},{"lat":"-7.3456712759663"},{"long":"-37.2873345539797"},{"no_fantasia":"UNIDADE BASICA DE SAUDE ANTONIO ALVES GOMES"},{"no_logradouro":"SITIO SERRARIA DE BAIXO"},{"nu_endereco":"S/N"},{"no_bairro":"CENTRO"},{"nu_telefone":"(87)38501156"},{"co_cep":"56740000"},{"uf":"PE"},{"cidade":"Brejinho"},{"ano_ubs_det":"2016"},{"mes_ubs_det":"5"}],"geometry":{"type":"Point","coordinates":[-37.28733455398,-7.3456712759663]}},{"type":"Feature","properties":[{"gid":"6914"},{"co_cnes":"2433737"},{"lat":"-8.13517212867713"},{"long":"-36.6671061515797"},{"no_fantasia":"POSTO DE SAUDE BREJINHO"},{"no_logradouro":"SITIO BREJINHO"},{"nu_endereco":"S/N"},{"no_bairro":"CENTRO"},{"nu_telefone":""},{"co_cep":"55180000"},{"uf":"PE"},{"cidade":"Jataúba"},{"ano_ubs_det":"2016"},{"mes_ubs_det":"5"}],"geometry":{"type":"Point","coordinates":[-36.66710615158,-8.1351721286771]}},{"type":"Feature","properties":[{"gid":"6922"},{"co_cnes":"2432366"},{"lat":"-7.74925442533698"},{"long":"-34.9342033267021"},{"no_fantasia":"USF BOTAFOGO"},{"no_logradouro":"RUA O"},{"nu_endereco":"30"},{"no_bairro":"BOTAFOGO"},{"nu_telefone":""},{"co_cep":"53700000"},{"uf":"PE"},{"cidade":"Itapissuma"},{"ano_ubs_det":"2016"},{"mes_ubs_det":"5"}],"geometry":{"type":"Point","coordinates":[-34.934203326702,-7.749254425337]}},{"type":"Feature","properties":[{"gid":"6811"},{"co_cnes":"6991394"},{"lat":"-8.23018670082068"},{"long":"-39.3799352645863"},{"no_fantasia":"UNIDADE DE SAUDE DA FAMILIA JULIA FREIRE DE CARVALHO"},{"no_logradouro":"PRACA MINISTRO MARCIO FREIRE"},{"nu_endereco":"S/N"},{"no_bairro":"ADELINA DE SA BARRET"},{"nu_telefone":""},{"co_cep":"56190000"},{"uf":"PE"},{"cidade":"Terra Nova"},{"ano_ubs_det":"2016"},{"mes_ubs_det":"5"}],"geometry":{"type":"Point","coordinates":[-39.379935264586,-8.2301867008207]}},{"type":"Feature","properties":[{"gid":"6907"},{"co_cnes":"6344372"},{"lat":"-8.3522868"},{"long":"-36.6992064"},{"no_fantasia":"UNIDADE DE SAUDE DA FAMILA XUCURUS"},{"no_logradouro":"RUA PRAXEDES DIDIER"},{"nu_endereco":"23"},{"no_bairro":"XUCURUS"},{"nu_telefone":""},{"co_cep":"55200000"},{"uf":"PE"},{"cidade":"Pesqueira"},{"ano_ubs_det":"2016"},{"mes_ubs_det":"5"}],"geometry":{"type":"Point","coordinates":[-36.6992064,-8.3522868]}},{"type":"Feature","properties":[{"gid":"6975"},{"co_cnes":"2633930"},{"lat":"-8.53876220824973"},{"long":"-37.6900466896833"},{"no_fantasia":"POSTO DE SAUDE DAS LAJES U S F"},{"no_logradouro":"AVN INES ROLIM"},{"nu_endereco":"S/N"},{"no_bairro":"LAJES"},{"nu_telefone":""},{"co_cep":"56580000"},{"uf":"PE"},{"cidade":"Ibimirim"},