[{"type":"Feature","properties":[{"gid":"53"},{"co_cnes":"2700107"},{"lat":"-32.9381811618795"},{"long":"-52.7666902542099"},{"no_fantasia":"ESF CURRAL ALTO SANTA VITORIA DO PALMAR"},{"no_logradouro":"BR 471"},{"nu_endereco":"01"},{"no_bairro":"CURRAL ALTO"},{"nu_telefone":"(53)2631400"},{"co_cep":"96230000"},{"uf":"RS"},{"cidade":"Santa Vitória do Palmar"},{"ano_ubs_det":"2016"},{"mes_ubs_det":"5"}],"geometry":{"type":"Point","coordinates":[-52.76669025421,-32.938181161879]}},{"type":"Feature","properties":[{"gid":"351"},{"co_cnes":"3260216"},{"lat":"-29.74761"},{"long":"-52.44273"},{"no_fantasia":"PSF FAXINAL"},{"no_logradouro":"RUA DONA CARLOTA"},{"nu_endereco":"548"},{"no_bairro":"FAXINAL"},{"nu_telefone":"(51)37134507"},{"co_cep":"96840536"},{"uf":"RS"},{"cidade":"Santa Cruz do Sul"},{"ano_ubs_det":"2016"},{"mes_ubs_det":"5"}],"geometry":{"type":"Point","coordinates":[-52.44273,-29.74761]}},{"type":"Feature","properties":[{"gid":"44"},{"co_cnes":"2245418"},{"lat":"-28.6249501911654"},{"long":"-52.8714671740768"},{"no_fantasia":"UNIDADE DE ESF ZONA RURAL SUL TAPERA"},{"no_logradouro":"RUA MAUA"},{"nu_endereco":"1732"},{"no_bairro":"PROGRESSO"},{"nu_telefone":"5433851793"},{"co_cep":"99490000"},{"uf":"RS"},{"cidade":"Tapera"},{"ano_ubs_det":"2016"},{"mes_ubs_det":"5"}],"geometry":{"type":"Point","coordinates":[-52.871467174077,-28.624950191165]}},{"type":"Feature","properties":[{"gid":"34"},{"co_cnes":"3876721"},{"lat":"-27.9056898469343"},{"long":"-55.139560262016"},{"no_fantasia":"PSF 1 PORTO XAVIER"},{"no_logradouro":"RUA OSWALDO CRUZ"},{"nu_endereco":"555"},{"no_bairro":"CENTRO"},{"nu_telefone":"5533542345"},{"co_cep":"98995000"},{"uf":"RS"},{"cidade":"Porto Xavier"},{"ano_ubs_det":"2016"},{"mes_ubs_det":"5"}],"geometry":{"type":"Point","coordinates":[-55.139560262016,-27.905689846934]}},{"type":"Feature","properties":[{"gid":"555"},{"co_cnes":"2238217"},{"lat":"-28.6631476879112"},{"long":"-51.75199985504"},{"no_fantasia":"CENTRO MUNICIPAL DE SAUDE JAIME HENRY ZUCCHETTI"},{"no_logradouro":"RUA ERNESTO BORDIGNON"},{"nu_endereco":"36"},{"no_bairro":"LOT NSRA DE FATIMA"},{"nu_telefone":"(54)32751200"},{"co_cep":"95350000"},{"uf":"RS"},{"cidade":"Nova Araçá"},{"ano_ubs_det":"2016"},{"mes_ubs_det":"5"}],"geometry":{"type":"Point","coordinates":[-51.75199985504,-28.663147687911]}},{"type":"Feature","properties":[{"gid":"435"},{"co_cnes":"2261324"},{"lat":"-31.2880003452292"},{"long":"-54.1286516189559"},{"no_fantasia":"UBS ESF SAO MARTIN"},{"no_logradouro":"RUA ANA RECK"},{"nu_endereco":"265"},{"no_bairro":"SAO MARTIN"},{"nu_telefone":"(53)32471385"},{"co_cep":"96410350"},{"uf":"RS"},{"cidade":"Bagé"},{"ano_ubs_det":"2016"},{"mes_ubs_det":"5"}],"geometry":{"type":"Point","coordinates":[-54.128651618956,-31.288000345229]}},{"type":"Feature","properties":[{"gid":"654"},{"co_cnes":"2261723"},{"lat":"-31.0280942916861"},{"long":"-54.1847205162033"},{"no_fantasia":"POSTO DE SAUDE TORQUATO SEVERO"},{"no_logradouro":"SUBPREFEITURA DE TORQUATO SEVERO"},{"nu_endereco":"S/N"},{"no_bairro":"SUB DISTRITO T SEV"},{"nu_telefone":""},{"co_cep":"96450000"},{"uf":"RS"},{"cidade":"Dom Pedrito"},{"ano_ubs_det":"2016"},{"mes_ubs_det":"5"}],"geometry":{"type":"Point","coordinates":[-54.184720516203,-31.028094291686]}},{"type":"Feature","properties":[{"gid":"1114"},{"co_cnes":"2261251"},{"lat":"-31.3121616840353"},{"long":"-54.1291022300705"},{"no_fantasia":"UBS ESF ARVOREZINHA"},{"no_logradouro":"VEREADOR POMPILIO NUNES"},{"nu_endereco":"275"},{"no_bairro":"ARVOREZINHA"},{"nu_telefone":"(53)32411588"},{"co_cep":"96405370"},{"uf":"RS"},{"cidade":"Bagé"},{"ano_ubs_det":"2016"},{"mes_ubs_det":"5"}],"geometry":{"type":"Point","coordinates":[-54.129102230071,-31.312161684035]}},{"type":"Feature","properties":[{"gid":"1209"},{"co_cnes":"2707802"},{"lat":"-32.5531446933737"},{"long":"-53.3900141715988"},{"no_fantasia":"C S DR RUDY WALTER KUSSLER JAGUARAO"},{"no_logradouro":"RUA MIGUEL DELELLIS"},{"nu_endereco":"S/N"},{"no_bairro":"VILA KENNEDY"},{"nu_telefone":""},{"co_cep":"96300000"},{"uf":"RS"},{"cidade":"Jaguarão"},{"ano_ubs_det":"2016"},{"mes_ubs_det":"5"}],"geometry":{"type":"Point","coordinates":[-53.390014171599,-32.553144693374]}},{"type":"Feature","properties":[{"gid":"1412"},{"co_cnes":"2257475"},{"lat":"-29.9452042660446"},{"long":"-51.7153128356961"},{"no_fantasia":"UNIDADE DE SAUDE PORTO BATISTA"},{"no_logradouro":"AV BENTO GONCALVES"},{"nu_endereco":"1320"},{"no_bairro":"PORTO BATISTA"},{"nu_telefone":"(51)36549293"},{"co_cep":"95840000"},{"uf":"RS"},{"cidade":"Triunfo"},{"ano_ubs_det":"2016"},{"mes_ubs_det":"5"}],"geometry":{"type":"Point","coordinates":[-51.715312835696,-29.945204266045]}},{"type":"Feature","properties":[{"gid":"1201"},{"co_cnes":"2241811"},{"lat":"-29.0486240386954"},{"long":"-55.151302814482"},{"no_fantasia":"UNIDADE SANITARIA DE UNISTALDA ESF"},{"no_logradouro":"RUA DESIDERIO FINAMOR"},{"nu_endereco":"205"},{"no_bairro":"CENTRO"},{"nu_telefone":"5536115103"},{"co_cep":"97755000"},{"uf":"RS"},{"cidade":"Unistalda"},{"ano_ubs_det":"2016"},{"mes_ubs_det":"5"}],"geometry":{"type":"Point","coordinates":[-55.151302814482,-29.048624038695]}},{"type":"Feature","properties":[{"gid":"1301"},{"co_cnes":"3717860"},{"lat":"-27.633405810801"},{"long":"-52.2758768978871"},{"no_fantasia":"UBS ALDO ARIOLI"},{"no_logradouro":"RUA CARLOS KIWKTO"},{"nu_endereco":"121"},{"no_bairro":"ALDO ARIOLI"},{"nu_telefone":"54-3522-3940"},{"co_cep":"99711146"},{"uf":"RS"},{"cidade":"Erechim"},{"ano_ubs_det":"2016"},{"mes_ubs_det":"5"}],"geometry":{"type":"Point","coordinates":[-52.275876897887,-27.633405810801]}},{"type":"Feature","properties":[{"gid":"1878"},{"co_cnes":"2263149"},{"lat":"-28.6443078517906"},{"long":"-53.0133676528915"},{"no_fantasia":"POSTO DE SAUDE DE ARROIO GRANDE"},{"no_logradouro":"ZONA RURAL"},{"nu_endereco":"S/N"},{"no_bairro":"RURAL"},{"nu_telefone":""},{"co_cep":"99450000"},{"uf":"RS"},{"cidade":"Selbach"},{"ano_ubs_det":"2016"},{"mes_ubs_det":"5"}],"geometry":{"type":"Point","coordinates":[-53.013367652892,-28.644307851791]}},{"type":"Feature","properties":[{"gid":"1969"},{"co_cnes":"5275148"},{"lat":"-29.6712854159647"},{"long":"-52.7896684388192"},{"no_fantasia":"UNIDADE BASICA DE SAUDE DO RINCAO PSF3"},{"no_logradouro":"RUA AMANDIO SILVA"},{"nu_endereco":"1199"},{"no_bairro":"RINCAO COMPRIDO"},{"nu_telefone":"51 37438152"},{"co_cep":"96930000"},{"uf":"RS"},{"cidade":"Candelária"},{"ano_ubs_det":"2016"},{"mes_ubs_det":"5"}],"geometry":{"type":"Point","coordinates":[-52.789668438819,-29.671285415965]}},{"type":"Feature","properties":[{"gid":"1902"},{"co_cnes":"2254999"},{"lat":"-29.7033405303946"},{"long":"-52.4407482147202"},{"no_fantasia":"PS AVENIDA"},{"no_logradouro":"RUA SAO JOSE"},{"nu_endereco":"32"},{"no_bairro":"AVENIDA"},{"nu_telefone":"(51)37171796"},{"co_cep":"96815040"},{"uf":"RS"},{"cidade":"Santa Cruz do Sul"},{"ano_ubs_det":"2016"},{"mes_ubs_det":"5"}],"geometry":{"type":"Point","coordinates":[-52.44074821472,-29.703340530395]}},{"type":"Feature","properties":[{"gid":"1865"},{"co_cnes":"2233665"},{"lat":"-29.4207443610836"},{"long":"-53.1332000129437"},{"no_fantasia":"UNIDADE SANITARIA DE IBARAMA"},{"no_logradouro":"RUA JOAO SEBEN"},{"nu_endereco":"S/N"},{"no_bairro":"CENTRO"},{"nu_telefone":"(51)37441015"},{"co_cep":"96925000"},{"uf":"RS"},{"cidade":"Ibarama"},{"ano_ubs_det":"2016"},{"mes_ubs_det":"5"}],"geometry":{"type":"Point","coordinates":[-53.133200012944,-29.420744361084]}},{"type":"Feature","properties":[{"gid":"1814"},{"co_cnes":"2255081"},{"lat":"-29.7441637516013"},{"long":"-52.4119305610642"},{"no_fantasia":"PS JACOB SCHMITT"},{"no_logradouro":"RUA BARAO DO ARROIO GRANDE"},{"nu_endereco":"946"},{"no_bairro":"ARROIO GRANDE"},{"nu_telefone":"(51)37194451"},{"co_cep":"96830504"},{"uf":"RS"},{"cidade":"Santa Cruz do Sul"},{"ano_ubs_det":"2016"},{"mes_ubs_det":"5"}],"geometry":{"type":"Point","coordinates":[-52.411930561064,-29.744163751601]}},{"type":"Feature","properties":[{"gid":"2109"},{"co_cnes":"2258919"},{"lat":"-28.2910748191667"},{"long":"-54.6378867042087"},{"no_fantasia":"PSF 1 CAIBATE"},{"no_logradouro":"AV SANTA LUCIA"},{"nu_endereco":"1492"},{"no_bairro":"CENTRO"},{"nu_telefone":""},{"co_cep":"97930000"},{"uf":"RS"},{"cidade":"Caibaté"},{"ano_ubs_det":"2016"},{"mes_ubs_det":"5"}],"geometry":{"type":"Point","coordinates":[-54.637886704209,-28.291074819167]}},{"type":"Feature","properties":[{"gid":"2217"},{"co_cnes":"2231026"},{"lat":"-29.8486155356247"},{"long":"-51.2752106890133"},{"no_fantasia":"PMM CEL OLYMPIO NOVA STA RITA"},{"no_logradouro":"AV GETULIO VARGAS"},{"nu_endereco":"1373"},{"no_bairro":"BERTO CIRIO"},{"nu_telefone":"(51)4706212"},{"co_cep":"92480000"},{"uf":"RS"},{"cidade":"Nova Santa Rita"},{"ano_ubs_det":"2016"},{"mes_ubs_det":"5"}],"geometry":{"type":"Point","coordinates":[-51.275210689013,-29.848615535625]}},{"type":"Feature","properties":[{"gid":"2047"},{"co_cnes":"7045999"},{"lat":"-29.2070068350703"},{"long":"-51.359640955925"},{"no_fantasia":"UNIDADE BASICA DE SAUDE BELVEDERE"},{"no_logradouro":"RUA AMELIA BAMPI"},{"nu_endereco":"445"},{"no_bairro":"BELVEDERE"},{"nu_telefone":""},{"co_cep":"95173296"},{"uf":"RS"},{"cidade":"Farroupilha"},{"ano_ubs_det":"2016"},{"mes_ubs_det":"5"}],"geometry":{"type":"Point","coordinates":[-51.359640955925,-29.20700683507]}},{"type":"Feature","properties":[{"gid":"2263"},{"co_cnes":"2250209"},{"lat":"-27.6500599333578"},{"long":"-54.4331286688342"},{"no_fantasia":"POSTO DE SAUDE 01"},{"no_logradouro":"RUA SANTA ROSA"},{"nu_endereco":"450"},{"no_bairro":"CENTRO"},{"nu_telefone":""},{"co_cep":"98930000"},{"uf":"RS"},{"cidade":"Tucunduva"},{"ano_ubs_det":"2016"},{"mes_ubs_det":"5"}],"geometry":{"type":"Point","coordinates":[-54.433128668834,-27.650059933358]}},{"type":"Feature","properties":[{"gid":"2132"},{"co_cnes":"2263106"},{"lat":"-28.5163879394523"},{"long":"-53.2574701309189"},{"no_fantasia":"POSTO DE SAUDE FAZENDA ITAIBA"},{"no_logradouro":"ZONA RURAL"},{"nu_endereco":"S/N"},{"no_bairro":"RURAL"},{"nu_telefone":""},{"co_cep":"98240000"},{"uf":"RS"},{"cidade":"Santa Bárbara do Sul"},{"ano_ubs_det":"2016"},{"mes_ubs_det":"5"}],"geometry":{"type":"Point","coordinates":[-53.257470130919,-28.516387939452]}},{"type":"Feature","properties":[{"gid":"2148"},{"co_cnes":"7312466"},{"lat":"-28.5877013001362"},{"long":"-52.2062829136848"},{"no_fantasia":"UNIDADE BASICA DE SAUDE ANA RIZZO BONATO CAMARGO"},{"no_logradouro":"RUA JOSE MIRI"},{"nu_endereco":"341"},{"no_bairro":"CENTRO"},{"nu_telefone":"54 3357-1347"},{"co_cep":"99165000"},{"uf":"RS"},{"cidade":"Camargo"},{"ano_ubs_det":"2016"},{"mes_ubs_det":"5"}],"geometry":{"type":"Point","coordinates":[-52.206282913685,-28.587701300136]}},{"type":"Feature","properties":[{"gid":"2131"},{"co_cnes":"4067215"},{"lat":"-28.6628375266947"},{"long":"-56.0010291536185"},{"no_fantasia":"PREF MUN S BORJA SMSUSF 04"},{"no_logradouro":"RUA SARANDI"},{"nu_endereco":"320"},{"no_bairro":"ITACHERE"},{"nu_telefone":""},{"co_cep":"97670000"},{"uf":"RS"},{"cidade":"São Borja"},{"ano_ubs_det":"2016"},{"mes_ubs_det":"5"}],"geometry":{"type":"Point","coordinates":[-56.001029153618,-28.662837526695]}},{"type":"Feature","properties":[{"gid":"2082"},{"co_cnes":"2246724"},{"lat":"-28.2088702462123"},{"long":"-51.5272285291447"},{"no_fantasia":"ESF GAUCHA LAGOA VERMELHA"},{"no_logradouro":"ROMEU LACERDA"},{"nu_endereco":"145"},{"no_bairro":"GAUCHA"},{"nu_telefone":"(54)3581540"},{"co_cep":"95300000"},{"uf":"RS"},{"cidade":"Lagoa Vermelha"},{"ano_ubs_det":"2016"},{"mes_ubs_det":"5"}],"geometry":{"type":"Point","coordinates":[-51.527228529145,-28.208870246212]}},{"type":"Feature","properties":[{"gid":"2021"},{"co_cnes":"5358043"},{"lat":"-29.617530756194"},{"long":"-54.1799912875495"},{"no_fantasia":"ESTRATEGIA SAUDE DA FAMILIA DR DANILO RABENSCHLAG"},{"no_logradouro":"RUA 25 DE JULHO"},{"nu_endereco":"S/N"},{"no_bairro":"NOVA ALEMANHA"},{"nu_telefone":"(55) 3276.6139"},{"co_cep":"97400000"},{"uf":"RS"},{"cidade":"São Pedro do Sul"},{"ano_ubs_det":"2016"},{"mes_ubs_det":"5"}],"geometry":{"type":"Point","coordinates":[-54.179991287549,-29.617530756194]}},{"type":"Feature","properties":[{"gid":"2338"},{"co_cnes":"6903975"},{"lat":"-28.2940220832817"},{"long":"-54.2350172996505"},{"no_fantasia":"PSF 6 BAIRRO NOVA"},{"no_logradouro":"TRAVESSA PERU"},{"nu_endereco":"721"},{"no_bairro":"NOVA"},{"nu_telefone":""},{"co_cep":"98807297"},{"uf":"RS"},{"cidade":"Santo Ângelo"},{"ano_ubs_det":"2016"},{"mes_ubs_det":"5"}],"geometry":{"type":"Point","coordinates":[-54.235017299651,-28.294022083282]}},{"type":"Feature","properties":[{"gid":"2430"},{"co_cnes":"6801889"},{"lat":"-31.395"},{"long":"-52.676"},{"no_fantasia":"POSTO DE SAUDE COLONIA PALMA"},{"no_logradouro":"COLONIA PALMA"},{"nu_endereco":"S/N"},{"no_bairro":"5 DISTRITO"},{"nu_telefone":""},{"co_cep":"96600000"},{"uf":"RS"},{"cidade":"Canguçu"},{"ano_ubs_det":"2016"},{"mes_ubs_det":"5"}],"geometry":{"type":"Point","coordinates":[-52.676,-31.395]}},{"type":"Feature","properties":[{"gid":"2650"},{"co_cnes":"2262169"},{"lat":"-28.3152973651878"},{"long":"-52.7942204475387"},{"no_fantasia":"ESF CANTARES"},{"no_logradouro":"RUA ARNILDO TAUCHERT"},{"nu_endereco":"11"},{"no_bairro":"CANTARES"},{"nu_telefone":"(54) 3331-1051"},{"co_cep":"99500000"},{"uf":"RS"},{"cidade":"Carazinho"},{"ano_ubs_det":"2016"},{"mes_ubs_det":"5"}],"geometry":{"type":"Point","coordinates":[-52.794220447539,-28.315297365188]}},{"type":"Feature","properties":[{"gid":"2490"},{"co_cnes":"2246619"},{"lat":"-28.2088243961326"},{"long":"-51.5294837951645"},{"no_fantasia":"SECRETARIA MUNICIPAL DE SAUDE"},{"no_logradouro":"AV AFONSO PENA"},{"nu_endereco":"409"},{"no_bairro":"CENTRO"},{"nu_telefone":"(54)3581125"},{"co_cep":"95300000"},{"uf":"RS"},{"cidade":"Lagoa Vermelha"},{"ano_ubs_det":"2016"},{"mes_ubs_det":"5"}],"geometry":{"type":"Point","coordinates":[-51.529483795165,-28.208824396133]}},{"type":"Feature","properties":[{"gid":"2576"},{"co_cnes":"7122454"},{"lat":"-28.2369046508231"},{"long":"-53.760792016983"},{"no_fantasia":"UNIDADE DE SAUDE 03"},{"no_logradouro":"RUA COMBATENTES DA RAMADA"},{"nu_endereco":"S/N"},{"no_bairro":"JOAO CARLINI"},{"nu_telefone":"55 33871240"},{"co_cep":"98750000"},{"uf":"RS"},{"cidade":"Ajuricaba"},{"ano_ubs_det":"2016"},{"mes_ubs_det":"5"}],"geometry":{"type":"Point","coordinates":[-53.760792016983,-28.236904650823]}},{"type":"Feature","properties":[{"gid":"2638"},{"co_cnes":"7112688"},{"lat":"-29.4813355955292"},{"long":"-52.5089192390442"},{"no_fantasia":"UNIDADE BASICA DE SAUDE DE RIO PEQUENO"},{"no_logradouro":"RIO PEQUENO"},{"nu_endereco":"S/N"},{"no_bairro":"INTERIOR"},{"nu_telefone":""},{"co_cep":"96890000"},{"uf":"RS"},{"cidade":"Sinimbu"},{"ano_ubs_det":"2016"},{"mes_ubs_det":"5"}],"geometry":{"type":"Point","coordinates":[-52.508919239044,-29.481335595529]}},{"type":"Feature","properties":[{"gid":"2666"},{"co_cnes":"2254735"},{"lat":"-28.2927305369249"},{"long":"-53.5002651674452"},{"no_fantasia":"ESTRATEGIA SAUDE DA FAMILIA PIRATINI"},{"no_logradouro":"RUA COSTA E SILVA"},{"nu_endereco":"1250"},{"no_bairro":"PIRATINI"},{"nu_telefone":"5533769140 RAMAL 489"},{"co_cep":"98280000"},{"uf":"RS"},{"cidade":"Panambi"},{"ano_ubs_det":"2016"},{"mes_ubs_det":"5"}],"geometry":{"type":"Point","coordinates":[-53.500265167445,-28.292730536925]}},{"type":"Feature","properties":[{"gid":"2739"},{"co_cnes":"2229463"},{"lat":"-29.641081094741"},{"long":"-51.0285544395432"},{"no_fantasia":"ESF OESTESAPIRANGA"},{"no_logradouro":"RUA ALAGOAS"},{"nu_endereco":"50"},{"no_bairro":"OESTE"},{"nu_telefone":"(51)5991093"},{"co_cep":"93804464"},{"uf":"RS"},{"cidade":"Sapiranga"},{"ano_ubs_det":"2016"},{"mes_ubs_det":"5"}],"geometry":{"type":"Point","coordinates":[-51.028554439543,-29.641081094741]}},{"type":"Feature","properties":[{"gid":"2433"},{"co_cnes":"2251884"},{"lat":"-29.3227779865256"},{"long":"-52.2300124168381"},{"no_fantasia":"UNIDADE SANITARIA DE CANUDOS DO VALE"},{"no_logradouro":"RUA JOSE PAULO KOBER"},{"nu_endereco":"1599"},{"no_bairro":"CENTRO"},{"nu_telefone":"(51)36161087"},{"co_cep":"95933000"},{"uf":"RS"},{"cidade":"Canudos do Vale"},{"ano_ubs_det":"2016"},{"mes_ubs_det":"5"}],"geometry":{"type":"Point","coordinates":[-52.230012416838,-29.322777986526]}},{"type":"Feature","properties":[{"gid":"2746"},{"co_cnes":"2238284"},{"lat":"-28.7839447131901"},{"long":"-51.6089956920177"},{"no_fantasia":"ESFSB M1 SAO JOAO BOSCO"},{"no_logradouro":"AVENIDA JOAO PAULO II"},{"nu_endereco":"917"},{"no_bairro":"CITADELLA"},{"nu_telefone":"(54)2421700"},{"co_cep":"95320000"},{"uf":"RS"},{"cidade":"Nova Prata"},{"ano_ubs_det":"2016"},{"mes_ubs_det":"5"}],"geometry":{"type":"Point","coordinates":[-51.608995692018,-28.78394471319]}},{"type":"Feature","properties":[{"gid":"2744"},{"co_cnes":"7497660"},{"lat":"-28.641183911527"},{"long":"-53.5995483398438"},{"no_fantasia":"ESF XIV ACELINO FLORES"},{"no_logradouro":"RUA GERANIO"},{"nu_endereco":"37"},{"no_bairro":"ACELINO FLORES"},{"nu_telefone":""},{"co_cep":"98010575"},{"uf":"RS"},{"cidade":"Cruz Alta"},{"ano_ubs_det":"2016"},{"mes_ubs_det":"5"}],"geometry":{"type":"Point","coordinates":[-53.599548339844,-28.641183911527]}},{"type":"Feature","properties":[{"gid":"2410"},{"co_cnes":"2246104"},{"lat":"-28.263"},{"long":"-52.407"},{"no_fantasia":"ESF PLANALTINA PASSO FUNDO"},{"no_logradouro":"PROFESSORA LUCILE FRAGOSO DE ALBUQUERQUE"},{"nu_endereco":"253"},{"no_bairro":"PLANALTINA"},{"nu_telefone":"3315-7669"},{"co_cep":"99062580"},{"uf":"RS"},{"cidade":"Passo Fundo"},{"ano_ubs_det":"2016"},{"mes_ubs_det":"5"}],"geometry":{"type":"Point","coordinates":[-52.407,-28.263]}},{"type":"Feature","properties":[{"gid":"2759"},{"co_cnes":"2244918"},{"lat":"-28.1174283206279"},{"long":"-52.7788008455504"},{"no_fantasia":"POSTO DE SAUDE DE COQUEIROS DO SUL"},{"no_logradouro":"RUA PEDRO REINHEIMER"},{"nu_endereco":"811"},{"no_bairro":"VILA PLANALTO"},{"nu_telefone":"(54)36152148"},{"co_cep":"99528000"},{"uf":"RS"},{"cidade":"Coqueiros do Sul"},{"ano_ubs_det":"2016"},{"mes_ubs_det":"5"}],"geometry":{"type":"Point","coordinates":[-52.77880084555,-28.117428320628]}},{"type":"Feature","properties":[{"gid":"2403"},{"co_cnes":"2258730"},{"lat":"-28.4135842323295"},{"long":"-54.9424123764022"},{"no_fantasia":"ESF 7 VILA MARIO"},{"no_logradouro":"RUA BORGES DE MEDEIROS"},{"nu_endereco":"S/N"},{"no_bairro":"VILA MARIO"},{"nu_telefone":""},{"co_cep":"97800000"},{"uf":"RS"},{"cidade":"São Luiz Gonzaga"},{"ano_ubs_det":"2016"},{"mes_ubs_det":"5"}],"geometry":{"type":"Point","coordinates":[-54.942412376402,-28.41358423233]}},{"type":"Feature","properties":[{"gid":"2533"},{"co_cnes":"3512843"},{"lat":"-29.5882201194755"},{"long":"-51.4738655090317"},{"no_fantasia":"POSTO DE SAUDE DE SAO JOSE DO MARATA"},{"no_logradouro":"SAO JOSE DO MARATA"},{"nu_endereco":"1"},{"no_bairro":"INTERIOR"},{"nu_telefone":"(51)6148193"},{"co_cep":"95748000"},{"uf":"RS"},{"cidade":"São José do Sul"},{"ano_ubs_det":"2016"},{"mes_ubs_det":"5"}],"geometry":{"type":"Point","coordinates":[-51.473865509032,-29.588220119476]}},{"type":"Feature","properties":[{"gid":"2608"},{"co_cnes":"7384777"},{"lat":"-27.344872220701"},{"long":"-53.3962959051132"},{"no_fantasia":"POSTO DE SAUDE SANTO ANTONIO"},{"no_logradouro":"RUA MONTE BELO"},{"nu_endereco":"34"},{"no_bairro":"SANTO ANTONIO"},{"nu_telefone":"5537442830"},{"co_cep":"98400000"},{"uf":"RS"},{"cidade":"Frederico Westphalen"},{"ano_ubs_det":"2016"},{"mes_ubs_det":"5"}],"geometry":{"type":"Point","coordinates":[-53.396295905113,-27.344872220701]}},{"type":"Feature","properties":[{"gid":"2543"},{"co_cnes":"2227517"},{"lat":"-29.5722204557553"},{"long":"-50.7987107333217"},{"no_fantasia":"UNIDADE DE SAUDE VIADUTO"},{"no_logradouro":"RUA PEDRO KEHL"},{"nu_endereco":"932"},{"no_bairro":"VIADUTO"},{"nu_telefone":"(51)35453138"},{"co_cep":"95650000"},{"uf":"RS"},{"cidade":"Igrejinha"},{"ano_ubs_det":"2016"},{"mes_ubs_det":"5"}],"geometry":{"type":"Point","coordinates":[-50.798710733322,-29.572220455755]}},{"type":"Feature","properties":[{"gid":"2419"},{"co_cnes":"2224844"},{"lat":"-30.7547450065604"},{"long":"-51.9793224334702"},{"no_fantasia":"POSTO DE SAUDE"},{"no_logradouro":"AV 28 DE DEZEMBRO"},{"nu_endereco":"3333"},{"no_bairro":"CENTRO"},{"nu_telefone":"(51) 3611 7101"},{"co_cep":"96193000"},{"uf":"RS"},{"cidade":"Chuvisca"},{"ano_ubs_det":"2016"},{"mes_ubs_det":"5"}],"geometry":{"type":"Point","coordinates":[-51.97932243347,-30.75474500656]}},{"type":"Feature","properties":[{"gid":"2469"},{"co_cnes":"6919391"},{"lat":"-27.3552918434135"},{"long":"-52.7732992172226"},{"no_fantasia":"UNIDADE BASICA DE SAUDE BAIRRO OPERARIO"},{"no_logradouro":"RUA 12 DE OUTUBRO"},{"nu_endereco":"S/N"},{"no_bairro":"OPERARIO"},{"nu_telefone":"5433622016"},{"co_cep":"99600000"},{"uf":"RS"},{"cidade":"Nonoai"},{"ano_ubs_det":"2016"},{"mes_ubs_det":"5"}],"geometry":{"type":"Point","coordinates":[-52.773299217223,-27.355291843414]}},{"type":"Feature","properties":[{"gid":"2778"},{"co_cnes":"7442696"},{"lat":"-29.7107863678566"},{"long":"-49.9929881978035"},{"no_fantasia":"ESF PRAIA DO BARCO"},{"no_logradouro":"PRAIA DO BARCO"},{"nu_endereco":"S/N"},{"no_bairro":"PRAIA DO BARCO"},{"nu_telefone":""},{"co_cep":"95555000"},{"uf":"RS"},{"cidade":"Capão da Canoa"},{"ano_ubs_det":"2016"},{"mes_ubs_det":"5"}],"geometry":{"type":"Point","coordinates":[-49.992988197803,-29.710786367857]}},{"type":"Feature","properties":[{"gid":"2531"},{"co_cnes":"2225433"},{"lat":"-29.6317492776321"},{"long":"-50.8348659023274"},{"no_fantasia":"UNIDADE BASICA DE SAUDE MORRO DA PEDRA"},{"no_logradouro":"ESTRADA INTEGRACAO"},{"nu_endereco":"4970"},{"no_bairro":"MORRO DA PEDRA"},{"nu_telefone":"(51) 35220000"},{"co_cep":"95630000"},{"uf":"RS"},{"cidade":"Parobé"},{"ano_ubs_det":"2016"},{"mes_ubs_det":"5"}],"geometry":{"type":"Point","coordinates":[-50.834865902327,-29.631749277632]}},{"type":"Feature","properties":[{"gid":"2451"},{"co_cnes":"2261014"},{"lat":"-27.6311628724795"},{"long":"-53.9558847238338"},{"no_fantasia":"UNIDADE DO PSF"},{"no_logradouro":"RUA DR JOAO DAHNER"},{"nu_endereco":"475"},{"no_bairro":"CENTRO"},{"nu_telefone":"(55)5261288"},{"co_cep":"98675000"},{"uf":"RS"},{"cidade":"Sede Nova"},{"ano_ubs_det":"2016"},{"mes_ubs_det":"5"}],"geometry":{"type":"Point","coordinates":[-53.955884723834,-27.631162872479]}},{"type":"Feature","properties":[{"gid":"2928"},{"co_cnes":"2225972"},{"lat":"-30.1419782638541"},{"long":"-51.3293695449814"},{"no_fantasia":"UNIDADE BASICA DE SAUDE VILA IOLANDA"},{"no_logradouro":"RUA VALDOMIRO RODRIGUES"},{"nu_endereco":"248"},{"no_bairro":"VILA IOLANDA"},{"nu_telefone":"(51) 34806116"},{"co_cep":"92726120"},{"uf":"RS"},{"cidade":"Guaíba"},{"ano_ubs_det":"2016"},{"mes_ubs_det":"5"}],"geometry":{"type":"Point","coordinates":[-51.329369544981,-30.141978263854]}},{"type":"Feature","properties":[{"gid":"2987"},{"co_cnes":"2228432"},{"lat":"-27.3546645324846"},{"long":"-52.7761885672359"},{"no_fantasia":"UNIDADE BASICA DE SAUDE CENTRAL"},{"no_logradouro":"RUA PINHEIRO MACHADO"},{"nu_endereco":"410"},{"no_bairro":"CENTRO"},{"nu_telefone":"(54)33622105"},{"co_cep":"99600000"},{"uf":"RS"},{"cidade":"Nonoai"},{"ano_ubs_det":"2016"},{"mes_ubs_det":"5"}],"geometry":{"type":"Point","coordinates":[-52.776188567236,-27.354664532485]}},{"type":"Feature","properties":[{"gid":"2869"},{"co_cnes":"2244829"},{"lat":"-28.4504699707023"},{"long":"-52.8215575218185"},{"no_fantasia":"UNIDADE BASICA DE SAUDE SANTO ANTONIO DE NAO ME TOQUE"},{"no_logradouro":"RUA VENANCIO AIRES"},{"nu_endereco":"773"},{"no_bairro":"SANTO ANTONIO"},{"nu_telefone":"(54)33324122"},{"co_cep":"99470000"},{"uf":"RS"},{"cidade":"Não-Me-Toque"},{"ano_ubs_det":"2016"},{"mes_ubs_det":"5"}],"geometry":{"type":"Point","coordinates":[-52.821557521818,-28.450469970702]}},{"type":"Feature","properties":[{"gid":"3015"},{"co_cnes":"2241811"},{"lat":"-29.0486240386954"},{"long":"-55.151302814482"},{"no_fantasia":"UNIDADE SANITARIA DE UNISTALDA ESF"},{"no_logradouro":"RUA DESIDERIO FINAMOR"},{"nu_endereco":"205"},{"no_bairro":"CENTRO"},{"nu_telefone":"5536115103"},{"co_cep":"97755000"},{"uf":"RS"},{"cidade":"Unistalda"},{"ano_ubs_det":"2016"},{"mes_ubs_det":"5"}],"geometry":{"type":"Point","coordinates":[-55.151302814482,-29.048624038695]}},{"type":"Feature","properties":[{"gid":"3016"},{"co_cnes":"2266369"},{"lat":"-30.336470603942"},{"long":"-52.7577853202804"},{"no_fantasia":"UNIDADE SANITARIA 15 CERRO DOS PEIXOTO"},{"no_logradouro":"CERRO DOS PEIXOTO"},{"nu_endereco":"S/N"},{"no_bairro":"INTERIOR"},{"nu_telefone":"(51)37222889"},{"co_cep":"96510899"},{"uf":"RS"},{"cidade":"Cachoeira do Sul"},{"ano_ubs_det":"2016"},{"mes_ubs_det":"5"}],"geometry":{"type":"Point","coordinates":[-52.75778532028,-30.336470603942]}},{"type":"Feature","properties":[{"gid":"2862"},{"co_cnes":"2253240"},{"lat":"-31.6976809501639"},{"long":"-52.1569705009445"},{"no_fantasia":"UBS COLONIA Z 3"},{"no_logradouro":"AVENIDA RAFAEL BRUSQUE"},{"nu_endereco":"147"},{"no_bairro":"COLONIA Z 3"},{"nu_telefone":"(53) 32260418"},{"co_cep":"96130000"},{"uf":"RS"},{"cidade":"Pelotas"},{"ano_ubs_det":"2016"},{"mes_ubs_det":"5"}],"geometry":{"type":"Point","coordinates":[-52.156970500945,-31.697680950164]}},{"type":"Feature","properties":[{"gid":"3166"},{"co_cnes":"2818450"},{"lat":"-32.012518644332"},{"long":"-52.0415067672714"},{"no_fantasia":"CENTRO DE SAUDE SAO JOSE DO NORTE"},{"no_logradouro":"MARECHAL FLORIANO"},{"nu_endereco":"S/N"},{"no_bairro":"CENTRO"},{"nu_telefone":"(53)2382201"},{"co_cep":"96225000"},{"uf":"RS"},{"cidade":"São José do Norte"},{"ano_ubs_det":"2016"},{"mes_ubs_det":"5"}],"geometry":{"type":"Point","coordinates":[-52.041506767271,-32.012518644332]}},{"type":"Feature","properties":[{"gid":"2852"},{"co_cnes":"2260077"},{"lat":"-28.0297443728968"},{"long":"-54.3508400776839"},{"no_fantasia":"PSF 1 SAO JOSE"},{"no_logradouro":"RUA ITAQUI"},{"nu_endereco":"273"},{"no_bairro":"SAO JOSE"},{"nu_telefone":"(55)33613494"},{"co_cep":"98870000"},{"uf":"RS"},{"cidade":"Giruá"},{"ano_ubs_det":"2016"},{"mes_ubs_det":"5"}],"geometry":{"type":"Point","coordinates":[-54.350840077684,-28.029744372897]}},{"type":"Feature","properties":[{"gid":"2825"},{"co_cnes":"2249421"},{"lat":"-27.704100282708"},{"long":"-52.4224356311043"},{"no_fantasia":"POSTO DE SAUDE DE PAULO BENTO"},{"no_logradouro":"AVENIDA IRMAS CONSOLATA"},{"nu_endereco":"189"},{"no_bairro":"CENTRO"},{"nu_telefone":"(54)36130016"},{"co_cep":"99718000"},{"uf":"RS"},{"cidade":"Paulo Bento"},{"ano_ubs_det":"2016"},{"mes_ubs_det":"5"}],"geometry":{"type":"Point","coordinates":[-52.422435631104,-27.704100282708]}},{"type":"Feature","properties":[{"gid":"3200"},{"co_cnes":"5026873"},{"lat":"-29.1286368990609"},{"long":"-56.5571334970303"},{"no_fantasia":"PSF DO BAIRRO JOSE DA LUZ ITAQUI"},{"no_logradouro":"RUA JOSE ANTAO DE FARIAS"},{"nu_endereco":"510"},{"no_bairro":"JOSE DA LUZ"},{"nu_telefone":""},{"co_cep":"97650000"},{"uf":"RS"},{"cidade":"Itaqui"},{"ano_ubs_det":"2016"},{"mes_ubs_det":"5"}],"geometry":{"type":"Point","coordinates":[-56.55713349703,-29.128636899061]}},{"type":"Feature","properties":[{"gid":"2811"},{"co_cnes":"7176341"},{"lat":"-29.7944738469604"},{"long":"-55.7942390441895"},{"no_fantasia":"UNIDADE BASICA BENTO GONCALVES"},{"no_logradouro":"RUA BENTO GONCALVES"},{"nu_endereco":"592"},{"no_bairro":"CIDADE ALTA"},{"nu_telefone":"55 3961 1032"},{"co_cep":"97542130"},{"uf":"RS"},{"cidade":"Alegrete"},{"ano_ubs_det":"2016"},{"mes_ubs_det":"5"}],"geometry":{"type":"Point","coordinates":[-55.794239044189,-29.79447384696]}},{"type":"Feature","properties":[{"gid":"3141"},{"co_cnes":"2266318"},{"lat":"-29.8907518386832"},{"long":"-53.0042266845688"},{"no_fantasia":"UNIDADE SANITARIA VOLANTE NORTE TRES VENDAS"},{"no_logradouro":"TRES VENDAS"},{"nu_endereco":"S/N"},{"no_bairro":"INTERIOR"},{"nu_telefone":"(51)37222889"},{"co_cep":"96508000"},{"uf":"RS"},{"cidade":"Cachoeira do Sul"},{"ano_ubs_det":"2016"},{"mes_ubs_det":"5"}],"geometry":{"type":"Point","coordinates":[-53.004226684569,-29.890751838683]}},{"type":"Feature","properties":[{"gid":"2819"},{"co_cnes":"2234920"},{"lat":"-27.8318159703692"},{"long":"-52.9061601564804"},{"no_fantasia":"POSTO DE SAUDE RONDINHA"},{"no_logradouro":"AV SARANDI"},{"nu_endereco":"73"},{"no_bairro":"CENTRO"},{"nu_telefone":"(54)3651162"},{"co_cep":"99590000"},{"uf":"RS"},{"cidade":"Rondinha"},{"ano_ubs_det":"2016"},{"mes_ubs_det":"5"}],"geometry":{"type":"Point","coordinates":[-52.90616015648,-27.831815970369]}},{"type":"Feature","properties":[{"gid":"3100"},{"co_cnes":"2230119"},{"lat":"-29.9186967064906"},{"long":"-51.1810297806876"},{"no_fantasia":"UBS CERNE CANOAS"},{"no_logradouro":"RUA ENGENHEIRO KINDLER"},{"nu_endereco":"1460"},{"no_bairro":"HARMONIA"},{"nu_telefone":"(51) 32361657"},{"co_cep":"92320670"},{"uf":"RS"},{"cidade":"Canoas"},{"ano_ubs_det":"2016"},{"mes_ubs_det":"5"}],"geometry":{"type":"Point","coordinates":[-51.181029780688,-29.918696706491]}},{"type":"Feature","properties":[{"gid":"3210"},{"co_cnes":"5833604"},{"lat":"-29.3397510051719"},{"long":"-53.0842208862289"},{"no_fantasia":"ESF SAUDE PARA TODOS"},{"no_logradouro":"RUA REINALDO HORACIO SEITENFUS"},{"nu_endereco":"113"},{"no_bairro":"CENTRO"},{"nu_telefone":""},{"co_cep":"96950000"},{"uf":"RS"},{"cidade":"Arroio do Tigre"},{"ano_ubs_det":"2016"},{"mes_ubs_det":"5"}],"geometry":{"type":"Point","coordinates":[-53.084220886229,-29.339751005172]}},{"type":"Feature","properties":[{"gid":"3245"},{"co_cnes":"2233193"},{"lat":"-31.5805926686943"},{"long":"-53.3846199682773"},{"no_fantasia":"ESF ZONA SUL PINHEIRO MACHADO"},{"no_logradouro":"RUA JOAO PEREIRA MADRUGA"},{"nu_endereco":"S/N"},{"no_bairro":"VILA NOVA"},{"nu_telefone":"(53)32483230"},{"co_cep":"96470000"},{"uf":"RS"},{"cidade":"Pinheiro Machado"},{"ano_ubs_det":"2016"},{"mes_ubs_det":"5"}],"geometry":{"type":"Point","coordinates":[-53.384619968277,-31.580592668694]}},{"type":"Feature","properties":[{"gid":"3285"},{"co_cnes":"2700093"},{"lat":"-29.23402"},{"long":"-51.32132"},{"no_fantasia":"UNIDADE BASICA DE SAUDE SAO JOSE"},{"no_logradouro":"RUA PEDRO KOFF"},{"nu_endereco":"300"},{"no_bairro":"SAO JOSE"},{"nu_telefone":"(54) 32611627"},{"co_cep":"95180412"},{"uf":"RS"},{"cidade":"Farroupilha"},{"ano_ubs_det":"2016"},{"mes_ubs_det":"5"}],"geometry":{"type":"Point","coordinates":[-51.32132,-29.23402]}},{"type":"Feature","properties":[{"gid":"3572"},{"co_cnes":"2231735"},{"lat":"-29.5393416585881"},{"long":"-51.0800883478072"},{"no_fantasia":"UNIDADE MUNICIPAL DE SAUDE MORRO REUTER"},{"no_logradouro":"RUA ANITA GARIBALDI"},{"nu_endereco":"274"},{"no_bairro":"CENTRO"},{"nu_telefone":"(51)35691300"},{"co_cep":"93990000"},{"uf":"RS"},{"cidade":"Morro Reuter"},{"ano_ubs_det":"2016"},{"mes_ubs_det":"5"}],"geometry":{"type":"Point","coordinates":[-51.080088347807,-29.539341658588]}},{"type":"Feature","properties":[{"gid":"3342"},{"co_cnes":"2251329"},{"lat":"-29.456298351287"},{"long":"-52.0248341560349"},{"no_fantasia":"ESTRATEGIA DE SAUDE DA FAMILIA SAO BENTO"},{"no_logradouro":"PRIMEIRO DE MAIO"},{"nu_endereco":"6727"},{"no_bairro":"SAO BENTO"},{"nu_telefone":"(51) 3982-1145"},{"co_cep":"95903230"},{"uf":"RS"},{"cidade":"Lajeado"},{"ano_ubs_det":"2016"},{"mes_ubs_det":"5"}],"geometry":{"type":"Point","coordinates":[-52.024834156035,-29.456298351287]}},{"type":"Feature","properties":[{"gid":"3546"},{"co_cnes":"2249251"},{"lat":"-27.8885"},{"long":"-52.2297"},{"no_fantasia":"CENTRO DE SAUDE DE GETULIO VARGAS"},{"no_logradouro":"RUA MAJOR CANDIDO CONY"},{"nu_endereco":"08"},{"no_bairro":"CENTRO"},{"nu_telefone":"(54) 3341-1686"},{"co_cep":"99900000"},{"uf":"RS"},{"cidade":"Getúlio Vargas"},{"ano_ubs_det":"2016"},{"mes_ubs_det":"5"}],"geometry":{"type":"Point","coordinates":[-52.2297,-27.8885]}},{"type":"Feature","properties":[{"gid":"3570"},{"co_cnes":"2261758"},{"lat":"-30.9733960570559"},{"long":"-54.6793305873871"},{"no_fantasia":"UBS BAIRRO SANTA MARIA"},{"no_logradouro":"RUA JOAO MANOEL"},{"nu_endereco":"S/N"},{"no_bairro":"SANTA MARIA"},{"nu_telefone":""},{"co_cep":"96450000"},{"uf":"RS"},{"cidade":"Dom Pedrito"},{"ano_ubs_det":"2016"},{"mes_ubs_det":"5"}],"geometry":{"type":"Point","coordinates":[-54.679330587387,-30.973396057056]}},{"type":"Feature","properties":[{"gid":"3587"},{"co_cnes":"2250861"},{"lat":"-29.3291373440536"},{"long":"-52.0978044284152"},{"no_fantasia":"UNIDADE SANITARIA DR JUCA SEDE"},{"no_logradouro":"RUA FORQUETA"},{"nu_endereco":"744"},{"no_bairro":"CENTRO"},{"nu_telefone":"(51)3705 1290"},{"co_cep":"95923000"},{"uf":"RS"},{"cidade":"Marques de Souza"},{"ano_ubs_det":"2016"},{"mes_ubs_det":"5"}],"geometry":{"type":"Point","coordinates":[-52.097804428415,-29.329137344054]}},{"type":"Feature","properties":[{"gid":"3514"},{"co_cnes":"2230054"},{"lat":"-29.9011909961692"},{"long":"-51.1405849456772"},{"no_fantasia":"UBS CAIC CANOAS"},{"no_logradouro":"AV DEZESSETE DE ABRIL"},{"nu_endereco":"S/N"},{"no_bairro":"GUAJUVIRAS"},{"nu_telefone":"(51) 34686191"},{"co_cep":"92415000"},{"uf":"RS"},{"cidade":"Canoas"},{"ano_ubs_det":"2016"},{"mes_ubs_det":"5"}],"geometry":{"type":"Point","coordinates":[-51.140584945677,-29.901190996169]}},{"type":"Feature","properties":[{"gid":"3262"},{"co_cnes":"3321010"},{"lat":"-30.2707564830771"},{"long":"-53.1011080741867"},{"no_fantasia":"UNIDADE SANITARIA 13 IRAPUA"},{"no_logradouro":"CACHOEIRA DO SUL ZONA RURAL"},{"nu_endereco":"S/N"},{"no_bairro":"INTERIOR"},{"nu_telefone":"(51)37246004"},{"co_cep":"96510899"},{"uf":"RS"},{"cidade":"Cachoeira do Sul"},{"ano_ubs_det":"2016"},{"mes_ubs_det":"5"}],"geometry":{"type":"Point","coordinates":[-53.101108074187,-30.270756483077]}},{"type":"Feature","properties":[{"gid":"3345"},{"co_cnes":"3029255"},{"lat":"-29.7922825813285"},{"long":"-55.7705497741683"},{"no_fantasia":"ESF PROMORAR"},{"no_logradouro":"RUA ALOISIO SANTOS MORAIS"},{"nu_endereco":"S/N"},{"no_bairro":"PROMORAR"},{"nu_telefone":""},{"co_cep":"97546040"},{"uf":"RS"},{"cidade":"Alegrete"},{"ano_ubs_det":"2016"},{"mes_ubs_det":"5"}],"geometry":{"type":"Point","coordinates":[-55.770549774168,-29.792282581329]}},{"type":"Feature","properties":[{"gid":"3694"},{"co_cnes":"3088855"},{"lat":"-30.2520775794974"},{"long":"-54.943270683287"},{"no_fantasia":"PSF 01 ROSARIO DO SUL"},{"no_logradouro":"RUA DOM JOAO VI"},{"nu_endereco":"537"},{"no_bairro":"COHAB"},{"nu_telefone":""},{"co_cep":"97590000"},{"uf":"RS"},{"cidade":"Rosário do Sul"},{"ano_ubs_det":"2016"},{"mes_ubs_det":"5"}],"geometry":{"type":"Point","coordinates":[-54.943270683287,-30.252077579497]}},{"type":"Feature","properties":[{"gid":"3765"},{"co_cnes":"2236613"},{"lat":"-29.1674019331912"},{"long":"-51.5155603063239"},{"no_fantasia":"UNIDADE DE SAUDE VILA NOVA"},{"no_logradouro":"RUA ARLINDO AUGUSTO MENEGOTO"},{"nu_endereco":"664"},{"no_bairro":"VILA NOVA"},{"nu_telefone":"(54) 4510387"},{"co_cep":"95706174"},{"uf":"RS"},{"cidade":"Bento Gonçalves"},{"ano_ubs_det":"2016"},{"mes_ubs_det":"5"}],"geometry":{"type":"Point","coordinates":[-51.515560306324,-29.167401933191]}},{"type":"Feature","properties":[{"gid":"3877"},{"co_cnes":"7600577"},{"lat":"-27.9108601579244"},{"long":"-52.2591229176521"},{"no_fantasia":"UNIDADE BASICA DE SAUDE II"},{"no_logradouro":"GUERINO BELEDELLI"},{"nu_endereco":"200"},{"no_bairro":"CENTRO"},{"nu_telefone":"5433372320"},{"co_cep":"99930000"},{"uf":"RS"},{"cidade":"Estação"},{"ano_ubs_det":"2016"},{"mes_ubs_det":"5"}],"geometry":{"type":"Point","coordinates":[-52.259122917652,-27.910860157924]}},{"type":"Feature","properties":[{"gid":"3893"},{"co_cnes":"7072279"},{"lat":"-29.7033511342716"},{"long":"-51.094264465332"},{"no_fantasia":"UNIDADE SAUDE DA FAMILIA MUNDO NOVO ARMINDO CAPELETTI"},{"no_logradouro":"RUA JOAO NUNES DA SILVA"},{"nu_endereco":"33"},{"no_bairro":"CANUDOS"},{"nu_telefone":"51 31071125"},{"co_cep":"93548020"},{"uf":"RS"},{"cidade":"Novo Hamburgo"},{"ano_ubs_det":"2016"},{"mes_ubs_det":"5"}],"geometry":{"type":"Point","coordinates":[-51.094264465332,-29.703351134272]}},{"type":"Feature","properties":[{"gid":"3637"},{"co_cnes":"3063143"},{"lat":"-30.891"},{"long":"-55.533"},{"no_fantasia":"ESF VILA REAL VI"},{"no_logradouro":"VICENTE ILHA DE VARGAS"},{"nu_endereco":"S/N"},{"no_bairro":"VILA REAL"},{"nu_telefone":""},{"co_cep":"97573616"},{"uf":"RS"},{"cidade":"Sant'Ana do Livramento"},{"ano_ubs_det":"2016"},{"mes_ubs_det":"5"}],"geometry":{"type":"Point","coordinates":[-55.533,-30.891]}},{"type":"Feature","properties":[{"gid":"3873"},{"co_cnes":"6812236"},{"lat":"-27.866749798923"},{"long":"-54.4782240987609"},{"no_fantasia":"UNIDADE BASICA DE SAUDE TIMBAUVA"},{"no_logradouro":"RUA GERSON LUNARDI"},{"nu_endereco":"S/N"},{"no_bairro":"TIMBAUVA"},{"nu_telefone":""},{"co_cep":"98781472"},{"uf":"RS"},{"cidade":"Santa Rosa"},{"ano_ubs_det":"2016"},{"mes_ubs_det":"5"}],"geometry":{"type":"Point","coordinates":[-54.478224098761,-27.866749798923]}},{"type":"Feature","properties":[{"gid":"3986"},{"co_cnes":"2253038"},{"lat":"-31.7507565021506"},{"long":"-52.3237609863266"},{"no_fantasia":"UBS LEOCADIA"},{"no_logradouro":"RUA DAVID CANABARRO"},{"nu_endereco":"890"},{"no_bairro":"AREAL"},{"nu_telefone":"(53) 32822476"},{"co_cep":"96080050"},{"uf":"RS"},{"cidade":"Pelotas"},{"ano_ubs_det":"2016"},{"mes_ubs_det":"5"}],"geometry":{"type":"Point","coordinates":[-52.323760986327,-31.750756502151]}},{"type":"Feature","properties":[{"gid":"3668"},{"co_cnes":"2243512"},{"lat":"-29.7240257263175"},{"long":"-53.8071513175949"},{"no_fantasia":"UNIDADE DE SAUDE ONEYDE DE CARVALHO"},{"no_logradouro":"RUA VICTORIO LORENZI"},{"nu_endereco":"50"},{"no_bairro":"VILA LORENZI"},{"nu_telefone":"(55) 3211.1501"},{"co_cep":"97070750"},{"uf":"RS"},{"cidade":"Santa Maria"},{"ano_ubs_det":"2016"},{"mes_ubs_det":"5"}],"geometry":{"type":"Point","coordinates":[-53.807151317595,-29.724025726317]}},{"type":"Feature","properties":[{"gid":"3615"},{"co_cnes":"2230364"},{"lat":"-29.679"},{"long":"-51.053"},{"no_fantasia":"CENTRO DE SAUDE RIO BRANCO CAMPO BOM"},{"no_logradouro":"RUA TAPAJOS"},{"nu_endereco":"146"},{"no_bairro":"RIO BRANDO"},{"nu_telefone":"(51)35985915"},{"co_cep":"93700000"},{"uf":"RS"},{"cidade":"Campo Bom"},{"ano_ubs_det":"2016"},{"mes_ubs_det":"5"}],"geometry":{"type":"Point","coordinates":[-51.053,-29.679]}},{"type":"Feature","properties":[{"gid":"3799"},{"co_cnes":"3108880"},{"lat":"-28.7294089794151"},{"long":"-54.9052906036361"},{"no_fantasia":"PSF 3 BAIRRO BOMFIM"},{"no_logradouro":"RUA AUGUSTO MEDEIROS"},{"nu_endereco":"340"},{"no_bairro":"CENTRO"},{"nu_telefone":"(55)33561897"},{"co_cep":"97850000"},{"uf":"RS"},{"cidade":"Bossoroca"},{"ano_ubs_det":"2016"},{"mes_ubs_det":"5"}],"geometry":{"type":"Point","coordinates":[-54.905290603636,-28.729408979415]}},{"type":"Feature","properties":[{"gid":"3686"},{"co_cnes":"2244454"},{"lat":"-28.395928906631"},{"long":"-52.6837258444322"},{"no_fantasia":"POSTO DE SAUDE I CENTRO DE SAUDE STO A PLANALTO"},{"no_logradouro":"RUA ADOLFO SCHNEIDER"},{"nu_endereco":"555"},{"no_bairro":"CENTRO"},{"nu_telefone":"(54) 33771823"},{"co_cep":"99525000"},{"uf":"RS"},{"cidade":"Santo Antônio do Planalto"},{"ano_ubs_det":"2016"},{"mes_ubs_det":"5"}],"geometry":{"type":"Point","coordinates":[-52.683725844432,-28.395928906631]}},{"type":"Feature","properties":[{"gid":"3709"},{"co_cnes":"2818655"},{"lat":"-31.9161522388449"},{"long":"-52.1523571014389"},{"no_fantasia":"UBSF TOROTAMA RIO GRANDE"},{"no_logradouro":"RUA DA CORSAN"},{"nu_endereco":"27"},{"no_bairro":"ILHA DA TOROTAMA"},{"nu_telefone":"(53)32377029"},{"co_cep":"96201220"},{"uf":"RS"},{"cidade":"Rio Grande"},{"ano_ubs_det":"2016"},{"mes_ubs_det":"5"}],"geometry":{"type":"Point","coordinates":[-52.152357101439,-31.916152238845]}},{"type":"Feature","properties":[{"gid":"3700"},{"co_cnes":"2236656"},{"lat":"-29.1968643665305"},{"long":"-51.5729141235337"},{"no_fantasia":"UNIDADE DE SAUDE 15 DA GRACIEMA"},{"no_logradouro":"15 DA GRACIEMA"},{"nu_endereco":"S/N"},{"no_bairro":"DT VALE DOS VINHEDOS"},{"nu_telefone":"(54) 4591317"},{"co_cep":"95709899"},{"uf":"RS"},{"cidade":"Bento Gonçalves"},{"ano_ubs_det":"2016"},{"mes_ubs_det":"5"}],"geometry":{"type":"Point","coordinates":[-51.572914123534,-29.196864366531]}},{"type":"Feature","properties":[{"gid":"4313"},{"co_cnes":"6795439"},{"lat":"-29.4639801979056"},{"long":"-51.3625645637497"},{"no_fantasia":"UBS MORRO TICO TICO"},{"no_logradouro":"RUA ALAGOAS"},{"nu_endereco":"89"},{"no_bairro":"MORRO TICO TICO"},{"nu_telefone":"5136341122"},{"co_cep":"95765000"},{"uf":"RS"},{"cidade":"Bom Princípio"},{"ano_ubs_det":"2016"},{"mes_ubs_det":"5"}],"geometry":{"type":"Point","coordinates":[-51.36256456375,-29.463980197906]}},{"type":"Feature","properties":[{"gid":"4149"},{"co_cnes":"2225603"},{"lat":"-29.6583223342887"},{"long":"-50.7622861862168"},{"no_fantasia":"UNIDADE BASICA DE SAUDE REGINA JARDIM DA SILVA"},{"no_logradouro":"RUA FLORES DA CUNHA"},{"nu_endereco":"1665"},{"no_bairro":"MUNDO NOVO"},{"nu_telefone":"(51 )35426410"},{"co_cep":"95607768"},{"uf":"RS"},{"cidade":"Taquara"},{"ano_ubs_det":"2016"},{"mes_ubs_det":"5"}],"geometry":{"type":"Point","coordinates":[-50.762286186217,-29.658322334289]}},{"type":"Feature","properties":[{"gid":"4100"},{"co_cnes":"2228041"},{"lat":"-27.5964701638556"},{"long":"-53.0748607372178"},{"no_fantasia":"POSTO SAUDE LIBERATO SALZANO"},{"no_logradouro":"RUA ARCELINO FRANCISCO ZOTTIS"},{"nu_endereco":"170"},{"no_bairro":"CENTRO"},{"nu_telefone":"(55)37551307"},{"co_cep":"99690000"},{"uf":"RS"},{"cidade":"Liberato Salzano"},{"ano_ubs_det":"2016"},{"mes_ubs_det":"5"}],"geometry":{"type":"Point","coordinates":[-53.074860737218,-27.596470163856]}},{"type":"Feature","properties":[{"gid":"4341"},{"co_cnes":"7491840"},{"lat":"-29.4667180299245"},{"long":"-51.9647312164307"},{"no_fantasia":"UNIDADE CENTRAL DE PROMOCAO DA SAUDE"},{"no_logradouro":"RUA JULIO MAY"},{"nu_endereco":"383"},{"no_bairro":"CENTRO"},{"nu_telefone":"(51)3982-1127"},{"co_cep":"95900178"},{"uf":"RS"},{"cidade":"Lajeado"},{"ano_ubs_det":"2016"},{"mes_ubs_det":"5"}],"geometry":{"type":"Point","coordinates":[-51.964731216431,-29.466718029925]}},{"type":"Feature","properties":[{"gid":"4256"},{"co_cnes":"2263173"},{"lat":"-28.5643458366386"},{"long":"-53.1362342834457"},{"no_fantasia":"POSTO DE SAUDE DE ALFREDO BRENNER"},{"no_logradouro":"TRAVESSA LEOPOLDO BECKER"},{"nu_endereco":"S/N"},{"no_bairro":"INTERIOR"},{"nu_telefone":"( )"},{"co_cep":"98200000"},{"uf":"RS"},{"cidade":"Ibirubá"},{"ano_ubs_det":"2016"},{"mes_ubs_det":"5"}],"geometry":{"type":"Point","coordinates":[-53.136234283446,-28.564345836639]}},{"type":"Feature","properties":[{"gid":"4178"},{"co_cnes":"2260158"},{"lat":"-28.3885365409849"},{"long":"-53.918066835708"},{"no_fantasia":"ESTRATEGIA SAUDE DA FAMILIA PINDORAMA ESF 5"},{"no_logradouro":"TRAVESSA TAPES"},{"nu_endereco":"S/N"},{"no_bairro":"PINDORAMA"},{"nu_telefone":"( )"},{"co_cep":"98700000"},{"uf":"RS"},{"cidade":"Ijuí"},{"ano_ubs_det":"2016"},{"mes_ubs_det":"5"}],"geometry":{"type":"Point","coordinates":[-53.918066835708,-28.388536540985]}},{"type":"Feature","properties":[{"gid":"4354"},{"co_cnes":"5042720"},{"lat":"-27.4561598838426"},{"long":"-53.9296989580111"},{"no_fantasia":"POSTO ESF CENTRO TRES PASSOS"},{"no_logradouro":"RUA ROQUE GONZALES"},{"nu_endereco":"200"},{"no_bairro":"CENTRO"},{"nu_telefone":"55 3522 0438"},{"co_cep":"98600000"},{"uf":"RS"},{"cidade":"Três Passos"},{"ano_ubs_det":"2016"},{"mes_ubs_det":"5"}],"geometry":{"type":"Point","coordinates":[-53.929698958011,-27.456159883843]}},{"type":"Feature","properties":[{"gid":"4226"},{"co_cnes":"3882578"},{"lat":"-29.8075497150412"},{"long":"-55.751216411589"},{"no_fantasia":"ESF DR ROMARIO ARAUJO"},{"no_logradouro":"PRACA VEREADOR GASPAR MARTINS"},{"nu_endereco":"S/N"},{"no_bairro":"DR ROMARIO DE ARAUJO"},{"nu_telefone":"39611069"},{"co_cep":"97547617"},{"uf":"RS"},{"cidade":"Alegrete"},{"ano_ubs_det":"2016"},{"mes_ubs_det":"5"}],"geometry":{"type":"Point","coordinates":[-55.751216411589,-29.807549715041]}},{"type":"Feature","properties":[{"gid":"4162"},{"co_cnes":"4067185"},{"lat":"-28.6628375266947"},{"long":"-56.0010291536185"},{"no_fantasia":"PREF MUN S BORJA SMSUSF 01"},{"no_logradouro":"LINDOLVINO FONTON"},{"nu_endereco":"3610"},{"no_bairro":"ERNESTO DORNELLES"},{"nu_telefone":""},{"co_cep":"97670000"},{"uf":"RS"},{"cidade":"São Borja"},{"ano_ubs_det":"2016"},{"mes_ubs_det":"5"}],"geometry":{"type":"Point","coordinates":[-56.001029153618,-28.662837526695]}},{"type":"Feature","properties":[{"gid":"4271"},{"co_cnes":"6430341"},{"lat":"-28.6424466084891"},{"long":"-53.6052407621196"},{"no_fantasia":"ESF IX BAIRRO JARDIM PRIMAVERA ARGEMIRO GAMA DA SILVA"},{"no_logradouro":"RUA ALBERTO PLENTZ"},{"nu_endereco":"482"},{"no_bairro":"JARDIM PRIMAVERA II"},{"nu_telefone":"055-3322-0200"},{"co_cep":"98010100"},{"uf":"RS"},{"cidade":"Cruz Alta"},{"ano_ubs_det":"2016"},{"mes_ubs_det":"5"}],"geometry":{"type":"Point","coordinates":[-53.60524076212,-28.642446608489]}},{"type":"Feature","properties":[{"gid":"4081"},{"co_cnes":"2233843"},{"lat":"-30.5416849521301"},{"long":"-52.5218045711517"},{"no_fantasia":"EACS ENCRUZILHADA DO SUL"},{"no_logradouro":"PRACA DR OZI TEIXEIRA"},{"nu_endereco":"46"},{"no_bairro":"CENTRO"},{"nu_telefone":"(51) 3733 3733"},{"co_cep":"96610000"},{"uf":"RS"},{"cidade":"Encruzilhada do Sul"},{"ano_ubs_det":"2016"},{"mes_ubs_det":"5"}],"geometry":{"type":"Point","coordinates":[-52.521804571152,-30.54168495213]}},{"type":"Feature","properties":[{"gid":"4278"},{"co_cnes":"2818752"},{"lat":"-31.39648"},{"long":"-52.67879"},{"no_fantasia":"ESTRATEGIA SAUDE DA FAMILIA VILA TRIANGULO"},{"no_logradouro":"RUA MANOEL POMPILIO DA FONSECA"},{"nu_endereco":"428"},{"no_bairro":"VILA TRIANGULO"},{"nu_telefone":""},{"co_cep":"96600000"},{"uf":"RS"},{"cidade":"Canguçu"},{"ano_ubs_det":"2016"},{"mes_ubs_det":"5"}],"geometry":{"type":"Point","coordinates":[-52.67879,-31.39648]}},{"type":"Feature","properties":[{"gid":"4255"},{"co_cnes":"2700654"},{"lat":"-27.3603129386894"},{"long":"-53.3975243568405"},{"no_fantasia":"PREFEITURA PACS FW"},{"no_logradouro":"RUA 21 DE ABRIL"},{"nu_endereco":"1"},{"no_bairro":"CENTRO"},{"nu_telefone":"(55)37444911"},{"co_cep":"98400000"},{"uf":"RS"},{"cidade":"Frederico Westphalen"},{"ano_ubs_det":"2016"},{"mes_ubs_det":"5"}],"geometry":{"type":"Point","coordinates":[-53.39752435684,-27.360312938689]}},{"type":"Feature","properties":[{"gid":"4482"},{"co_cnes":"7444915"},{"lat":"-27.85051"},{"long":"-53.77311"},{"no_fantasia":"ESF II ZONA SUL"},{"no_logradouro":"AMAZONAS"},{"nu_endereco":"314"},{"no_bairro":"SANTA FE"},{"nu_telefone":""},{"co_cep":"98590000"},{"uf":"RS"},{"cidade":"Santo Augusto"},{"ano_ubs_det":"2016"},{"mes_ubs_det":"5"}],"geometry":{"type":"Point","coordinates":[-53.77311,-27.85051]}},{"type":"Feature","properties":[{"gid":"4572"},{"co_cnes":"2224682"},{"lat":"-30.3909301757804"},{"long":"-51.7370223999008"},{"no_fantasia":"ENF NEUSA BARRAGAN TEIXEIRA"},{"no_logradouro":"RUA LUIZ GONZAGA DALBEM"},{"nu_endereco":"535"},{"no_bairro":"CENTRO"},{"nu_telefone":"(51)36501071"},{"co_cep":"96735000"},{"uf":"RS"},{"cidade":"Barão do Triunfo"},{"ano_ubs_det":"2016"},{"mes_ubs_det":"5"}],"geometry":{"type":"Point","coordinates":[-51.737022399901,-30.39093017578]}},{"type":"Feature","properties":[{"gid":"4592"},{"co_cnes":"2224445"},{"lat":"-29.3098068237296"},{"long":"-49.7767567634568"},{"no_fantasia":"ESF PADRE LUIZ BENINI"},{"no_logradouro":"RUA DIAMANTINO PEREIRA"},{"nu_endereco":"87"},{"no_bairro":"VILA SAO JOAO"},{"nu_telefone":"(51)36052707"},{"co_cep":"95560000"},{"uf":"RS"},{"cidade":"Torres"},{"ano_ubs_det":"2016"},{"mes_ubs_det":"5"}],"geometry":{"type":"Point","coordinates":[-49.776756763457,-29.30980682373]}},{"type":"Feature","properties":[{"gid":"4434"},{"co_cnes":"6776299"},{"lat":"-27.4561598838426"},{"long":"-53.9296989580111"},{"no_fantasia":"POSTO ESF SANTA INES TRES PASSOS"},{"no_logradouro":"RUA CIPRIANO BARATA"},{"nu_endereco":"297"},{"no_bairro":"SANTA INES"},{"nu_telefone":"5535220439"},{"co_cep":"98600000"},{"uf":"RS"},{"cidade":"Três Passos"},{"ano_ubs_det":"2016"},{"mes_ubs_det":"5"}],"geometry":{"type":"Point","coordinates":[-53.929698958011,-27.456159883843]}},{"type":"Feature","properties":[{"gid":"4778"},{"co_cnes":"2266296"},{"lat":"-30.0247442722312"},{"long":"-52.9149198532089"},{"no_fantasia":"UNIDADE SANITARIA 04 CENTRO SOCIAL URBANO"},{"no_logradouro":"RUA LEOPOLDO DE SOUZA"},{"nu_endereco":"1448"},{"no_bairro":"SANTA HELENA"},{"nu_telefone":"51 37246071"},{"co_cep":"96503776"},{"uf":"RS"},{"cidade":"Cachoeira do Sul"},{"ano_ubs_det":"2016"},{"mes_ubs_det":"5"}],"geometry":{"type":"Point","coordinates":[-52.914919853209,-30.024744272231]}},{"type":"Feature","properties":[{"gid":"4672"},{"co_cnes":"2247887"},{"lat":"-29.589"},{"long":"-55.483"},{"no_fantasia":"UNIDADE BASICA DE SAUDE DE MANOEL VIANA"},{"no_logradouro":"WALTER JOBIM"},{"nu_endereco":"197"},{"no_bairro":"CENTRO"},{"nu_telefone":"(55) 32562420"},{"co_cep":"97640000"},{"uf":"RS"},{"cidade":"Manoel Viana"},{"ano_ubs_det":"2016"},{"mes_ubs_det":"5"}],"geometry":{"type":"Point","coordinates":[-55.483,-29.589]}},{"type":"Feature","properties":[{"gid":"4725"},{"co_cnes":"4067320"},{"lat":"-30.3247010707846"},{"long":"-54.312007427214"},{"no_fantasia":"ESF CAIC"},{"no_logradouro":"RUA LAURENTINO BATISTA"},{"nu_endereco":"S/N"},{"no_bairro":"TRES DE OUTUBRO"},{"nu_telefone":"(55)2323010"},{"co_cep":"97314164"},{"uf":"RS"},{"cidade":"São Gabriel"},{"ano_ubs_det":"2016"},{"mes_ubs_det":"5"}],"geometry":{"type":"Point","coordinates":[-54.312007427214,-30.324701070785]}},{"type":"Feature","properties":[{"gid":"4600"},{"co_cnes":"4067266"},{"lat":"-28.6628375266947"},{"long":"-56.0010291536185"},{"no_fantasia":"PREF MUN S BORJA SMSUSF 08"},{"no_logradouro":"RUA AMERICA GOULART TEIXEIRA"},{"nu_endereco":"70"},{"no_bairro":"VILA GOULART"},{"nu_telefone":""},{"co_cep":"97670000"},{"uf":"RS"},{"cidade":"São Borja"},{"ano_ubs_det":"2016"},{"mes_ubs_det":"5"}],"geometry":{"type":"Point","coordinates":[-56.001029153618,-28.662837526695]}},{"type":"Feature","properties":[{"gid":"5162"},{"co_cnes":"2257726"},{"lat":"-29.903143644332"},{"long":"-50.0924849510178"},{"no_fantasia":"US STA TEREZINHA"},{"no_logradouro":"AV PARAGUASSU"},{"nu_endereco":"172"},{"no_bairro":"STA TEREZINHA"},{"nu_telefone":"(51)6241555"},{"co_cep":"95625000"},{"uf":"RS"},{"cidade":"Imbé"},{"ano_ubs_det":"2016"},{"mes_ubs_det":"5"}],"geometry":{"type":"Point","coordinates":[-50.092484951018,-29.903143644332]}},{"type":"Feature","properties":[{"gid":"5013"},{"co_cnes":"3774775"},{"lat":"-28.7839447131901"},{"long":"-51.6089956920177"},{"no_fantasia":"ESFSB M1 SAO CRISTOVAO"},{"no_logradouro":"RUA SANTA LUCIA"},{"nu_endereco":"36"},{"no_bairro":"SAO CRISTOVAO"},{"nu_telefone":"54 32426537"},{"co_cep":"95320000"},{"uf":"RS"},{"cidade":"Nova Prata"},{"ano_ubs_det":"2016"},{"mes_ubs_det":"5"}],"geometry":{"type":"Point","coordinates":[-51.608995692018,-28.78394471319]}},{"type":"Feature","properties":[{"gid":"5073"},{"co_cnes":"6915477"},{"lat":"-27.1836090087883"},{"long":"-53.7130808830246"},{"no_fantasia":"POSTO DE SAUDE BASILIO DA GAMA"},{"no_logradouro":"DISTRITO BASILIO DA GAMA"},{"nu_endereco":"100"},{"no_bairro":"INTERIOR"},{"nu_telefone":""},{"co_cep":"98435000"},{"uf":"RS"},{"cidade":"Pinheirinho do Vale"},{"ano_ubs_det":"2016"},{"mes_ubs_det":"5"}],"geometry":{"type":"Point","coordinates":[-53.713080883025,-27.183609008788]}},{"type":"Feature","properties":[{"gid":"5167"},{"co_cnes":"2250934"},{"lat":"-29.6038949489585"},{"long":"-51.9392395019516"},{"no_fantasia":"UNIDADE SANITARIA DE BOM RETIRO DO SUL"},{"no_logradouro":"DONATILA RIBEIRO ARNT"},{"nu_endereco":"797"},{"no_bairro":"SAO FRANCISCO"},{"nu_telefone":"(51)37661640"},{"co_cep":"95870000"},{"uf":"RS"},{"cidade":"Bom Retiro do Sul"},{"ano_ubs_det":"2016"},{"mes_ubs_det":"5"}],"geometry":{"type":"Point","coordinates":[-51.939239501952,-29.603894948959]}},{"type":"Feature","properties":[{"gid":"4855"},{"co_cnes":"6245285"},{"lat":"-29.7680783271781"},{"long":"-51.1087632179245"},{"no_fantasia":"UNIDADE BASICA DE SAUDE SAO CRISTOVAO"},{"no_logradouro":"RUA CELESTINA MARIA JOSE DE SOUZA"},{"nu_endereco":"37"},{"no_bairro":"SAO CRISTOVAO"},{"nu_telefone":"(51) 35683722"},{"co_cep":"93048010"},{"uf":"RS"},{"cidade":"São Leopoldo"},{"ano_ubs_det":"2016"},{"mes_ubs_det":"5"}],"geometry":{"type":"Point","coordinates":[-51.108763217924,-29.768078327178]}},{"type":"Feature","properties":[{"gid":"5080"},{"co_cnes":"2700328"},{"lat":"-28.9985764275981"},{"long":"-51.6964336774025"},{"no_fantasia":"UNIDADE DE SAUDE DA FAMILIA"},{"no_logradouro":"RUA PADRE EUGENIO MEDIQUESCHI"},{"nu_endereco":"90"},{"no_bairro":"CENTRO"},{"nu_telefone":"(54)4461195"},{"co_cep":"95335000"},{"uf":"RS"},{"cidade":"Cotiporã"},{"ano_ubs_det":"2016"},{"mes_ubs_det":"5"}],"geometry":{"type":"Point","coordinates":[-51.696433677403,-28.998576427598]}},{"type":"Feature","properties":[{"gid":"4937"},{"co_cnes":"2238535"},{"lat":"-28.8094722969114"},{"long":"-51.7862084024789"},{"no_fantasia":"POSTO DE SAUDE DE VISTA ALEGRE DO PRATA"},{"no_logradouro":"RUA GERONIMO SCALCO"},{"nu_endereco":"100"},{"no_bairro":"CENTRO"},{"nu_telefone":"5434781303"},{"co_cep":"95325000"},{"uf":"RS"},{"cidade":"Vista Alegre do Prata"},{"ano_ubs_det":"2016"},{"mes_ubs_det":"5"}],"geometry":{"type":"Point","coordinates":[-51.786208402479,-28.809472296911]}},{"type":"Feature","properties":[{"gid":"4808"},{"co_cnes":"2259370"},{"lat":"-28.4103870391837"},{"long":"-54.9740195274337"},{"no_fantasia":"ESF 3 FLORESTA"},{"no_logradouro":"TRV OSVALDO ARANHA"},{"nu_endereco":"S/N"},{"no_bairro":"FLORESTA"},{"nu_telefone":"(55)33524232"},{"co_cep":"97800000"},{"uf":"RS"},{"cidade":"São Luiz Gonzaga"},{"ano_ubs_det":"2016"},{"mes_ubs_det":"5"}],"geometry":{"type":"Point","coordinates":[-54.974019527434,-28.410387039184]}},{"type":"Feature","properties":[{"gid":"4873"},{"co_cnes":"2260433"},{"lat":"-28.647"},{"long":"-54.122"},{"no_fantasia":"UNIDADE BASICA DE SAUDE SAO JOSE DE JOIA"},{"no_logradouro":"SAO JOSE"},{"nu_endereco":"S/N"},{"no_bairro":"INTERIOR"},{"nu_telefone":"5533181572"},{"co_cep":"98180000"},{"uf":"RS"},{"cidade":"Jóia"},{"ano_ubs_det":"2016"},{"mes_ubs_det":"5"}],"geometry":{"type":"Point","coordinates":[-54.122,-28.647]}},{"type":"Feature","properties":[{"gid":"4833"},{"co_cnes":"2260859"},{"lat":"-28.3885365409849"},{"long":"-53.918066835708"},{"no_fantasia":"ESTRATEGIA SAUDE DA FAMILIA THOME DE SOUZA ESF 6"},{"no_logradouro":"RUA DARI TISSOT"},{"nu_endereco":"264"},{"no_bairro":"THOME DE SOUZA"},{"nu_telefone":"(55)33329796"},{"co_cep":"98700000"},{"uf":"RS"},{"cidade":"Ijuí"},{"ano_ubs_det":"2016"},{"mes_ubs_det":"5"}],"geometry":{"type":"Point","coordinates":[-53.918066835708,-28.388536540985]}},{"type":"Feature","properties":[{"gid":"5298"},{"co_cnes":"2228866"},{"lat":"-29.9882125854483"},{"long":"-51.0684013366684"},{"no_fantasia":"UBS NOVA AMERICANA ALVORADA"},{"no_logradouro":"RUA ITARARE"},{"nu_endereco":"1971"},{"no_bairro":"NOVA AMERICANA"},{"nu_telefone":"(51)4835406"},{"co_cep":"94824320"},{"uf":"RS"},{"cidade":"Alvorada"},{"ano_ubs_det":"2016"},{"mes_ubs_det":"5"}],"geometry":{"type":"Point","coordinates":[-51.068401336668,-29.988212585448]}},{"type":"Feature","properties":[{"gid":"5352"},{"co_cnes":"2700247"},{"lat":"-29.92603"},{"long":"-50.88628"},{"no_fantasia":"USF BARRO VERMELHO GRAVATAI"},{"no_logradouro":"RUA SAGRADA FAMILIA"},{"nu_endereco":"275"},{"no_bairro":"BARRO VERMELHO"},{"nu_telefone":"(51)3431-6545"},{"co_cep":"94198220"},{"uf":"RS"},{"cidade":"Gravataí"},{"ano_ubs_det":"2016"},{"mes_ubs_det":"5"}],"geometry":{"type":"Point","coordinates":[-50.88628,-29.92603]}},{"type":"Feature","properties":[{"gid":"5302"},{"co_cnes":"3698211"},{"lat":"-27.6339089870445"},{"long":"-54.3128657340988"},{"no_fantasia":"POSTO DE SAUDE CENTRO SOCIAL URBANO ESF 03"},{"no_logradouro":"RUA IJUI"},{"nu_endereco":"480"},{"no_bairro":"VILA KENNEDY"},{"nu_telefone":"55-3537-3413"},{"co_cep":"98920000"},{"uf":"RS"},{"cidade":"Horizontina"},{"ano_ubs_det":"2016"},{"mes_ubs_det":"5"}],"geometry":{"type":"Point","coordinates":[-54.312865734099,-27.633908987044]}},{"type":"Feature","properties":[{"gid":"5206"},{"co_cnes":"2241447"},{"lat":"-29.5198667049399"},{"long":"-53.5812234878524"},{"no_fantasia":"UNIDADE PSF SAO JOSE"},{"no_logradouro":"RUA SAO JOSE"},{"nu_endereco":"159"},{"no_bairro":"CENTRO"},{"nu_telefone":"(55) 3267.1119"},{"co_cep":"98160000"},{"uf":"RS"},{"cidade":"Ivorá"},{"ano_ubs_det":"2016"},{"mes_ubs_det":"5"}],"geometry":{"type":"Point","coordinates":[-53.581223487852,-29.51986670494]}},{"type":"Feature","properties":[{"gid":"5233"},{"co_cnes":"2256509"},{"lat":"-28.3019378733473"},{"long":"-54.2641427984269"},{"no_fantasia":"PSF 5 BAIRRO ROGOWSKI SANTO ANGELO"},{"no_logradouro":"TRV COLEGIAL"},{"nu_endereco":"99"},{"no_bairro":"ROGOWSKI"},{"nu_telefone":""},{"co_cep":"98803210"},{"uf":"RS"},{"cidade":"Santo Ângelo"},{"ano_ubs_det":"2016"},{"mes_ubs_det":"5"}],"geometry":{"type":"Point","coordinates":[-54.264142798427,-28.301937873347]}},{"type":"Feature","properties":[{"gid":"5292"},{"co_cnes":"2254042"},{"lat":"-31.7098903655997"},{"long":"-52.3481154441818"},{"no_fantasia":"UBS COHAB LINDOIA"},{"no_logradouro":"RUA ERNANI OSMAR BLAAS"},{"nu_endereco":"344"},{"no_bairro":"COHAB LINDOIA"},{"nu_telefone":"(53) 32831414"},{"co_cep":"96065770"},{"uf":"RS"},{"cidade":"Pelotas"},{"ano_ubs_det":"2016"},{"mes_ubs_det":"5"}],"geometry":{"type":"Point","coordinates":[-52.348115444182,-31.7098903656]}},{"type":"Feature","properties":[{"gid":"5379"},{"co_cnes":"2260425"},{"lat":"-28.645623534628"},{"long":"-54.115964897021"},{"no_fantasia":"UNIDADE BASICA DE SAUDE DE JOIA"},{"no_logradouro":"RUA DR EDMAR KRUEL"},{"nu_endereco":"234"},{"no_bairro":"CENTRO"},{"nu_telefone":"(55)33181062"},{"co_cep":"98180000"},{"uf":"RS"},{"cidade":"Jóia"},{"ano_ubs_det":"2016"},{"mes_ubs_det":"5"}],"geometry":{"type":"Point","coordinates":[-54.115964897021,-28.645623534628]}},{"type":"Feature","properties":[{"gid":"5208"},{"co_cnes":"2235986"},{"lat":"-29.6023929119102"},{"long":"-52.2116875648483"},{"no_fantasia":"UBS SANTA TECLA"},{"no_logradouro":"RUA BENO VENT ESQUINA RUA FERNANDO M SWINGEL"},{"nu_endereco":"S/N"},{"no_bairro":"SANTA TECLA"},{"nu_telefone":"(51)37412100"},{"co_cep":"95800000"},{"uf":"RS"},{"cidade":"Venâncio Aires"},{"ano_ubs_det":"2016"},{"mes_ubs_det":"5"}],"geometry":{"type":"Point","coordinates":[-52.211687564848,-29.60239291191]}},{"type":"Feature","properties":[{"gid":"5346"},{"co_cnes":"2228084"},{"lat":"-27.2097627892596"},{"long":"-53.6195609569296"},{"no_fantasia":"POSTO DE SAUDE PINHEIRINHO DO VALE"},{"no_logradouro":"RUA DO COMERCIO"},{"nu_endereco":"414"},{"no_bairro":"CENTRO"},{"nu_telefone":"(55)37921075"},{"co_cep":"98435000"},{"uf":"RS"},{"cidade":"Pinheirinho do Vale"},{"ano_ubs_det":"2016"},{"mes_ubs_det":"5"}],"geometry":{"type":"Point","coordinates":[-53.61956095693,-27.20976278926]}},{"type":"Feature","properties":[{"gid":"5350"},{"co_cnes":"2235021"},{"lat":"-27.9006208754318"},{"long":"-53.3149539105514"},{"no_fantasia":"ESF I VISTA ALEGRE"},{"no_logradouro":"RUA DARI KURTZ"},{"nu_endereco":"S/N"},{"no_bairro":"VISTA ALEGRE"},{"nu_telefone":""},{"co_cep":"98300000"},{"uf":"RS"},{"cidade":"Palmeira das Missões"},{"ano_ubs_det":"2016"},{"mes_ubs_det":"5"}],"geometry":{"type":"Point","coordinates":[-53.314953910551,-27.900620875432]}},{"type":"Feature","properties":[{"gid":"5230"},{"co_cnes":"2233738"},{"lat":"-30.544"},{"long":"-52.522"},{"no_fantasia":"POSTO DE SAUDE LAVA PES"},{"no_logradouro":"AVENIDA RIO BRANCO"},{"nu_endereco":"312"},{"no_bairro":"CENTRO"},{"nu_telefone":"(51)37331005"},{"co_cep":"96610000"},{"uf":"RS"},{"cidade":"Encruzilhada do Sul"},{"ano_ubs_det":"2016"},{"mes_ubs_det":"5"}],"geometry":{"type":"Point","coordinates":[-52.522,-30.544]}},{"type":"Feature","properties":[{"gid":"5535"},{"co_cnes":"7695764"},{"lat":"-29.9188050500467"},{"long":"-51.0832822322845"},{"no_fantasia":"ESF VEREADOR JOSE RAMOS"},{"no_logradouro":"RUA FIDEL ZANQUETTA"},{"nu_endereco":"655"},{"no_bairro":"GRANJA ESPERANCA"},{"nu_telefone":""},{"co_cep":"94960210"},{"uf":"RS"},{"cidade":"Cachoeirinha"},{"ano_ubs_det":"2016"},{"mes_ubs_det":"5"}],"geometry":{"type":"Point","coordinates":[-51.083282232285,-29.918805050047]}},{"type":"Feature","properties":[{"gid":"5492"},{"co_cnes":"2245639"},{"lat":"-28.569468132747"},{"long":"-52.8578352424045"},{"no_fantasia":"UNIDADE BASICA VANESSA SABRINA SCHNEIDER"},{"no_logradouro":"RUA RUDOLFO BEUTLER"},{"nu_endereco":"420"},{"no_bairro":"CENTRO"},{"nu_telefone":"(54)3921088"},{"co_cep":"99495000"},{"uf":"RS"},{"cidade":"Lagoa dos Três Cantos"},{"ano_ubs_det":"2016"},{"mes_ubs_det":"5"}],"geometry":{"type":"Point","coordinates":[-52.857835242404,-28.569468132747]}},{"type":"Feature","properties":[{"gid":"5394"},{"co_cnes":"2260956"},{"lat":"-28.3885365409849"},{"long":"-53.918066835708"},{"no_fantasia":"ESTRATEGIA SAUDE DA FAMILIA GLORIA ESF 3"},{"no_logradouro":"RUA SEPE TIARAJU"},{"nu_endereco":"S/N"},{"no_bairro":"GLORIA"},{"nu_telefone":"(55)33326599"},{"co_cep":"98700000"},{"uf":"RS"},{"cidade":"Ijuí"},{"ano_ubs_det":"2016"},{"mes_ubs_det":"5"}],"geometry":{"type":"Point","coordinates":[-53.918066835708,-28.388536540985]}},{"type":"Feature","properties":[{"gid":"5594"},{"co_cnes":"7862458"},{"lat":"-29.5852062"},{"long":"-51.0932247"},{"no_fantasia":"ESF PRIMAVERA"},{"no_logradouro":"RUA SAO LEOPOLDO"},{"nu_endereco":"244"},{"no_bairro":"PRIMAVERA"},{"nu_telefone":"51 35641741"},{"co_cep":"93950000"},{"uf":"RS"},{"cidade":"Dois Irmãos"},{"ano_ubs_det":"2016"},{"mes_ubs_det":"5"}],"geometry":{"type":"Point","coordinates":[-51.0932247,-29.5852062]}},{"type":"Feature","properties":[{"gid":"5872"},{"co_cnes":"2234297"},{"lat":"-31.558"},{"long":"-53.673"},{"no_fantasia":"CENTRO DE SAUDE DARIO LASSANCE CANDIOTA"},{"no_logradouro":"ACASSIO DAS NEVES"},{"nu_endereco":"190"},{"no_bairro":"DARIO LASSANCE"},{"nu_telefone":"(53)2457120"},{"co_cep":"96495000"},{"uf":"RS"},{"cidade":"Candiota"},{"ano_ubs_det":"2016"},{"mes_ubs_det":"5"}],"geometry":{"type":"Point","coordinates":[-53.673,-31.558]}},{"type":"Feature","properties":[{"gid":"5856"},{"co_cnes":"2225069"},{"lat":"-29.9763803"},{"long":"-51.630197"},{"no_fantasia":"UNIDADE DE SAUDE DA FAMILIA VICENTE PINTO"},{"no_logradouro":"AV BENTO GONCALVES"},{"nu_endereco":"1967"},{"no_bairro":"PARQUE DOS COQUEIROS"},{"nu_telefone":"(51)39588464"},{"co_cep":"96745000"},{"uf":"RS"},{"cidade":"Charqueadas"},{"ano_ubs_det":"2016"},{"mes_ubs_det":"5"}],"geometry":{"type":"Point","coordinates":[-51.630197,-29.9763803]}},{"type":"Feature","properties":[{"gid":"5656"},{"co_cnes":"3091163"},{"lat":"-28.71707"},{"long":"-51.93347"},{"no_fantasia":"UBS ESF SANTIN"},{"no_logradouro":"VIA MODENA"},{"nu_endereco":"122"},{"no_bairro":"SANTIN"},{"nu_telefone":"34441192"},{"co_cep":"99250000"},{"uf":"RS"},{"cidade":"Serafina Corrêa"},{"ano_ubs_det":"2016"},{"mes_ubs_det":"5"}],"geometry":{"type":"Point","coordinates":[-51.93347,-28.71707]}},{"type":"Feature","properties":[{"gid":"5785"},{"co_cnes":"2262282"},{"lat":"-29.357971850415"},{"long":"-50.8148673493636"},{"no_fantasia":"UNIDADE SANITARIA SAO LUIZ"},{"no_logradouro":"RUA CEZAR PEDRO RAYMUNDO"},{"nu_endereco":"48"},{"no_bairro":"SAO LUIZ"},{"nu_telefone":"(54)32825115"},{"co_cep":"95680000"},{"uf":"RS"},{"cidade":"Canela"},{"ano_ubs_det":"2016"},{"mes_ubs_det":"5"}],"geometry":{"type":"Point","coordinates":[-50.814867349364,-29.357971850415]}},{"type":"Feature","properties":[{"gid":"5753"},{"co_cnes":"2228432"},{"lat":"-27.3546645324846"},{"long":"-52.7761885672359"},{"no_fantasia":"UNIDADE BASICA DE SAUDE CENTRAL"},{"no_logradouro":"RUA PINHEIRO MACHADO"},{"nu_endereco":"410"},{"no_bairro":"CENTRO"},{"nu_telefone":"(54)33622105"},{"co_cep":"99600000"},{"uf":"RS"},{"cidade":"Nonoai"},{"ano_ubs_det":"2016"},{"mes_ubs_det":"5"}],"geometry":{"type":"Point","coordinates":[-52.776188567236,-27.354664532485]}},{"type":"Feature","properties":[{"gid":"5876"},{"co_cnes":"2249782"},{"lat":"-27.649315595626"},{"long":"-54.1269779205307"},{"no_fantasia":"POSTO DE SAUDE IVAGACI BOA VISTA DO BURICA"},{"no_logradouro":"RUA BOM RETIRO"},{"nu_endereco":"S/N"},{"no_bairro":"IVAGACI"},{"nu_telefone":"(55)35381270"},{"co_cep":"98918000"},{"uf":"RS"},{"cidade":"Boa Vista do Buricá"},{"ano_ubs_det":"2016"},{"mes_ubs_det":"5"}],"geometry":{"type":"Point","coordinates":[-54.126977920531,-27.649315595626]}},{"type":"Feature","properties":[{"gid":"5781"},{"co_cnes":"2224852"},{"lat":"-30.0992131233207"},{"long":"-51.661040782927"},{"no_fantasia":"UBS NELSON MARCHEZAN"},{"no_logradouro":"RUA SINDOLFO DA SILVA"},{"nu_endereco":"485"},{"no_bairro":"PARQUE ELDORADO"},{"nu_telefone":"(51) 3481-1411"},{"co_cep":"92990000"},{"uf":"RS"},{"cidade":"Eldorado do Sul"},{"ano_ubs_det":"2016"},{"mes_ubs_det":"5"}],"geometry":{"type":"Point","coordinates":[-51.661040782927,-30.099213123321]}},{"type":"Feature","properties":[{"gid":"5812"},{"co_cnes":"2258021"},{"lat":"-28.5495371215131"},{"long":"-54.5615630937001"},{"no_fantasia":"ESF 3 SAO MIGUEL DAS MISSOES DAS MISSOES"},{"no_logradouro":"RUA GUARANI DAS MISSOES"},{"nu_endereco":"268"},{"no_bairro":"ALEGRIA"},{"nu_telefone":"(55)33811300"},{"co_cep":"98865000"},{"uf":"RS"},{"cidade":"São Miguel das Missões"},{"ano_ubs_det":"2016"},{"mes_ubs_det":"5"}],"geometry":{"type":"Point","coordinates":[-54.5615630937,-28.549537121513]}},{"type":"Feature","properties":[{"gid":"5746"},{"co_cnes":"3698211"},{"lat":"-27.6339089870445"},{"long":"-54.3128657340988"},{"no_fantasia":"POSTO DE SAUDE CENTRO SOCIAL URBANO ESF 03"},{"no_logradouro":"RUA IJUI"},{"nu_endereco":"480"},{"no_bairro":"VILA KENNEDY"},{"nu_telefone":"55-3537-3413"},{"co_cep":"98920000"},{"uf":"RS"},{"cidade":"Horizontina"},{"ano_ubs_det":"2016"},{"mes_ubs_det":"5"}],"geometry":{"type":"Point","coordinates":[-54.312865734099,-27.633908987044]}},{"type":"Feature","properties":[{"gid":"5688"},{"co_cnes":"5884160"},{"lat":"-28.0297443728968"},{"long":"-54.3508400776839"},{"no_fantasia":"PSF 4 RURAL"},{"no_logradouro":"RUA BORGES DE MEDEIROS"},{"nu_endereco":"120"},{"no_bairro":"CENTRO"},{"nu_telefone":"55-3361-3493"},{"co_cep":"98870000"},{"uf":"RS"},{"cidade":"Giruá"},{"ano_ubs_det":"2016"},{"mes_ubs_det":"5"}],"geometry":{"type":"Point","coordinates":[-54.350840077684,-28.029744372897]}},{"type":"Feature","properties":[{"gid":"5792"},{"co_cnes":"2236710"},{"lat":"-29.2263793945304"},{"long":"-51.3453340530381"},{"no_fantasia":"UNIDADE BASICA DE SAUDE CENTRAL"},{"no_logradouro":"RUA 13 DE MAIO"},{"nu_endereco":"533"},{"no_bairro":"CENTRO"},{"nu_telefone":""},{"co_cep":"95170428"},{"uf":"RS"},{"cidade":"Farroupilha"},{"ano_ubs_det":"2016"},{"mes_ubs_det":"5"}],"geometry":{"type":"Point","coordinates":[-51.345334053038,-29.22637939453]}},{"type":"Feature","properties":[{"gid":"5908"},{"co_cnes":"2254077"},{"lat":"-31.6519761085501"},{"long":"-52.333202362059"},{"no_fantasia":"UBS VILA PRINCESA"},{"no_logradouro":"AV QUATRO"},{"nu_endereco":"3205"},{"no_bairro":"VILA PRINCESA"},{"nu_telefone":"(53) 32781564"},{"co_cep":"96072014"},{"uf":"RS"},{"cidade":"Pelotas"},{"ano_ubs_det":"2016"},{"mes_ubs_det":"5"}],"geometry":{"type":"Point","coordinates":[-52.333202362059,-31.65197610855]}},{"type":"Feature","properties":[{"gid":"5620"},{"co_cnes":"6552536"},{"lat":"-27.9056898469343"},{"long":"-55.139560262016"},{"no_fantasia":"PSF 4 PORTO XAVIER"},{"no_logradouro":"DR OSVALDO CRUZ"},{"nu_endereco":"583"},{"no_bairro":"CENTRO"},{"nu_telefone":""},{"co_cep":"98995000"},{"uf":"RS"},{"cidade":"Porto Xavier"},{"ano_ubs_det":"2016"},{"mes_ubs_det":"5"}],"geometry":{"type":"Point","coordinates":[-55.139560262016,-27.905689846934]}},{"type":"Feature","properties":[{"gid":"5766"},{"co_cnes":"2253291"},{"lat":"-31.7153176859487"},{"long":"-52.3538253955841"},{"no_fantasia":"UBS PY CRESPO"},{"no_logradouro":"RUA MARQUES DE OLINDA"},{"nu_endereco":"1291"},{"no_bairro":"TRES VENDAS"},{"nu_telefone":"(53) 32837509"},{"co_cep":"96065360"},{"uf":"RS"},{"cidade":"Pelotas"},{"ano_ubs_det":"2016"},{"mes_ubs_det":"5"}],"geometry":{"type":"Point","coordinates":[-52.353825395584,-31.715317685949]}},{"type":"Feature","properties":[{"gid":"5907"},{"co_cnes":"3866327"},{"lat":"-29.9455189133363"},{"long":"-50.9907929747741"},{"no_fantasia":"USF SAO MARCOS"},{"no_logradouro":"RUA PAES ANDRADE"},{"nu_endereco":"509"},{"no_bairro":"ITACOLOMI"},{"nu_telefone":"5136007235"},{"co_cep":"94175370"},{"uf":"RS"},{"cidade":"Gravataí"},{"ano_ubs_det":"2016"},{"mes_ubs_det":"5"}],"geometry":{"type":"Point","coordinates":[-50.990792974774,-29.945518913336]}},{"type":"Feature","properties":[{"gid":"6217"},{"co_cnes":"2253380"},{"lat":"-31.4552092552176"},{"long":"-52.5107431411728"},{"no_fantasia":"UBS GRUPELLI"},{"no_logradouro":"7 DISTRITO"},{"nu_endereco":"100"},{"no_bairro":"COLONIA"},{"nu_telefone":"(53) 32245011"},{"co_cep":"96010000"},{"uf":"RS"},{"cidade":"Pelotas"},{"ano_ubs_det":"2016"},{"mes_ubs_det":"5"}],"geometry":{"type":"Point","coordinates":[-52.510743141173,-31.455209255218]}},{"type":"Feature","properties":[{"gid":"6170"},{"co_cnes":"7359276"},{"lat":"-29.8386137802591"},{"long":"-51.12526745224"},{"no_fantasia":"ESF TERRA NOVA"},{"no_logradouro":"RUA HELADIO MEDEIROS DE AZEVEDO"},{"nu_endereco":"159"},{"no_bairro":"IPIRANGA"},{"nu_telefone":""},{"co_cep":"93230485"},{"uf":"RS"},{"cidade":"Sapucaia do Sul"},{"ano_ubs_det":"2016"},{"mes_ubs_det":"5"}],"geometry":{"type":"Point","coordinates":[-51.12526745224,-29.838613780259]}},{"type":"Feature","properties":[{"gid":"6291"},{"co_cnes":"3206262"},{"lat":"-31.3130950927725"},{"long":"-54.1405606269821"},{"no_fantasia":"UBS ESF DAME"},{"no_logradouro":"RUA 93"},{"nu_endereco":"S/N"},{"no_bairro":"DAME"},{"nu_telefone":"(53)32422476"},{"co_cep":"96400010"},{"uf":"RS"},{"cidade":"Bagé"},{"ano_ubs_det":"2016"},{"mes_ubs_det":"5"}],"geometry":{"type":"Point","coordinates":[-54.140560626982,-31.313095092772]}},{"type":"Feature","properties":[{"gid":"6019"},{"co_cnes":"2239000"},{"lat":"-29.1668990110621"},{"long":"-51.178860205883"},{"no_fantasia":"UBS ESPLANADA"},{"no_logradouro":"AVENIDA BOM PASTOR"},{"nu_endereco":"2225"},{"no_bairro":"ESPLANADA"},{"nu_telefone":"(54) 3901 12 39"},{"co_cep":"95096150"},{"uf":"RS"},{"cidade":"Caxias do Sul"},{"ano_ubs_det":"2016"},{"mes_ubs_det":"5"}],"geometry":{"type":"Point","coordinates":[-51.178860205883,-29.166899011062]}},{"type":"Feature","properties":[{"gid":"6055"},{"co_cnes":"2228750"},{"lat":"-30.0487661361686"},{"long":"-51.0615563392624"},{"no_fantasia":"UBS STELLA MARIS ALVORADA"},{"no_logradouro":"RUA NOSSA SENHORA DA CONCEICAO"},{"nu_endereco":"180"},{"no_bairro":"STELLA MARIS"},{"nu_telefone":"(51)4426262"},{"co_cep":"94855520"},{"uf":"RS"},{"cidade":"Alvorada"},{"ano_ubs_det":"2016"},{"mes_ubs_det":"5"}],"geometry":{"type":"Point","coordinates":[-51.061556339262,-30.048766136169]}},{"type":"Feature","properties":[{"gid":"6338"},{"co_cnes":"7082231"},{"lat":"-27.5576571730185"},{"long":"-53.6498446350098"},{"no_fantasia":"REDENTORA POSTO DE SAUDE SETOR ESTIVA"},{"no_logradouro":"AREA INDIGENA SETOR ESTIVA"},{"nu_endereco":"S/N"},{"no_bairro":"INTERIOR"},{"nu_telefone":"5535561101"},{"co_cep":"98550000"},{"uf":"RS"},{"cidade":"Redentora"},{"ano_ubs_det":"2016"},{"mes_ubs_det":"5"}],"geometry":{"type":"Point","coordinates":[-53.64984463501,-27.557657173018]}},{"type":"Feature","properties":[{"gid":"6222"},{"co_cnes":"2245388"},{"lat":"-28.6249501911654"},{"long":"-52.8714671740768"},{"no_fantasia":"UNIDADE DE ESF ANAURELINA VIEIRA DA PAIXAO"},{"no_logradouro":"RUA ALBERTO MANICA"},{"nu_endereco":"565"},{"no_bairro":"COHAB"},{"nu_telefone":"5433851676"},{"co_cep":"99490000"},{"uf":"RS"},{"cidade":"Tapera"},{"ano_ubs_det":"2016"},{"mes_ubs_det":"5"}],"geometry":{"type":"Point","coordinates":[-52.871467174077,-28.624950191165]}},{"type":"Feature","properties":[{"gid":"6318"},{"co_cnes":"2251361"},{"lat":"-29.4756960868827"},{"long":"-51.9918107986435"},{"no_fantasia":"ESTRATEGIA DE SAUDE DA FAMILIA JARDIM DO CEDRO"},{"no_logradouro":"RUA OCTAVIO TRIERWEILER"},{"nu_endereco":"1520"},{"no_bairro":"JARDIM DO CEDRO"},{"nu_telefone":"(51) 3982-1136"},{"co_cep":"95901352"},{"uf":"RS"},{"cidade":"Lajeado"},{"ano_ubs_det":"2016"},{"mes_ubs_det":"5"}],"geometry":{"type":"Point","coordinates":[-51.991810798643,-29.475696086883]}},{"type":"Feature","properties":[{"gid":"6470"},{"co_cnes":"2225948"},{"lat":"-30.1679849624625"},{"long":"-51.3899016380295"},{"no_fantasia":"ESF PEDRAS BRANCAS"},{"no_logradouro":"RUA JOSE CARLOS FERREIRA"},{"nu_endereco":"341"},{"no_bairro":"PEDRAS BRANCAS"},{"nu_telefone":"(51)4804888"},{"co_cep":"92722120"},{"uf":"RS"},{"cidade":"Guaíba"},{"ano_ubs_det":"2016"},{"mes_ubs_det":"5"}],"geometry":{"type":"Point","coordinates":[-51.389901638029,-30.167984962463]}},{"type":"Feature","properties":[{"gid":"6715"},{"co_cnes":"7570139"},{"lat":"-29.2971782037333"},{"long":"-49.6945953369141"},{"no_fantasia":"FISIOTERAPIA"},{"no_logradouro":"AVENIDA DO RIACHO"},{"nu_endereco":"S/N"},{"no_bairro":"IGRA"},{"nu_telefone":""},{"co_cep":"95560000"},{"uf":"RS"},{"cidade":"Torres"},{"ano_ubs_det":"2016"},{"mes_ubs_det":"5"}],"geometry":{"type":"Point","coordinates":[-49.694595336914,-29.297178203733]}},{"type":"Feature","properties":[{"gid":"6434"},{"co_cnes":"2817845"},{"lat":"-30.3266108036032"},{"long":"-54.3278431892379"},{"no_fantasia":"ESF ZONA OESTE"},{"no_logradouro":"RUA FRANCISCO CHAGAS"},{"nu_endereco":"3315"},{"no_bairro":"VILA MACIEL"},{"nu_telefone":""},{"co_cep":"97313200"},{"uf":"RS"},{"cidade":"São Gabriel"},{"ano_ubs_det":"2016"},{"mes_ubs_det":"5"}],"geometry":{"type":"Point","coordinates":[-54.327843189238,-30.326610803603]}},{"type":"Feature","properties":[{"gid":"6684"},{"co_cnes":"3088863"},{"lat":"-30.26234"},{"long":"-54.92695"},{"no_fantasia":"PSF 02 ROSARIO DO SUL"},{"no_logradouro":"RUA AMARO SOUTO"},{"nu_endereco":"632"},{"no_bairro":"PROGRESSO"},{"nu_telefone":""},{"co_cep":"97590000"},{"uf":"RS"},{"cidade":"Rosário do Sul"},{"ano_ubs_det":"2016"},{"mes_ubs_det":"5"}],"geometry":{"type":"Point","coordinates":[-54.92695,-30.26234]}},{"type":"Feature","properties":[{"gid":"6507"},{"co_cnes":"2238349"},{"lat":"-29.3762088694351"},{"long":"-51.1069539239561"},{"no_fantasia":"POSTO DE SAUDE PINHAL ALTO"},{"no_logradouro":"RUA VICENTE PIETRO"},{"nu_endereco":"S/N"},{"no_bairro":"PINHAL ALTO"},{"nu_telefone":"(54)2985209"},{"co_cep":"95150000"},{"uf":"RS"},{"cidade":"Nova Petrópolis"},{"ano_ubs_det":"2016"},{"mes_ubs_det":"5"}],"geometry":{"type":"Point","coordinates":[-51.106953923956,-29.376208869435]}},{"type":"Feature","properties":[{"gid":"6710"},{"co_cnes":"7168500"},{"lat":"-28.1241762664976"},{"long":"-55.0209957361221"},{"no_fantasia":"ESF 3 VILA SANTO ANTONIO"},{"no_logradouro":"RUA INDEPENDENCIA"},{"nu_endereco":"S/N"},{"no_bairro":"SANTO ANTONIO"},{"nu_telefone":"5533653351"},{"co_cep":"97970000"},{"uf":"RS"},{"cidade":"Roque Gonzales"},{"ano_ubs_det":"2016"},{"mes_ubs_det":"5"}],"geometry":{"type":"Point","coordinates":[-55.020995736122,-28.124176266498]}},{"type":"Feature","properties":[{"gid":"6657"},{"co_cnes":"3432580"},{"lat":"-31.5549230575552"},{"long":"-52.824347019194"},{"no_fantasia":"POSTO DE SAUDE 14 MARCO"},{"no_logradouro":"PASSO DO LOURENCO"},{"nu_endereco":"S/N"},{"no_bairro":"4 DISTRITO"},{"nu_telefone":""},{"co_cep":"96600000"},{"uf":"RS"},{"cidade":"Canguçu"},{"ano_ubs_det":"2016"},{"mes_ubs_det":"5"}],"geometry":{"type":"Point","coordinates":[-52.824347019194,-31.554923057555]}},{"type":"Feature","properties":[{"gid":"6714"},{"co_cnes":"7400276"},{"lat":"-29.9211111845807"},{"long":"-51.0753697156906"},{"no_fantasia":"ESF VEREADOR JOSE ARI DA SILVEIRA"},{"no_logradouro":"TRAVESSA ORLEANS"},{"nu_endereco":"325"},{"no_bairro":"FATIMA"},{"nu_telefone":""},{"co_cep":"94955260"},{"uf":"RS"},{"cidade":"Cachoeirinha"},{"ano_ubs_det":"2016"},{"mes_ubs_det":"5"}],"geometry":{"type":"Point","coordinates":[-51.075369715691,-29.921111184581]}},{"type":"Feature","properties":[{"gid":"6575"},{"co_cnes":"2255510"},{"lat":"-29.702332019805"},{"long":"-52.426307201384"},{"no_fantasia":"PS VILA VERENA"},{"no_logradouro":"RUA AUGUSTO SPENGLER"},{"nu_endereco":"1196"},{"no_bairro":"VERENA"},{"nu_telefone":"(51)37173509"},{"co_cep":"96820020"},{"uf":"RS"},{"cidade":"Santa Cruz do Sul"},{"ano_ubs_det":"2016"},{"mes_ubs_det":"5"}],"geometry":{"type":"Point","coordinates":[-52.426307201384,-29.702332019805]}},{"type":"Feature","properties":[{"gid":"7177"},{"co_cnes":"6031404"},{"lat":"-27.633405810801"},{"long":"-52.2758768978871"},{"no_fantasia":"UBS BELA VISTA"},{"no_logradouro":"RUA CARLOS IRINEU PIETA"},{"nu_endereco":"35"},{"no_bairro":"BELA VISTA"},{"nu_telefone":"054-35229510"},{"co_cep":"99704074"},{"uf":"RS"},{"cidade":"Erechim"},{"ano_ubs_det":"2016"},{"mes_ubs_det":"5"}],"geometry":{"type":"Point","coordinates":[-52.275876897887,-27.633405810801]}},{"type":"Feature","properties":[{"gid":"7125"},{"co_cnes":"2236575"},{"lat":"-29.1563566374249"},{"long":"-51.5164116683006"},{"no_fantasia":"UNIDADE DE SAUDE PROGRESSO ESPACO DE SAUDE DO IDOSO"},{"no_logradouro":"RUA GIOVANI GIRARDI"},{"nu_endereco":"206"},{"no_bairro":"PROGRESSO"},{"nu_telefone":"(54)4544345"},{"co_cep":"95705120"},{"uf":"RS"},{"cidade":"Bento Gonçalves"},{"ano_ubs_det":"2016"},{"mes_ubs_det":"5"}],"geometry":{"type":"Point","coordinates":[-51.516411668301,-29.156356637425]}},{"type":"Feature","properties":[{"gid":"7130"},{"co_cnes":"2257939"},{"lat":"-28.2268764434985"},{"long":"-55.0482085020398"},{"no_fantasia":"CS SMS DEZESSEIS DE NOVEMBRO"},{"no_logradouro":"RUA SANTO ANTONIO"},{"nu_endereco":"1243"},{"no_bairro":"CENTRO"},{"nu_telefone":"(55)33621045"},{"co_cep":"97845000"},{"uf":"RS"},{"cidade":"Dezesseis de Novembro"},{"ano_ubs_det":"2016"},{"mes_ubs_det":"5"}],"geometry":{"type":"Point","coordinates":[-55.04820850204,-28.226876443499]}},{"type":"Feature","properties":[{"gid":"7064"},{"co_cnes":"2238470"},{"lat":"-28.7499064320338"},{"long":"-50.0636129376329"},{"no_fantasia":"UNIDADE DE SAUDE DE SAO JOSE DOS AUSENTES ESF"},{"no_logradouro":"RUA ADILIO VALIM DA SILVA"},{"nu_endereco":"100"},{"no_bairro":"CENTRO"},{"nu_telefone":"(54) 3234 1276"},{"co_cep":"95280000"},{"uf":"RS"},{"cidade":"São José dos Ausentes"},{"ano_ubs_det":"2016"},{"mes_ubs_det":"5"}],"geometry":{"type":"Point","coordinates":[-50.063612937633,-28.749906432034]}},{"type":"Feature","properties":[{"gid":"7062"},{"co_cnes":"3051897"},{"lat":"-29.2451655864707"},{"long":"-51.5324878692612"},{"no_fantasia":"UNIDADE BASICA DE SAUDE SANTA TEREZINHA"},{"no_logradouro":"BUARQUE DE MACEDO"},{"nu_endereco":"4150"},{"no_bairro":"SANTA TEREZINHA"},{"nu_telefone":"(54)3462-8123"},{"co_cep":"95720000"},{"uf":"RS"},{"cidade":"Garibaldi"},{"ano_ubs_det":"2016"},{"mes_ubs_det":"5"}],"geometry":{"type":"Point","coordinates":[-51.532487869261,-29.245165586471]}},{"type":"Feature","properties":[{"gid":"6950"},{"co_cnes":"2245582"},{"lat":"-28.4303019173986"},{"long":"-52.0356566772461"},{"no_fantasia":"POSTO DE SAUDE DE CAMPO DO MEIO GENTIL"},{"no_logradouro":"AV OLAVO RICO"},{"nu_endereco":"1111"},{"no_bairro":"CENTRO"},{"nu_telefone":"(54)36155021"},{"co_cep":"99160000"},{"uf":"RS"},{"cidade":"Gentil"},{"ano_ubs_det":"2016"},{"mes_ubs_det":"5"}],"geometry":{"type":"Point","coordinates":[-52.035656677246,-28.430301917399]}},{"type":"Feature","properties":[{"gid":"7017"},{"co_cnes":"3637050"},{"lat":"-30.1674113897135"},{"long":"-53.5696441253718"},{"no_fantasia":"ESTRATEGIA DE SAUDE DA FAMILIA 15 DE NOVEMBRO"},{"no_logradouro":"RUA 15 DE NOVEMBRO"},{"nu_endereco":"S/N"},{"no_bairro":"SAO FRANCISCO"},{"nu_telefone":"(55) 3233-4844"},{"co_cep":"97340000"},{"uf":"RS"},{"cidade":"São Sepé"},{"ano_ubs_det":"2016"},{"mes_ubs_det":"5"}],"geometry":{"type":"Point","coordinates":[-53.569644125372,-30.167411389714]}},{"type":"Feature","properties":[{"gid":"6949"},{"co_cnes":"2229544"},{"lat":"-29.6507155895225"},{"long":"-51.006002426146"},{"no_fantasia":"C S SAO LUIZSAPIRANGA"},{"no_logradouro":"RUA GRAMADO"},{"nu_endereco":"60"},{"no_bairro":"SAO LUIZ"},{"nu_telefone":"(51)5292350"},{"co_cep":"93806252"},{"uf":"RS"},{"cidade":"Sapiranga"},{"ano_ubs_det":"2016"},{"mes_ubs_det":"5"}],"geometry":{"type":"Point","coordinates":[-51.006002426146,-29.650715589522]}},{"type":"Feature","properties":[{"gid":"7003"},{"co_cnes":"6282687"},{"lat":"-29.747519782555"},{"long":"-50.0239838051796"},{"no_fantasia":"ESF SAO JORGE"},{"no_logradouro":"RUA SAO VENDELINO"},{"nu_endereco":"S/N"},{"no_bairro":"SAO JORGE"},{"nu_telefone":""},{"co_cep":"95555000"},{"uf":"RS"},{"cidade":"Capão da Canoa"},{"ano_ubs_det":"2016"},{"mes_ubs_det":"5"}],"geometry":{"type":"Point","coordinates":[-50.02398380518,-29.747519782555]}},{"type":"Feature","properties":[{"gid":"7055"},{"co_cnes":"2236885"},{"lat":"-29.4901156425468"},{"long":"-51.3571357727036"},{"no_fantasia":"ESF SEDE"},{"no_logradouro":"GUILHERME WINTER"},{"nu_endereco":"65"},{"no_bairro":"CENTRO"},{"nu_telefone":"51 36341190"},{"co_cep":"95765000"},{"uf":"RS"},{"cidade":"Bom Princípio"},{"ano_ubs_det":"2016"},{"mes_ubs_det":"5"}],"geometry":{"type":"Point","coordinates":[-51.357135772704,-29.490115642547]}},{"type":"Feature","properties":[{"gid":"6887"},{"co_cnes":"4067754"},{"lat":"-29.839"},{"long":"-51.144"},{"no_fantasia":"UBS PASQUALINE"},{"no_logradouro":"RUA CIRO SILVA"},{"nu_endereco":"195"},{"no_bairro":"PASQUALINE"},{"nu_telefone":"(51)34535252"},{"co_cep":"93224661"},{"uf":"RS"},{"cidade":"Sapucaia do Sul"},{"ano_ubs_det":"2016"},{"mes_ubs_det":"5"}],"geometry":{"type":"Point","coordinates":[-51.144,-29.839]}},{"type":"Feature","properties":[{"gid":"7090"},{"co_cnes":"7043376"},{"lat":"-29.7712832874368"},{"long":"-52.4284461746216"},{"no_fantasia":"ESF RAUBER CARLOTA"},{"no_logradouro":"RUA ROSALVO ANTONIO DE BORBA"},{"nu_endereco":"737"},{"no_bairro":"RAUBER"},{"nu_telefone":"37158891"},{"co_cep":"96835780"},{"uf":"RS"},{"cidade":"Santa Cruz do Sul"},{"ano_ubs_det":"2016"},{"mes_ubs_det":"5"}],"geometry":{"type":"Point","coordinates":[-52.428446174622,-29.771283287437]}},{"type":"Feature","properties":[{"gid":"6967"},{"co_cnes":"5529417"},{"lat":"-28.9339573362744"},{"long":"-51.5522869044647"},{"no_fantasia":"PSF SAO FRANCISCO"},{"no_logradouro":"RUA JOSE DO PATROCINIO"},{"nu_endereco":"170"},{"no_bairro":"SAO FRANCISCO"},{"nu_telefone":"54 34414491"},{"co_cep":"95330000"},{"uf":"RS"},{"cidade":"Veranópolis"},{"ano_ubs_det":"2016"},{"mes_ubs_det":"5"}],"geometry":{"type":"Point","coordinates":[-51.552286904465,-28.933957336274]}},{"type":"Feature","properties":[{"gid":"7190"},{"co_cnes":"3420280"},{"lat":"-29.4343578815452"},{"long":"-52.0240187644943"},{"no_fantasia":"ESTRATEGIA DE SAUDE DA FAMILIA CONVENTOS"},{"no_logradouro":"RUA ELECIR JOSE CASSULI"},{"nu_endereco":"209"},{"no_bairro":"CONVENTOS"},{"nu_telefone":"(51) 3982-1146"},{"co_cep":"95906356"},{"uf":"RS"},{"cidade":"Lajeado"},{"ano_ubs_det":"2016"},{"mes_ubs_det":"5"}],"geometry":{"type":"Point","coordinates":[-52.024018764494,-29.434357881545]}},{"type":"Feature","properties":[{"gid":"6805"},{"co_cnes":"2233096"},{"lat":"-31.3640237211511"},{"long":"-51.9769152357623"},{"no_fantasia":"ESF BOA VISTA SAO LOURENCO DO SUL"},{"no_logradouro":"BOA VISTA"},{"nu_endereco":"S/N"},{"no_bairro":"6 DISTRITO"},{"nu_telefone":""},{"co_cep":"96170000"},{"uf":"RS"},{"cidade":"São Lourenço do Sul"},{"ano_ubs_det":"2016"},{"mes_ubs_det":"5"}],"geometry":{"type":"Point","coordinates":[-51.976915235762,-31.364023721151]}},{"type":"Feature","properties":[{"gid":"7050"},{"co_cnes":"2257947"},{"lat":"-28.5250597626106"},{"long":"-54.1481126184862"},{"no_fantasia":"CS SMS EUGENIO DE CASTRO"},{"no_logradouro":"RUA JOAO GOERGEN"},{"nu_endereco":"1020"},{"no_bairro":"CENTRO"},{"nu_telefone":"(55)33351050"},{"co_cep":"98860000"},{"uf":"RS"},{"cidade":"Eugênio de Castro"},{"ano_ubs_det":"2016"},{"mes_ubs_det":"5"}],"geometry":{"type":"Point","coordinates":[-54.148112618486,-28.525059762611]}},{"type":"Feature","properties":[{"gid":"6836"},{"co_cnes":"2250152"},{"lat":"-27.51387476921"},{"long":"-54.4931316375717"},{"no_fantasia":"POSTO DE SAUDE VILA PRATOS ESF 2"},{"no_logradouro":"VILA PRATOS RUA PORTO LUCENA"},{"nu_endereco":"509"},{"no_bairro":"CENTRO"},{"nu_telefone":"(55)35441022"},{"co_cep":"98955000"},{"uf":"RS"},{"cidade":"Novo Machado"},{"ano_ubs_det":"2016"},{"mes_ubs_det":"5"}],"geometry":{"type":"Point","coordinates":[-54.493131637572,-27.51387476921]}},{"type":"Feature","properties":[{"gid":"6842"},{"co_cnes":"2248921"},{"lat":"-27.633405810801"},{"long":"-52.2758768978871"},{"no_fantasia":"UBS PRESIDENTE VARGAS"},{"no_logradouro":"RUA ANTONIO ZUCCHI"},{"nu_endereco":"29"},{"no_bairro":"PRESIDENTE VARGAS"},{"nu_telefone":"(54)3214429"},{"co_cep":"99713244"},{"uf":"RS"},{"cidade":"Erechim"},{"ano_ubs_det":"2016"},{"mes_ubs_det":"5"}],"geometry":{"type":"Point","coordinates":[-52.275876897887,-27.633405810801]}},{"type":"Feature","properties":[{"gid":"7233"},{"co_cnes":"2261766"},{"lat":"-30.97801208496"},{"long":"-54.6626472473129"},{"no_fantasia":"CENTRO COMUNITARIO TUDE DE GODOY"},{"no_logradouro":"ALVONI DA ROSA RIBEIRO"},{"nu_endereco":"S/N"},{"no_bairro":"JOSE TUDE DE GODOY"},{"nu_telefone":""},{"co_cep":"96450000"},{"uf":"RS"},{"cidade":"Dom Pedrito"},{"ano_ubs_det":"2016"},{"mes_ubs_det":"5"}],"geometry":{"type":"Point","coordinates":[-54.662647247313,-30.97801208496]}},{"type":"Feature","properties":[{"gid":"7249"},{"co_cnes":"4063422"},{"lat":"-29.7820432091244"},{"long":"-55.7958701453331"},{"no_fantasia":"ESF SAINT PASTOUS"},{"no_logradouro":"RUA FELIPE SOARES"},{"nu_endereco":"312"},{"no_bairro":"SAINT PASTOUS"},{"nu_telefone":"55 3961 1037"},{"co_cep":"97542130"},{"uf":"RS"},{"cidade":"Alegrete"},{"ano_ubs_det":"2016"},{"mes_ubs_det":"5"}],"geometry":{"type":"Point","coordinates":[-55.795870145333,-29.782043209124]}},{"type":"Feature","properties":[{"gid":"7412"},{"co_cnes":"3057569"},{"lat":"-29.2322"},{"long":"-51.88341"},{"no_fantasia":"POSTO DE SAUDE NAVEGANTES"},{"no_logradouro":"RUA NAVEGANTES"},{"nu_endereco":"S/N"},{"no_bairro":"NAVEGANTES"},{"nu_telefone":""},{"co_cep":"95960000"},{"uf":"RS"},{"cidade":"Encantado"},{"ano_ubs_det":"2016"},{"mes_ubs_det":"5"}],"geometry":{"type":"Point","coordinates":[-51.88341,-29.2322]}},{"type":"Feature","properties":[{"gid":"7211"},{"co_cnes":"2224569"},{"lat":"-29.2106494197244"},{"long":"-49.9365135523956"},{"no_fantasia":"UNIDADE SANITARIA MAMPITUBA"},{"no_logradouro":"RUA HERCULANO LOPES"},{"nu_endereco":"00000000"},{"no_bairro":"CENTRO"},{"nu_telefone":"(51)36152024"},{"co_cep":"95572000"},{"uf":"RS"},{"cidade":"Mampituba"},{"ano_ubs_det":"2016"},{"mes_ubs_det":"5"}],"geometry":{"type":"Point","coordinates":[-49.936513552396,-29.210649419724]}},{"type":"Feature","properties":[{"gid":"7537"},{"co_cnes":"2249820"},{"lat":"-27.6715669967825"},{"long":"-54.1094812552697"},{"no_fantasia":"POSTO DE SAUDE SEDE B V BURICA"},{"no_logradouro":"AV SAO JOSE"},{"nu_endereco":"895"},{"no_bairro":"CENTRO"},{"nu_telefone":"(55)35381270"},{"co_cep":"98918000"},{"uf":"RS"},{"cidade":"Boa Vista do Buricá"},{"ano_ubs_det":"2016"},{"mes_ubs_det":"5"}],"geometry":{"type":"Point","coordinates":[-54.10948125527,-27.671566996782]}},{"type":"Feature","properties":[{"gid":"7528"},{"co_cnes":"2244675"},{"lat":"-28.589237531547"},{"long":"-52.2037989732514"},{"no_fantasia":"CENTRO MUNICIPAL DE SAUDE SILVIO CERATO CAMARGO"},{"no_logradouro":"RUA MAURICIO CARDOSO"},{"nu_endereco":"500"},{"no_bairro":"CENTRO"},{"nu_telefone":"(54)3571158"},{"co_cep":"99165000"},{"uf":"RS"},{"cidade":"Camargo"},{"ano_ubs_det":"2016"},{"mes_ubs_det":"5"}],"geometry":{"type":"Point","coordinates":[-52.203798973251,-28.589237531547]}},{"type":"Feature","properties":[{"gid":"7558"},{"co_cnes":"2238152"},{"lat":"-28.6755180358878"},{"long":"-51.362071037291"},{"no_fantasia":"UNIDADE DE ESTRATEGIA SAUDE DA FAMILIA VILA SAO PAULO"},{"no_logradouro":"VILA SAO PAULO"},{"nu_endereco":"S/N"},{"no_bairro":"3 DISTRITO"},{"nu_telefone":"5432332017"},{"co_cep":"95240000"},{"uf":"RS"},{"cidade":"Ipê"},{"ano_ubs_det":"2016"},{"mes_ubs_det":"5"}],"geometry":{"type":"Point","coordinates":[-51.362071037291,-28.675518035888]}},{"type":"Feature","properties":[{"gid":"7531"},{"co_cnes":"7729693"},{"lat":"-29.2850704193115"},{"long":"-51.8638916015625"},{"no_fantasia":"UNIDADE BASICA DE SAUDE BAIRRO SETE DE SETEMBRO"},{"no_logradouro":"RUA JOSE BROCK"},{"nu_endereco":"734"},{"no_bairro":"LOTEAMENTO SETE DE S"},{"nu_telefone":"(51)37532350"},{"co_cep":"95735000"},{"uf":"RS"},{"cidade":"Roca Sales"},{"ano_ubs_det":"2016"},{"mes_ubs_det":"5"}],"geometry":{"type":"Point","coordinates":[-51.863891601562,-29.285070419312]}},{"type":"Feature","properties":[{"gid":"7536"},{"co_cnes":"3536769"},{"lat":"-29.9449646472922"},{"long":"-51.078593730925"},{"no_fantasia":"UBS PARQUE DA MATRIZ"},{"no_logradouro":"RUA ITAPEMA"},{"nu_endereco":"30"},{"no_bairro":"PARQUE DA MATRIZ"},{"nu_telefone":"(51) 34381503"},{"co_cep":"94950577"},{"uf":"RS"},{"cidade":"Cachoeirinha"},{"ano_ubs_det":"2016"},{"mes_ubs_det":"5"}],"geometry":{"type":"Point","coordinates":[-51.078593730925,-29.944964647292]}},{"type":"Feature","properties":[{"gid":"7374"},{"co_cnes":"7921934"},{"lat":"-29.1674022674561"},{"long":"-51.5155601501465"},{"no_fantasia":"UNIDADE DE SAUDE COHAB"},{"no_logradouro":"RUA JOANA GUINDANE TONELLO"},{"nu_endereco":"S/N"},{"no_bairro":"COHAB"},{"nu_telefone":""},{"co_cep":"95705666"},{"uf":"RS"},{"cidade":"Bento Gonçalves"},{"ano_ubs_det":"2016"},{"mes_ubs_det":"5"}],"geometry":{"type":"Point","coordinates":[-51.515560150146,-29.167402267456]}},{"type":"Feature","properties":[{"gid":"7474"},{"co_cnes":"2261375"},{"lat":"-31.3295316696158"},{"long":"-54.0613389015182"},{"no_fantasia":"UBS ESF PRADO VELHO"},{"no_logradouro":"RUA 738"},{"nu_endereco":"140"},{"no_bairro":"PRADO VELHO"},{"nu_telefone":"(53)32473876"},{"co_cep":"96418570"},{"uf":"RS"},{"cidade":"Bagé"},{"ano_ubs_det":"2016"},{"mes_ubs_det":"5"}],"geometry":{"type":"Point","coordinates":[-54.061338901518,-31.329531669616]}},{"type":"Feature","properties":[{"gid":"7517"},{"co_cnes":"2235684"},{"lat":"-29.745793549977"},{"long":"-52.2787581943226"},{"no_fantasia":"POSTO DE SAUDE"},{"no_logradouro":"AVENIDA ALBERTO JACOBSES"},{"nu_endereco":"242"},{"no_bairro":"CENTRO"},{"nu_telefone":"(51)37301420"},{"co_cep":"96685000"},{"uf":"RS"},{"cidade":"Passo do Sobrado"},{"ano_ubs_det":"2016"},{"mes_ubs_det":"5"}],"geometry":{"type":"Point","coordinates":[-52.278758194323,-29.745793549977]}},{"type":"Feature","properties":[{"gid":"7471"},{"co_cnes":"2248484"},{"lat":"-27.4327929836269"},{"long":"-52.120656296054"},{"no_fantasia":"UNIDADE DE BASICA DE SAUDE SEVERIANO DE ALMEIDA"},{"no_logradouro":"RUA PREFEITO ORLANDO SBRUSSI"},{"nu_endereco":"25"},{"no_bairro":"CENTRO"},{"nu_telefone":"(54)35251219"},{"co_cep":"99810000"},{"uf":"RS"},{"cidade":"Severiano de Almeida"},{"ano_ubs_det":"2016"},{"mes_ubs_det":"5"}],"geometry":{"type":"Point","coordinates":[-52.120656296054,-27.432792983627]}},{"type":"Feature","properties":[{"gid":"7758"},{"co_cnes":"2233274"},{"lat":"-31.8674862384787"},{"long":"-52.8362989425644"},{"no_fantasia":"CENTRO DE SAUDE JOSE PEDRO DE ALMEIDA LEITE"},{"no_logradouro":"AVENIDA TIRADENTES"},{"nu_endereco":"1000"},{"no_bairro":"BRASILIA"},{"nu_telefone":"(53)2251599"},{"co_cep":"96360000"},{"uf":"RS"},{"cidade":"Pedro Osório"},{"ano_ubs_det":"2016"},{"mes_ubs_det":"5"}],"geometry":{"type":"Point","coordinates":[-52.836298942564,-31.867486238479]}},{"type":"Feature","properties":[{"gid":"7645"},{"co_cnes":"2228890"},{"lat":"-29.519"},{"long":"-51.178"},{"no_fantasia":"UNIDADE SANITARIA DE PRESIDENTE LUCENA"},{"no_logradouro":"RUA IPIRANGA"},{"nu_endereco":"211"},{"no_bairro":"CENTRO"},{"nu_telefone":"(51) 34453175"},{"co_cep":"93945000"},{"uf":"RS"},{"cidade":"Presidente Lucena"},{"ano_ubs_det":"2016"},{"mes_ubs_det":"5"}],"geometry":{"type":"Point","coordinates":[-51.178,-29.519]}},{"type":"Feature","properties":[{"gid":"7780"},{"co_cnes":"5026865"},{"lat":"-29.1484022140494"},{"long":"-56.5581750869735"},{"no_fantasia":"PSF DO BAIRRO VILA NOVA ITAQUI"},{"no_logradouro":"RUA THOMAZ SANCHOTENE"},{"nu_endereco":"49"},{"no_bairro":"BAIRRO VILA NOVA"},{"nu_telefone":""},{"co_cep":"97650000"},{"uf":"RS"},{"cidade":"Itaqui"},{"ano_ubs_det":"2016"},{"mes_ubs_det":"5"}],"geometry":{"type":"Point","coordinates":[-56.558175086973,-29.148402214049]}},{"type":"Feature","properties":[{"gid":"7636"},{"co_cnes":"7898797"},{"lat":"-29.2405273260347"},{"long":"-51.3444891571999"},{"no_fantasia":"UNIDADE BASICA DE SAUDE 1 DE MAIO"},{"no_logradouro":"RUA ANTONIO SACHET"},{"nu_endereco":"17"},{"no_bairro":"BAIRRO 1 DE MAIO"},{"nu_telefone":""},{"co_cep":"95181168"},{"uf":"RS"},{"cidade":"Farroupilha"},{"ano_ubs_det":"2016"},{"mes_ubs_det":"5"}],"geometry":{"type":"Point","coordinates":[-51.3444891572,-29.240527326035]}},{"type":"Feature","properties":[{"gid":"7779"},{"co_cnes":"2235013"},{"lat":"-27.8983104228965"},{"long":"-53.3181738853439"},{"no_fantasia":"ESF VII AMARAL"},{"no_logradouro":"RUA HILDEBRANDO WESTPHALEN"},{"nu_endereco":"S/N"},{"no_bairro":"VILA AMARAL"},{"nu_telefone":""},{"co_cep":"98300000"},{"uf":"RS"},{"cidade":"Palmeira das Missões"},{"ano_ubs_det":"2016"},{"mes_ubs_det":"5"}],"geometry":{"type":"Point","coordinates":[-53.318173885344,-27.898310422897]}},{"type":"Feature","properties":[{"gid":"7653"},{"co_cnes":"7904924"},{"lat":"-29.2231867"},{"long":"-51.3423619"},{"no_fantasia":"UNIDADE BASICA DE SAUDE BURATI"},{"no_logradouro":"PROLONGAMENTO DA RUA FIGUEIRA"},{"nu_endereco":"59"},{"no_bairro":"LOCALIDADE RIO BURAT"},{"nu_telefone":""},{"co_cep":"95181899"},{"uf":"RS"},{"cidade":"Farroupilha"},{"ano_ubs_det":"2016"},{"mes_ubs_det":"5"}],"geometry":{"type":"Point","coordinates":[-51.3423619,-29.2231867]}},{"type":"Feature","properties":[{"gid":"7872"},{"co_cnes":"2250039"},{"lat":"-28.0215203762046"},{"long":"-54.9361681938155"},{"no_fantasia":"POSTO DE SAUDE SAO PAULO DAS MISSOES AREA II"},{"no_logradouro":"RUA PRESIDENTE COSTA E SILVA"},{"nu_endereco":""},{"no_bairro":"CENTRO"},{"nu_telefone":"(55)35631122"},{"co_cep":"97980000"},{"uf":"RS"},{"cidade":"São Paulo das Missões"},{"ano_ubs_det":"2016"},{"mes_ubs_det":"5"}],"geometry":{"type":"Point","coordinates":[-54.936168193815,-28.021520376205]}},{"type":"Feature","properties":[{"gid":"7699"},{"co_cnes":"2251353"},{"lat":"-29.4561374187461"},{"long":"-51.9879484176621"},{"no_fantasia":"ESTRATEGIA DE SAUDE DA FAMILIA MONTANHA 2"},{"no_logradouro":"RUA JOAO SEBASTIANY"},{"nu_endereco":"1312"},{"no_bairro":"MONTANHA"},{"nu_telefone":"(51) 3982-1138"},{"co_cep":"95905028"},{"uf":"RS"},{"cidade":"Lajeado"},{"ano_ubs_det":"2016"},{"mes_ubs_det":"5"}],"geometry":{"type":"Point","coordinates":[-51.987948417662,-29.456137418746]}},{"type":"Feature","properties":[{"gid":"7862"},{"co_cnes":"7354223"},{"lat":"-29.841416322123"},{"long":"-51.132884323597"},{"no_fantasia":"ESF JOAO DE BARRO"},{"no_logradouro":"AVENIDA THEODOMIRO PORTO DA FONSECA"},{"nu_endereco":"1570"},{"no_bairro":"PASQUALINE"},{"nu_telefone":""},{"co_cep":"93224665"},{"uf":"RS"},{"cidade":"Sapucaia do Sul"},{"ano_ubs_det":"2016"},{"mes_ubs_det":"5"}],"geometry":{"type":"Point","coordinates":[-51.132884323597,-29.841416322123]}},{"type":"Feature","properties":[{"gid":"7614"},{"co_cnes":"2247909"},{"lat":"-30.2070486545554"},{"long":"-57.5508499145491"},{"no_fantasia":"CENTRO DE SAUDE DR ROBERTO VIEIRA PEREIRA"},{"no_logradouro":"RUA SALDANHA MARINHO"},{"nu_endereco":"19"},{"no_bairro":"CENTRO"},{"nu_telefone":"(55) 4191006"},{"co_cep":"97538000"},{"uf":"RS"},{"cidade":"Barra do Quaraí"},{"ano_ubs_det":"2016"},{"mes_ubs_det":"5"}],"geometry":{"type":"Point","coordinates":[-57.550849914549,-30.207048654555]}},{"type":"Feature","properties":[{"gid":"7826"},{"co_cnes":"2258331"},{"lat":"-28.2558159870126"},{"long":"-54.6168368777268"},{"no_fantasia":"CS SMS MATO QUEIMADO"},{"no_logradouro":"RUA MONSENHOR WOLSKI"},{"nu_endereco":"1205"},{"no_bairro":"CENTRO"},{"nu_telefone":"(55)33551370"},{"co_cep":"97935000"},{"uf":"RS"},{"cidade":"Mato Queimado"},{"ano_ubs_det":"2016"},{"mes_ubs_det":"5"}],"geometry":{"type":"Point","coordinates":[-54.616836877727,-28.255815987013]}},{"type":"Feature","properties":[{"gid":"7605"},{"co_cnes":"2241358"},{"lat":"-28.9316275195542"},{"long":"-54.5546989999907"},{"no_fantasia":"POSTO DE SAUDE DA SEDE ESF"},{"no_logradouro":"AVN TANCREDO NEVES"},{"nu_endereco":"1955"},{"no_bairro":"CENTRO"},{"nu_telefone":"(55) 3611.1060"},{"co_cep":"97753000"},{"uf":"RS"},{"cidade":"Capão do Cipó"},{"ano_ubs_det":"2016"},{"mes_ubs_det":"5"}],"geometry":{"type":"Point","coordinates":[-54.554698999991,-28.931627519554]}},{"type":"Feature","properties":[{"gid":"8002"},{"co_cnes":"6875327"},{"lat":"-27.3664173915436"},{"long":"-53.4020411968231"},{"no_fantasia":"POSTO DE SAUDE APARECIDA"},{"no_logradouro":"AVENIDA SAO PAULO LOTE N 15 QUADRA N 199"},{"nu_endereco":"S/N"},{"no_bairro":"APARECIDA"},{"nu_telefone":""},{"co_cep":"98400000"},{"uf":"RS"},{"cidade":"Frederico Westphalen"},{"ano_ubs_det":"2016"},{"mes_ubs_det":"5"}],"geometry":{"type":"Point","coordinates":[-53.402041196823,-27.366417391544]}},{"type":"Feature","properties":[{"gid":"8267"},{"co_cnes":"3061337"},{"lat":"-30.8913552761069"},{"long":"-55.5361890792831"},{"no_fantasia":"PRONTO ATENDIMENTO MEDICO PAM"},{"no_logradouro":"MANDUCA RODRIGUES"},{"nu_endereco":"535"},{"no_bairro":"CENTRO"},{"nu_telefone":""},{"co_cep":"97573560"},{"uf":"RS"},{"cidade":"Sant'Ana do Livramento"},{"ano_ubs_det":"2016"},{"mes_ubs_det":"5"}],"geometry":{"type":"Point","coordinates":[-55.536189079283,-30.891355276107]}},{"type":"Feature","properties":[{"gid":"8353"},{"co_cnes":"2230739"},{"lat":"-29.76"},{"long":"-51.147"},{"no_fantasia":"UNIDADE BASICA DE SAUDE RIO DOS SINOS ESF"},{"no_logradouro":"AV ATALIBIO TAURINO DE REZENDE"},{"nu_endereco":"1157"},{"no_bairro":"RIO DOS SINOS"},{"nu_telefone":"(51)35921296"},{"co_cep":"93135680"},{"uf":"RS"},{"cidade":"São Leopoldo"},{"ano_ubs_det":"2016"},{"mes_ubs_det":"5"}],"geometry":{"type":"Point","coordinates":[-51.147,-29.76]}},{"type":"Feature","properties":[{"gid":"8222"},{"co_cnes":"2701049"},{"lat":"-28.8151001930228"},{"long":"-53.3846282958969"},{"no_fantasia":"POSTO DE SAUDE DE BOA VISTA DO INCRA"},{"no_logradouro":"RUA DORMARIO BATU PEREIRA"},{"nu_endereco":"551"},{"no_bairro":"CENTRO"},{"nu_telefone":"(55)36131206"},{"co_cep":"98120000"},{"uf":"RS"},{"cidade":"Boa Vista do Incra"},{"ano_ubs_det":"2016"},{"mes_ubs_det":"5"}],"geometry":{"type":"Point","coordinates":[-53.384628295897,-28.815100193023]}},{"type":"Feature","properties":[{"gid":"8372"},{"co_cnes":"2245620"},{"lat":"-28.586575984954"},{"long":"-52.7793717384323"},{"no_fantasia":"POSTO DE SAUDE LINHA GLORIA LAGOA TRES CANTOS"},{"no_logradouro":"LINHA GLORIA"},{"nu_endereco":"00"},{"no_bairro":"DISTRITO"},{"nu_telefone":"54999740847"},{"co_cep":"99495000"},{"uf":"RS"},{"cidade":"Lagoa dos Três Cantos"},{"ano_ubs_det":"2016"},{"mes_ubs_det":"5"}],"geometry":{"type":"Point","coordinates":[-52.779371738432,-28.586575984954]}},{"type":"Feature","properties":[{"gid":"8171"},{"co_cnes":"3338126"},{"lat":"-27.9591536521903"},{"long":"-51.8003225326523"},{"no_fantasia":"UNIDADE BASICA DE SAUDE DR EUNICE KAROSS SANANDUVA"},{"no_logradouro":"RUA HERMINIO PICOLOTTO"},{"nu_endereco":"1140"},{"no_bairro":"SILOS"},{"nu_telefone":"5433432884"},{"co_cep":"99840000"},{"uf":"RS"},{"cidade":"Sananduva"},{"ano_ubs_det":"2016"},{"mes_ubs_det":"5"}],"geometry":{"type":"Point","coordinates":[-51.800322532652,-27.95915365219]}},{"type":"Feature","properties":[{"gid":"8172"},{"co_cnes":"5437229"},{"lat":"-30.0000572204581"},{"long":"-51.3054013252243"},{"no_fantasia":"UBS CLAUDIOMIRO KRASCHEFSKI NEGRO"},{"no_logradouro":"RUA BATORI JOSE RODRIGUES DOS SANTOS"},{"nu_endereco":"54"},{"no_bairro":"CIDADE VERDE"},{"nu_telefone":""},{"co_cep":"92990000"},{"uf":"RS"},{"cidade":"Eldorado do Sul"},{"ano_ubs_det":"2016"},