[{"type":"Feature","properties":[{"gid":"346"},{"co_cnes":"2477564"},{"lat":"-10.6173634529111"},{"long":"-37.6502752304066"},{"no_fantasia":"UNIDADE DE SAUDE DA FAMILIA JOVITA MARIA DE ALMEIDA"},{"no_logradouro":"POVOADO MANUINO"},{"nu_endereco":"S/N"},{"no_bairro":"ZONA RURAL"},{"nu_telefone":"(79)4591240"},{"co_cep":"49512000"},{"uf":"SE"},{"cidade":"Pedra Mole"},{"ano_ubs_det":"2016"},{"mes_ubs_det":"5"}],"geometry":{"type":"Point","coordinates":[-37.650275230407,-10.617363452911]}},{"type":"Feature","properties":[{"gid":"132"},{"co_cnes":"2476967"},{"lat":"-10.5060996319003"},{"long":"-37.0548329945789"},{"no_fantasia":"UNIDADE DE SAUDE DA FAMILIA CRUZ DO CONGO"},{"no_logradouro":"POVOADO CRUZ DO CONGO"},{"nu_endereco":"S/N"},{"no_bairro":"POVOADO CRUZ DO CONG"},{"nu_telefone":"(79)02631279"},{"co_cep":"49700000"},{"uf":"SE"},{"cidade":"Capela"},{"ano_ubs_det":"2016"},{"mes_ubs_det":"5"}],"geometry":{"type":"Point","coordinates":[-37.054832994579,-10.5060996319]}},{"type":"Feature","properties":[{"gid":"192"},{"co_cnes":"2477084"},{"lat":"-9.65410406729849"},{"long":"-37.7879637221177"},{"no_fantasia":"UNIDADE DE SAUDE DA FAMILIA ARLINDO BEZERRA DA SILVA"},{"no_logradouro":"RUA JOSE PEDRO DA SILVA"},{"nu_endereco":"S/N"},{"no_bairro":"AGROVILA"},{"nu_telefone":"(79) 3461960"},{"co_cep":"49820000"},{"uf":"SE"},{"cidade":"Canindé de São Francisco"},{"ano_ubs_det":"2016"},{"mes_ubs_det":"5"}],"geometry":{"type":"Point","coordinates":[-37.787963722118,-9.6541040672985]}},{"type":"Feature","properties":[{"gid":"205"},{"co_cnes":"5149843"},{"lat":"-10.295144319534"},{"long":"-37.2891640663136"},{"no_fantasia":"UNIDADE DE SAUDE DA FAMILIA DO POV MALHADA DO PAU FERRO"},{"no_logradouro":"POVOADO MALHADA DO PAU FERRO"},{"nu_endereco":"S/N"},{"no_bairro":"ZONA RURAL"},{"nu_telefone":""},{"co_cep":"49670000"},{"uf":"SE"},{"cidade":"Feira Nova"},{"ano_ubs_det":"2016"},{"mes_ubs_det":"5"}],"geometry":{"type":"Point","coordinates":[-37.289164066314,-10.295144319534]}},{"type":"Feature","properties":[{"gid":"744"},{"co_cnes":"2545942"},{"lat":"-11.0224306583401"},{"long":"-37.553093433379"},{"no_fantasia":"USF UNIDADE DE SAUDE DA FAMILIA DO POVOADO MANGUE GRANDE"},{"no_logradouro":"POVOADO MANGUE GRANDE"},{"nu_endereco":"S/N"},{"no_bairro":"POVOADO"},{"nu_telefone":"(79) 6451337"},{"co_cep":"49360000"},{"uf":"SE"},{"cidade":"Boquim"},{"ano_ubs_det":"2016"},{"mes_ubs_det":"5"}],"geometry":{"type":"Point","coordinates":[-37.553093433379,-11.02243065834]}},{"type":"Feature","properties":[{"gid":"776"},{"co_cnes":"2420953"},{"lat":"-11.5084576606747"},{"long":"-37.7077603340138"},{"no_fantasia":"U B S JOSE ALVES DO NASCIMENTO"},{"no_logradouro":"POV COLONIA"},{"nu_endereco":"S/N"},{"no_bairro":"POV COLONIA"},{"nu_telefone":"79-99805-0567"},{"co_cep":"49270000"},{"uf":"SE"},{"cidade":"Cristinápolis"},{"ano_ubs_det":"2016"},{"mes_ubs_det":"5"}],"geometry":{"type":"Point","coordinates":[-37.707760334014,-11.508457660675]}},{"type":"Feature","properties":[{"gid":"512"},{"co_cnes":"2423057"},{"lat":"-11.51625752449"},{"long":"-37.4571561813344"},{"no_fantasia":"POSTO DE SAUDE POVOADO PREGUICA"},{"no_logradouro":"POVOADO PREGUICA"},{"nu_endereco":"S/N"},{"no_bairro":"POVOADO"},{"nu_telefone":"7935431353"},{"co_cep":"49250000"},{"uf":"SE"},{"cidade":"Indiaroba"},{"ano_ubs_det":"2016"},{"mes_ubs_det":"5"}],"geometry":{"type":"Point","coordinates":[-37.457156181334,-11.51625752449]}},{"type":"Feature","properties":[{"gid":"928"},{"co_cnes":"2477912"},{"lat":"-11.267948649303"},{"long":"-37.4400108537292"},{"no_fantasia":"USF JULIO DOS SANTOS"},{"no_logradouro":"RUA SANTA LUZIA"},{"nu_endereco":"S/N"},{"no_bairro":"SANTA CRUZ"},{"nu_telefone":"(79)35223021"},{"co_cep":"49200000"},{"uf":"SE"},{"cidade":"Estância"},{"ano_ubs_det":"2016"},{"mes_ubs_det":"5"}],"geometry":{"type":"Point","coordinates":[-37.440010853729,-11.267948649303]}},{"type":"Feature","properties":[{"gid":"1178"},{"co_cnes":"2422603"},{"lat":"-10.3333844690911"},{"long":"-37.1658338623047"},{"no_fantasia":"UNIDADE BASICA DE SAUDE M DE GOIS MORAES"},{"no_logradouro":"RUA ANIZIO CARDOSO"},{"nu_endereco":"S/N"},{"no_bairro":"ZONA URBANA"},{"nu_telefone":"(79) 33621267"},{"co_cep":"49660000"},{"uf":"SE"},{"cidade":"Cumbe"},{"ano_ubs_det":"2016"},{"mes_ubs_det":"5"}],"geometry":{"type":"Point","coordinates":[-37.165833862305,-10.333384469091]}},{"type":"Feature","properties":[{"gid":"1956"},{"co_cnes":"2546213"},{"lat":"-10.3703963756558"},{"long":"-37.6853370666493"},{"no_fantasia":"USF POV MASSARANDUBA"},{"no_logradouro":"POVOADO MASSARANDUBA"},{"nu_endereco":"S/N"},{"no_bairro":"ZONA RURAL"},{"nu_telefone":""},{"co_cep":"49550000"},{"uf":"SE"},{"cidade":"Carira"},{"ano_ubs_det":"2016"},{"mes_ubs_det":"5"}],"geometry":{"type":"Point","coordinates":[-37.685337066649,-10.370396375656]}},{"type":"Feature","properties":[{"gid":"1923"},{"co_cnes":"2476916"},{"lat":"-10.5060996319003"},{"long":"-37.0548329945789"},{"no_fantasia":"UNIDADE DE SAUDE DA FAMILIA POVOADO MIRANDA"},{"no_logradouro":"RUA NOSSA SENHORA DA CONCEICAO"},{"nu_endereco":"460"},{"no_bairro":"POVOADO MIRANDA"},{"nu_telefone":"(79)02631279"},{"co_cep":"49700000"},{"uf":"SE"},{"cidade":"Capela"},{"ano_ubs_det":"2016"},{"mes_ubs_det":"5"}],"geometry":{"type":"Point","coordinates":[-37.054832994579,-10.5060996319]}},{"type":"Feature","properties":[{"gid":"1650"},{"co_cnes":"2421682"},{"lat":"-10.8981156349179"},{"long":"-37.1173524856557"},{"no_fantasia":"US DR LAURO MAIA"},{"no_logradouro":"RUA ALEXANDRE VASCONCELOS"},{"nu_endereco":"S/N"},{"no_bairro":"POVOADO SOBRADO"},{"nu_telefone":"(79) 2791007"},{"co_cep":"49160000"},{"uf":"SE"},{"cidade":"Nossa Senhora do Socorro"},{"ano_ubs_det":"2016"},{"mes_ubs_det":"5"}],"geometry":{"type":"Point","coordinates":[-37.117352485656,-10.898115634918]}},{"type":"Feature","properties":[{"gid":"2264"},{"co_cnes":"3010864"},{"lat":"-10.7017779350278"},{"long":"-37.0374011993397"},{"no_fantasia":"UNIDADE DE SAUDE DA FAMILIA DR JOSE FERNANDES ARAUJO"},{"no_logradouro":"AV HUMBERTO GOMES"},{"nu_endereco":"01"},{"no_bairro":"CENTRO"},{"nu_telefone":"(79)32742096"},{"co_cep":"49760000"},{"uf":"SE"},{"cidade":"Rosário do Catete"},{"ano_ubs_det":"2016"},{"mes_ubs_det":"5"}],"geometry":{"type":"Point","coordinates":[-37.03740119934,-10.701777935028]}},{"type":"Feature","properties":[{"gid":"2242"},{"co_cnes":"2421801"},{"lat":"-11.0328"},{"long":"-37.48241"},{"no_fantasia":"U S F DO POV MOENDAS"},{"no_logradouro":"POVOADO MOENDAS"},{"nu_endereco":"S/N"},{"no_bairro":"POVOADO"},{"nu_telefone":"(79)07613013"},{"co_cep":"49390000"},{"uf":"SE"},{"cidade":"Salgado"},{"ano_ubs_det":"2016"},{"mes_ubs_det":"5"}],"geometry":{"type":"Point","coordinates":[-37.48241,-11.0328]}},{"type":"Feature","properties":[{"gid":"2343"},{"co_cnes":"3425"},{"lat":"-11.09281"},{"long":"-37.12453"},{"no_fantasia":"US JOAO BEZERRA AREIA BRANCA"},{"no_logradouro":"ROD JOAO ALVES BEZERRA"},{"nu_endereco":"S/N"},{"no_bairro":"AREIA BRANCA"},{"nu_telefone":"(79)3179-2508"},{"co_cep":"49044000"},{"uf":"SE"},{"cidade":"Aracaju"},{"ano_ubs_det":"2016"},{"mes_ubs_det":"5"}],"geometry":{"type":"Point","coordinates":[-37.12453,-11.09281]}},{"type":"Feature","properties":[{"gid":"2143"},{"co_cnes":"7714556"},{"lat":"-10.6590053132917"},{"long":"-37.3060512542725"},{"no_fantasia":"UNIDADE BASICA DE SAUDE JOAO LUIZ DOS SANTOS"},{"no_logradouro":"POVOADO ANTAS"},{"nu_endereco":"S/N"},{"no_bairro":"ZONA RURAL"},{"nu_telefone":""},{"co_cep":"49570000"},{"uf":"SE"},{"cidade":"Malhador"},{"ano_ubs_det":"2016"},{"mes_ubs_det":"5"}],"geometry":{"type":"Point","coordinates":[-37.306051254272,-10.659005313292]}},{"type":"Feature","properties":[{"gid":"2140"},{"co_cnes":"2420481"},{"lat":"-10.6005513668057"},{"long":"-37.275903224944"},{"no_fantasia":"AUREA LIMA AZEVEDO"},{"no_logradouro":"POVOADO AREIAS"},{"nu_endereco":"S/N"},{"no_bairro":"CENTRO"},{"nu_telefone":"(07)92731349"},{"co_cep":"49640000"},{"uf":"SE"},{"cidade":"Santa Rosa de Lima"},{"ano_ubs_det":"2016"},{"mes_ubs_det":"5"}],"geometry":{"type":"Point","coordinates":[-37.275903224944,-10.600551366806]}},{"type":"Feature","properties":[{"gid":"2257"},{"co_cnes":"2422956"},{"lat":"-10.125306844711"},{"long":"-37.0989203453053"},{"no_fantasia":"CENTRO DE SAUDE"},{"no_logradouro":"RUA MANOEL ALVES DOS SANTOS"},{"nu_endereco":"103"},{"no_bairro":"MATIAS"},{"nu_telefone":"(79)3141258"},{"co_cep":"49870000"},{"uf":"SE"},{"cidade":"Itabi"},{"ano_ubs_det":"2016"},{"mes_ubs_det":"5"}],"geometry":{"type":"Point","coordinates":[-37.098920345305,-10.125306844711]}},{"type":"Feature","properties":[{"gid":"2743"},{"co_cnes":"2818957"},{"lat":"-9.84813809394808"},{"long":"-37.5286102294911"},{"no_fantasia":"UNIDADE DE SAUDE DA FAMILIA DO POV UMBUZEIRO DO MATUTO"},{"no_logradouro":"POVOADO UMBUZEIRO DO MATUTO"},{"nu_endereco":"S/N"},{"no_bairro":"ZONA RURAL"},{"nu_telefone":""},{"co_cep":"49800000"},{"uf":"SE"},{"cidade":"Porto da Folha"},{"ano_ubs_det":"2016"},{"mes_ubs_det":"5"}],"geometry":{"type":"Point","coordinates":[-37.528610229491,-9.8481380939481]}},{"type":"Feature","properties":[{"gid":"2465"},{"co_cnes":"2476932"},{"lat":"-10.5060996319003"},{"long":"-37.0548329945789"},{"no_fantasia":"CLINICA DE SAUDE DA FAMILIA DR NILTON CALUMBI TOURINHO"},{"no_logradouro":"RODOVIA MANOEL DANTAS"},{"nu_endereco":"S/N"},{"no_bairro":"CENTRO"},{"nu_telefone":"(79)30454031 /R 1030"},{"co_cep":"49700000"},{"uf":"SE"},{"cidade":"Capela"},{"ano_ubs_det":"2016"},{"mes_ubs_det":"5"}],"geometry":{"type":"Point","coordinates":[-37.054832994579,-10.5060996319]}},{"type":"Feature","properties":[{"gid":"3125"},{"co_cnes":"2477920"},{"lat":"-10.3158782272668"},{"long":"-36.5767181793652"},{"no_fantasia":"E S F PINDOBA"},{"no_logradouro":"RUA DO JASMIN"},{"nu_endereco":"S/N"},{"no_bairro":"POVOADO PINDOBA"},{"nu_telefone":"(79)3441277"},{"co_cep":"49980000"},{"uf":"SE"},{"cidade":"Neópolis"},{"ano_ubs_det":"2016"},{"mes_ubs_det":"5"}],"geometry":{"type":"Point","coordinates":[-36.576718179365,-10.315878227267]}},{"type":"Feature","properties":[{"gid":"2896"},{"co_cnes":"5459664"},{"lat":"-10.754231214523"},{"long":"-37.553629875182"},{"no_fantasia":"POSTO DE SAUDE LIMOEIRO"},{"no_logradouro":"POVOADO LIMOEIRO"},{"nu_endereco":"S/N"},{"no_bairro":"ZONA RURAL"},{"nu_telefone":""},{"co_cep":"49520000"},{"uf":"SE"},{"cidade":"Campo do Brito"},{"ano_ubs_det":"2016"},{"mes_ubs_det":"5"}],"geometry":{"type":"Point","coordinates":[-37.553629875182,-10.754231214523]}},{"type":"Feature","properties":[{"gid":"2817"},{"co_cnes":"2421755"},{"lat":"-10.8318972587582"},{"long":"-37.072205543517"},{"no_fantasia":"US JOSE ALVES DOS SANTOS"},{"no_logradouro":"AVENIDA PERIMETRAL"},{"nu_endereco":"315"},{"no_bairro":"TAICOCA DE DENTRO"},{"nu_telefone":"(79) 2106-7408/09"},{"co_cep":"49160000"},{"uf":"SE"},{"cidade":"Nossa Senhora do Socorro"},{"ano_ubs_det":"2016"},{"mes_ubs_det":"5"}],"geometry":{"type":"Point","coordinates":[-37.072205543517,-10.831897258758]}},{"type":"Feature","properties":[{"gid":"3426"},{"co_cnes":"2546035"},{"lat":"-10.4498997629294"},{"long":"-36.6479863948283"},{"no_fantasia":"UNIDADE BASICA DE SAUDE MARIA JOSE DE FRANCA"},{"no_logradouro":"POV PONTA DE AREIA"},{"nu_endereco":"S/N"},{"no_bairro":"RURAL"},{"nu_telefone":"(79) 33431323"},{"co_cep":"49970000"},{"uf":"SE"},{"cidade":"Pacatuba"},{"ano_ubs_det":"2016"},{"mes_ubs_det":"5"}],"geometry":{"type":"Point","coordinates":[-36.647986394828,-10.449899762929]}},{"type":"Feature","properties":[{"gid":"3290"},{"co_cnes":"4020707"},{"lat":"-10.7433351538523"},{"long":"-37.4963563345164"},{"no_fantasia":"POSTO DE SAUDE GARANGAU"},{"no_logradouro":"POVOADO GARANGAU"},{"nu_endereco":"01"},{"no_bairro":"ZONA RURAL"},{"nu_telefone":""},{"co_cep":"49520000"},{"uf":"SE"},{"cidade":"Campo do Brito"},{"ano_ubs_det":"2016"},{"mes_ubs_det":"5"}],"geometry":{"type":"Point","coordinates":[-37.496356334516,-10.743335153852]}},{"type":"Feature","properties":[{"gid":"3558"},{"co_cnes":"2420457"},{"lat":"-11.3680522747437"},{"long":"-37.8453707752723"},{"no_fantasia":"UNIDADE BASICA DE SAUDE JOAO VELAMES DE OLIVEIRA"},{"no_logradouro":"POV CAMPO GRANDE"},{"nu_endereco":"S/N"},{"no_bairro":"POV CAMPO GRANDE"},{"nu_telefone":"79-35451900"},{"co_cep":"49280000"},{"uf":"SE"},{"cidade":"Tomar do Geru"},{"ano_ubs_det":"2016"},{"mes_ubs_det":"5"}],"geometry":{"type":"Point","coordinates":[-37.845370775272,-11.368052274744]}},{"type":"Feature","properties":[{"gid":"3594"},{"co_cnes":"2476940"},{"lat":"-10.5060996319003"},{"long":"-37.0548329945789"},{"no_fantasia":"UNIDADE DE SAUDE DA FAMILIA POVOADO PIRUNGA"},{"no_logradouro":"POVOADO PIRUNGA"},{"nu_endereco":"S/N"},{"no_bairro":"POVOADO PIRUNGA"},{"nu_telefone":"(79)32631279"},{"co_cep":"49700000"},{"uf":"SE"},{"cidade":"Capela"},{"ano_ubs_det":"2016"},{"mes_ubs_det":"5"}],"geometry":{"type":"Point","coordinates":[-37.054832994579,-10.5060996319]}},{"type":"Feature","properties":[{"gid":"3618"},{"co_cnes":"6119492"},{"lat":"-11.0260248184201"},{"long":"-37.3277664184559"},{"no_fantasia":"USF DO POVOADO DURO"},{"no_logradouro":"POVOADO DURO"},{"nu_endereco":"S/N"},{"no_bairro":"ZONA RURAL"},{"nu_telefone":""},{"co_cep":"49120000"},{"uf":"SE"},{"cidade":"Itaporanga d'Ajuda"},{"ano_ubs_det":"2016"},{"mes_ubs_det":"5"}],"geometry":{"type":"Point","coordinates":[-37.327766418456,-11.02602481842]}},{"type":"Feature","properties":[{"gid":"3711"},{"co_cnes":"2421429"},{"lat":"-11.3916957378384"},{"long":"-37.6312208175648"},{"no_fantasia":"CLINICA DE SAUDE DA FAMILIA PEDRO ARAUJO DE FARIAS"},{"no_logradouro":"POVOADO PAU AMARELO"},{"nu_endereco":"S/N"},{"no_bairro":"ZONA RURAL"},{"nu_telefone":"(79)546 1276"},{"co_cep":"49260000"},{"uf":"SE"},{"cidade":"Umbaúba"},{"ano_ubs_det":"2016"},{"mes_ubs_det":"5"}],"geometry":{"type":"Point","coordinates":[-37.631220817565,-11.391695737838]}},{"type":"Feature","properties":[{"gid":"3755"},{"co_cnes":"2546167"},{"lat":"-10.6625318527219"},{"long":"-37.4537014961232"},{"no_fantasia":"UNIDADE PSF QUEIMADAS"},{"no_logradouro":"POVOADO QUEIMADAS"},{"nu_endereco":"S/N"},{"no_bairro":"RURAL"},{"nu_telefone":"(79)3431 3366"},{"co_cep":"49511899"},{"uf":"SE"},{"cidade":"Itabaiana"},{"ano_ubs_det":"2016"},{"mes_ubs_det":"5"}],"geometry":{"type":"Point","coordinates":[-37.453701496123,-10.662531852722]}},{"type":"Feature","properties":[{"gid":"4294"},{"co_cnes":"2423146"},{"lat":"-11.4401471614834"},{"long":"-37.5299835205067"},{"no_fantasia":"POSTO DE SAUDE POVOADO COLONIA BOA VISTA"},{"no_logradouro":"POVOADO COLONIA BOA VISTA"},{"nu_endereco":"15"},{"no_bairro":"POVOADO"},{"nu_telefone":"7935431353"},{"co_cep":"49250000"},{"uf":"SE"},{"cidade":"Indiaroba"},{"ano_ubs_det":"2016"},{"mes_ubs_det":"5"}],"geometry":{"type":"Point","coordinates":[-37.529983520507,-11.440147161483]}},{"type":"Feature","properties":[{"gid":"4125"},{"co_cnes":"3337421"},{"lat":"-11.0126996040341"},{"long":"-37.4578857421864"},{"no_fantasia":"U S F DO POV QUEBRADAS IV"},{"no_logradouro":"POVOADO QUEBRADAS IV"},{"nu_endereco":"S/N"},{"no_bairro":"POVOADO"},{"nu_telefone":"(79)6511499"},{"co_cep":"49390000"},{"uf":"SE"},{"cidade":"Salgado"},{"ano_ubs_det":"2016"},{"mes_ubs_det":"5"}],"geometry":{"type":"Point","coordinates":[-37.457885742186,-11.012699604034]}},{"type":"Feature","properties":[{"gid":"4400"},{"co_cnes":"2423081"},{"lat":"-11.5185072682496"},{"long":"-37.5150947928792"},{"no_fantasia":"UNIDADE DE SAUDE DA FAMILIA POVOADO COLONIA SERGIPE"},{"no_logradouro":"POVOADO COLONIA SERGIPE"},{"nu_endereco":"15"},{"no_bairro":"POVOADO"},{"nu_telefone":"7935431353"},{"co_cep":"49250000"},{"uf":"SE"},{"cidade":"Indiaroba"},{"ano_ubs_det":"2016"},{"mes_ubs_det":"5"}],"geometry":{"type":"Point","coordinates":[-37.515094792879,-11.51850726825]}},{"type":"Feature","properties":[{"gid":"4189"},{"co_cnes":"2421240"},{"lat":"-10.5133473873135"},{"long":"-37.4977540969838"},{"no_fantasia":"POSTO DE SAUDE GEVANDA DO NASCIMENTO"},{"no_logradouro":"RIACHINHO"},{"nu_endereco":"S/N"},{"no_bairro":"RURAL"},{"nu_telefone":"79 3449-1480"},{"co_cep":"49530000"},{"uf":"SE"},{"cidade":"Ribeirópolis"},{"ano_ubs_det":"2016"},{"mes_ubs_det":"5"}],"geometry":{"type":"Point","coordinates":[-37.497754096984,-10.513347387313]}},{"type":"Feature","properties":[{"gid":"4670"},{"co_cnes":"2423219"},{"lat":"-10.9221160411832"},{"long":"-37.1068167686452"},{"no_fantasia":"U S F MASOUD JALALI"},{"no_logradouro":"RUA HORACIO DE SOUZA LIMA"},{"nu_endereco":"S/N"},{"no_bairro":"ROSA ELZE"},{"nu_telefone":"(79)32574352"},{"co_cep":"49100000"},{"uf":"SE"},{"cidade":"São Cristóvão"},{"ano_ubs_det":"2016"},{"mes_ubs_det":"5"}],"geometry":{"type":"Point","coordinates":[-37.106816768645,-10.922116041183]}},{"type":"Feature","properties":[{"gid":"4655"},{"co_cnes":"4020685"},{"lat":"-10.7433351538523"},{"long":"-37.4963563345164"},{"no_fantasia":"POSTO DE SAUDE TERRA VERMELHA"},{"no_logradouro":"POVOADO TERRA VERMELHA"},{"nu_endereco":"S/N"},{"no_bairro":"ZONA RURAL"},{"nu_telefone":""},{"co_cep":"49520000"},{"uf":"SE"},{"cidade":"Campo do Brito"},{"ano_ubs_det":"2016"},{"mes_ubs_det":"5"}],"geometry":{"type":"Point","coordinates":[-37.496356334516,-10.743335153852]}},{"type":"Feature","properties":[{"gid":"4682"},{"co_cnes":"2421674"},{"lat":"-10.8696892"},{"long":"-37.1658336"},{"no_fantasia":"US DR EDUARDO VITAL DE MELO"},{"no_logradouro":"RUA J"},{"nu_endereco":"100"},{"no_bairro":"JARDIM I"},{"nu_telefone":"(79)21067400/08"},{"co_cep":"49160000"},{"uf":"SE"},{"cidade":"Nossa Senhora do Socorro"},{"ano_ubs_det":"2016"},{"mes_ubs_det":"5"}],"geometry":{"type":"Point","coordinates":[-37.1658336,-10.8696892]}},{"type":"Feature","properties":[{"gid":"4722"},{"co_cnes":"2477181"},{"lat":"-10.4366254806516"},{"long":"-36.5346693992604"},{"no_fantasia":"CSF LUIZ FERREIRA LISBOA"},{"no_logradouro":"PRACA SAO ROQUE"},{"nu_endereco":"115"},{"no_bairro":"CENTRO"},{"nu_telefone":"(79)33771136"},{"co_cep":"49990000"},{"uf":"SE"},{"cidade":"Ilha das Flores"},{"ano_ubs_det":"2016"},{"mes_ubs_det":"5"}],"geometry":{"type":"Point","coordinates":[-36.53466939926,-10.436625480652]}},{"type":"Feature","properties":[{"gid":"4887"},{"co_cnes":"6119549"},{"lat":"-10.8562839031216"},{"long":"-37.3451256752003"},{"no_fantasia":"POSTO DE SAUDE DO POVOADO 8 DE MARCO"},{"no_logradouro":"POVOADO 8 DE MARCO"},{"nu_endereco":"S/N"},{"no_bairro":"ZONA RURAL"},{"nu_telefone":""},{"co_cep":"49120000"},{"uf":"SE"},{"cidade":"Itaporanga d'Ajuda"},{"ano_ubs_det":"2016"},{"mes_ubs_det":"5"}],"geometry":{"type":"Point","coordinates":[-37.3451256752,-10.856283903122]}},{"type":"Feature","properties":[{"gid":"5085"},{"co_cnes":"2545853"},{"lat":"-11.3533173973413"},{"long":"-37.4498421802076"},{"no_fantasia":"UNID DE SAUDE DA F POV PICARREIRA"},{"no_logradouro":"BR 101 CAMBUI"},{"nu_endereco":"S/N"},{"no_bairro":"ZONA RURAL"},{"nu_telefone":"(79)5481210"},{"co_cep":"49230000"},{"uf":"SE"},{"cidade":"Santa Luzia do Itanhy"},{"ano_ubs_det":"2016"},{"mes_ubs_det":"5"}],"geometry":{"type":"Point","coordinates":[-37.449842180208,-11.353317397341]}},{"type":"Feature","properties":[{"gid":"4894"},{"co_cnes":"2422042"},{"lat":"-11.1843298680994"},{"long":"-37.9990006951017"},{"no_fantasia":"UNIDADE BASICA DE SAUDE LAURA MARIA DE JESUS"},{"no_logradouro":"POVOADO SAMAMBAIA"},{"nu_endereco":"S/N"},{"no_bairro":"ZONA RURAL"},{"nu_telefone":"(79)35411220"},{"co_cep":"49300000"},{"uf":"SE"},{"cidade":"Tobias Barreto"},{"ano_ubs_det":"2016"},{"mes_ubs_det":"5"}],"geometry":{"type":"Point","coordinates":[-37.999000695102,-11.184329868099]}},{"type":"Feature","properties":[{"gid":"5509"},{"co_cnes":"2476959"},{"lat":"-10.5060996319003"},{"long":"-37.0548329945789"},{"no_fantasia":"CLINICA DE SAUDE DA FAMILIA DR GERALDO LUIZ SOUZA MOTA"},{"no_logradouro":"AV QUINTINO BOCAIUVA"},{"nu_endereco":"740"},{"no_bairro":"CENTRO"},{"nu_telefone":"(79)32631279"},{"co_cep":"49700000"},{"uf":"SE"},{"cidade":"Capela"},{"ano_ubs_det":"2016"},{"mes_ubs_det":"5"}],"geometry":{"type":"Point","coordinates":[-37.054832994579,-10.5060996319]}},{"type":"Feature","properties":[{"gid":"5534"},{"co_cnes":"3292835"},{"lat":"-11.275122"},{"long":"-37.7879244"},{"no_fantasia":"UNIDADE DE SAUDE DA FAMILIA CARLOS ROBERTO CARVALHO SILVA"},{"no_logradouro":"CONJUNTO LEONOR BARRETO FRANCO RUA A"},{"nu_endereco":"10"},{"no_bairro":"CONVENIENCIA"},{"nu_telefone":"(79)5442338"},{"co_cep":"49290000"},{"uf":"SE"},{"cidade":"Itabaianinha"},{"ano_ubs_det":"2016"},{"mes_ubs_det":"5"}],"geometry":{"type":"Point","coordinates":[-37.7879244,-11.275122]}},{"type":"Feature","properties":[{"gid":"5287"},{"co_cnes":"2422905"},{"lat":"-11.2663599"},{"long":"-37.4487216"},{"no_fantasia":"CENTRO DE REFERENCIA MIN LEONOR B FRANCO"},{"no_logradouro":"TV CAMILO CALAZANS"},{"nu_endereco":"S/N"},{"no_bairro":"CIDADE NOVA"},{"nu_telefone":"(79)35221234"},{"co_cep":"49200000"},{"uf":"SE"},{"cidade":"Estância"},{"ano_ubs_det":"2016"},{"mes_ubs_det":"5"}],"geometry":{"type":"Point","coordinates":[-37.4487216,-11.2663599]}},{"type":"Feature","properties":[{"gid":"5813"},{"co_cnes":"2422662"},{"lat":"-10.2925180922231"},{"long":"-37.0221808560785"},{"no_fantasia":"USF SACO DE AREIA"},{"no_logradouro":"POVOADO SACO DE AREIA"},{"nu_endereco":"S/N"},{"no_bairro":"ZONA RURAL"},{"nu_telefone":""},{"co_cep":"49790000"},{"uf":"SE"},{"cidade":"Aquidabã"},{"ano_ubs_det":"2016"},{"mes_ubs_det":"5"}],"geometry":{"type":"Point","coordinates":[-37.022180856078,-10.292518092223]}},{"type":"Feature","properties":[{"gid":"5809"},{"co_cnes":"2477645"},{"lat":"-10.4263607"},{"long":"-36.8468018"},{"no_fantasia":"UNIDADE DE SAUDE DA FAMILIA OZEIAS ALVES DOS SANTOS"},{"no_logradouro":"POVOADO POXIM"},{"nu_endereco":"S/N"},{"no_bairro":"RURAL"},{"nu_telefone":"(79) 3348-1069"},{"co_cep":"49950000"},{"uf":"SE"},{"cidade":"Japoatã"},{"ano_ubs_det":"2016"},{"mes_ubs_det":"5"}],"geometry":{"type":"Point","coordinates":[-36.8468018,-10.4263607]}},{"type":"Feature","properties":[{"gid":"6054"},{"co_cnes":"2423421"},{"lat":"-11.3533173973413"},{"long":"-37.4498421802076"},{"no_fantasia":"UNID DE SAUDE DA F POV PRIAPU"},{"no_logradouro":"POV PRIAPU"},{"nu_endereco":"S/N"},{"no_bairro":"ZONA RURAL"},{"nu_telefone":"( 7)95481210"},{"co_cep":"49230000"},{"uf":"SE"},{"cidade":"Santa Luzia do Itanhy"},{"ano_ubs_det":"2016"},{"mes_ubs_det":"5"}],"geometry":{"type":"Point","coordinates":[-37.449842180208,-11.353317397341]}},{"type":"Feature","properties":[{"gid":"6009"},{"co_cnes":"2612356"},{"lat":"-11.0023355484006"},{"long":"-37.2136330604542"},{"no_fantasia":"U S F DR JOSE RAIMUNDO ARAGAO"},{"no_logradouro":"AV HORACIO SOUZA LIMA"},{"nu_endereco":"S/N"},{"no_bairro":"ALTO DA DIVINEIA"},{"nu_telefone":""},{"co_cep":"49100000"},{"uf":"SE"},{"cidade":"São Cristóvão"},{"ano_ubs_det":"2016"},{"mes_ubs_det":"5"}],"geometry":{"type":"Point","coordinates":[-37.213633060454,-11.002335548401]}},{"type":"Feature","properties":[{"gid":"6631"},{"co_cnes":"2421372"},{"lat":"-10.8128491140086"},{"long":"-37.1433337032795"},{"no_fantasia":"UNIDADE DE SAUDE DA FAMILIA DR JOSE ARAGAO FIGUEIREDO"},{"no_logradouro":"RODOVIA WALTER FRANCO"},{"nu_endereco":"S/N"},{"no_bairro":"POVOADO PASTORA"},{"nu_telefone":""},{"co_cep":"49170000"},{"uf":"SE"},{"cidade":"Laranjeiras"},{"ano_ubs_det":"2016"},{"mes_ubs_det":"5"}],"geometry":{"type":"Point","coordinates":[-37.143333703279,-10.812849114009]}},{"type":"Feature","properties":[{"gid":"6632"},{"co_cnes":"2477114"},{"lat":"-9.65410406729849"},{"long":"-37.7879637221177"},{"no_fantasia":"UNIDADE SAUDE DA FAMILIA FRANCELINA LISBOA"},{"no_logradouro":"RUA SANTO ANTONIO"},{"nu_endereco":"S/N"},{"no_bairro":"CURITUBA"},{"nu_telefone":"(79) 3461960"},{"co_cep":"49820000"},{"uf":"SE"},{"cidade":"Canindé de São Francisco"},{"ano_ubs_det":"2016"},{"mes_ubs_det":"5"}],"geometry":{"type":"Point","coordinates":[-37.787963722118,-9.6541040672985]}},{"type":"Feature","properties":[{"gid":"6617"},{"co_cnes":"2545950"},{"lat":"-11.1547923088071"},{"long":"-37.5893998146046"},{"no_fantasia":"USF UNIDADE DE SAUDE DA FAMILIA DO POVOADO TABOCA"},{"no_logradouro":"POVOADO TABOCA"},{"nu_endereco":"S/N"},{"no_bairro":"POVOADO"},{"nu_telefone":"(79)6451337"},{"co_cep":"49360000"},{"uf":"SE"},{"cidade":"Boquim"},{"ano_ubs_det":"2016"},{"mes_ubs_det":"5"}],"geometry":{"type":"Point","coordinates":[-37.589399814605,-11.154792308807]}},{"type":"Feature","properties":[{"gid":"7132"},{"co_cnes":"4020693"},{"lat":"-10.7498323917386"},{"long":"-37.5643372535695"},{"no_fantasia":"POSTO DE SAUDE CERCADO"},{"no_logradouro":"POVOADO CERCADO"},{"nu_endereco":"S/N"},{"no_bairro":"ZONA RURAL"},{"nu_telefone":""},{"co_cep":"49520000"},{"uf":"SE"},{"cidade":"Campo do Brito"},{"ano_ubs_det":"2016"},{"mes_ubs_det":"5"}],"geometry":{"type":"Point","coordinates":[-37.564337253569,-10.749832391739]}},{"type":"Feature","properties":[{"gid":"6829"},{"co_cnes":"7288174"},{"lat":"-10.658"},{"long":"-37.305"},{"no_fantasia":"UNIDADE BASICA DE SAUDE POVOADO SIEBRA"},{"no_logradouro":"POVOADO SIEBRA"},{"nu_endereco":"S/N"},{"no_bairro":"ZONA RURAL"},{"nu_telefone":""},{"co_cep":"49570000"},{"uf":"SE"},{"cidade":"Malhador"},{"ano_ubs_det":"2016"},{"mes_ubs_det":"5"}],"geometry":{"type":"Point","coordinates":[-37.305,-10.658]}},{"type":"Feature","properties":[{"gid":"7014"},{"co_cnes":"2497158"},{"lat":"-10.8333349227902"},{"long":"-37.0636653900136"},{"no_fantasia":"US HEITOR DIAS SOARES"},{"no_logradouro":"AV VINTE E OITO"},{"nu_endereco":"S/N"},{"no_bairro":"ALBANO FRANCO"},{"nu_telefone":"(79) 21067400"},{"co_cep":"49160000"},{"uf":"SE"},{"cidade":"Nossa Senhora do Socorro"},{"ano_ubs_det":"2016"},{"mes_ubs_det":"5"}],"geometry":{"type":"Point","coordinates":[-37.063665390014,-10.83333492279]}},{"type":"Feature","properties":[{"gid":"7567"},{"co_cnes":"2497166"},{"lat":"-10.5391502380368"},{"long":"-37.4396038055409"},{"no_fantasia":"CLINICA DE SAUDE DR DIJAUME FRANCISCO DE LIMA"},{"no_logradouro":"RUA ANTONIO MENDONCA"},{"nu_endereco":"S/N"},{"no_bairro":"CENTRO"},{"nu_telefone":"793449-1480"},{"co_cep":"49530000"},{"uf":"SE"},{"cidade":"Ribeirópolis"},{"ano_ubs_det":"2016"},{"mes_ubs_det":"5"}],"geometry":{"type":"Point","coordinates":[-37.439603805541,-10.539150238037]}},{"type":"Feature","properties":[{"gid":"7538"},{"co_cnes":"2421623"},{"lat":"-10.8558225631711"},{"long":"-37.125334739684"},{"no_fantasia":"USEX COMBATENTE 2 TEN WALTER JOSE DE OLIVEIRA SR MANINHO"},{"no_logradouro":"RUA DR MANOEL DOS PASSOS"},{"nu_endereco":"S/N"},{"no_bairro":"CENTRO"},{"nu_telefone":"(79) 21067436"},{"co_cep":"49160000"},{"uf":"SE"},{"cidade":"Nossa Senhora do Socorro"},{"ano_ubs_det":"2016"},{"mes_ubs_det":"5"}],"geometry":{"type":"Point","coordinates":[-37.125334739684,-10.855822563171]}},{"type":"Feature","properties":[{"gid":"7647"},{"co_cnes":"2477254"},{"lat":"-10.5769264698025"},{"long":"-37.3502111434926"},{"no_fantasia":"UNIDADE DE SAUDE DA FAMILIA SERAPIAO ANTONIO DE GOIS"},{"no_logradouro":"AV JOAO EVANGELISTA DA COSTA"},{"nu_endereco":"S/N"},{"no_bairro":"CENTRO"},{"nu_telefone":"(79)34531374"},{"co_cep":"49560000"},{"uf":"SE"},{"cidade":"Moita Bonita"},{"ano_ubs_det":"2016"},{"mes_ubs_det":"5"}],"geometry":{"type":"Point","coordinates":[-37.350211143493,-10.576926469802]}},{"type":"Feature","properties":[{"gid":"7674"},{"co_cnes":"2423251"},{"lat":"-10.9610939025876"},{"long":"-37.1302700042714"},{"no_fantasia":"U S F JOSE AUGUSTO BARRETO CABRITA"},{"no_logradouro":"POVOADO CABRITA"},{"nu_endereco":"S/N"},{"no_bairro":"POVOADO CABRTITA"},{"nu_telefone":""},{"co_cep":"49100000"},{"uf":"SE"},{"cidade":"São Cristóvão"},{"ano_ubs_det":"2016"},{"mes_ubs_det":"5"}],"geometry":{"type":"Point","coordinates":[-37.130270004271,-10.961093902588]}},{"type":"Feature","properties":[{"gid":"7673"},{"co_cnes":"2421348"},{"lat":"-10.8021247386929"},{"long":"-37.1673274040211"},{"no_fantasia":"UNIDADE DE SAUDE DA FAMILIA JOSE MUNIZ BARRETO"},{"no_logradouro":"RUA SIQUEIRA DE MENEZES"},{"nu_endereco":"S/N"},{"no_bairro":"CENTRO"},{"nu_telefone":"( )"},{"co_cep":"49170000"},{"uf":"SE"},{"cidade":"Laranjeiras"},{"ano_ubs_det":"2016"},{"mes_ubs_det":"5"}],"geometry":{"type":"Point","coordinates":[-37.167327404021,-10.802124738693]}},{"type":"Feature","properties":[{"gid":"7633"},{"co_cnes":"2423049"},{"lat":"-11.5115654735002"},{"long":"-37.4573493003845"},{"no_fantasia":"POSTO DE SAUDE POVOADO MURICOCA"},{"no_logradouro":"POVOADO MURICOCA"},{"nu_endereco":"S/N"},{"no_bairro":"POVOADO"},{"nu_telefone":"7935431353"},{"co_cep":"49250000"},{"uf":"SE"},{"cidade":"Indiaroba"},{"ano_ubs_det":"2016"},{"mes_ubs_det":"5"}],"geometry":{"type":"Point","coordinates":[-37.457349300385,-11.5115654735]}},{"type":"Feature","properties":[{"gid":"7976"},{"co_cnes":"2422042"},{"lat":"-11.1843298680994"},{"long":"-37.9990006951017"},{"no_fantasia":"UNIDADE BASICA DE SAUDE LAURA MARIA DE JESUS"},{"no_logradouro":"POVOADO SAMAMBAIA"},{"nu_endereco":"S/N"},{"no_bairro":"ZONA RURAL"},{"nu_telefone":"(79)35411220"},{"co_cep":"49300000"},{"uf":"SE"},{"cidade":"Tobias Barreto"},{"ano_ubs_det":"2016"},{"mes_ubs_det":"5"}],"geometry":{"type":"Point","coordinates":[-37.999000695102,-11.184329868099]}},{"type":"Feature","properties":[{"gid":"8349"},{"co_cnes":"2421895"},{"lat":"-11.0221187749041"},{"long":"-37.4777553588879"},{"no_fantasia":"U S F DO POV SAO BENTO"},{"no_logradouro":"POVOADO SAO BENTO"},{"nu_endereco":"S/N"},{"no_bairro":"POVOADO"},{"nu_telefone":"(79)07613030"},{"co_cep":"49390000"},{"uf":"SE"},{"cidade":"Salgado"},{"ano_ubs_det":"2016"},{"mes_ubs_det":"5"}],"geometry":{"type":"Point","coordinates":[-37.477755358888,-11.022118774904]}},{"type":"Feature","properties":[{"gid":"8314"},{"co_cnes":"2423618"},{"lat":"-10.5400847468846"},{"long":"-37.5418762486803"},{"no_fantasia":"CENTRO DE SAUDE 1"},{"no_logradouro":"RUA JOSE ROSENDO DOS SANTOS"},{"nu_endereco":"171"},{"no_bairro":"CENTRO"},{"nu_telefone":"(79)34471341/1638"},{"co_cep":"49514000"},{"uf":"SE"},{"cidade":"Frei Paulo"},{"ano_ubs_det":"2016"},{"mes_ubs_det":"5"}],"geometry":{"type":"Point","coordinates":[-37.54187624868,-10.540084746885]}},{"type":"Feature","properties":[{"gid":"8405"},{"co_cnes":"2422581"},{"lat":"-10.2082073153137"},{"long":"-36.8420993590988"},{"no_fantasia":"UNIDADE DE SAUDE DA FAMILIA DRA VIOLETA GUSMAO"},{"no_logradouro":"RUA PROF PORFIRIO DE BRITTO"},{"nu_endereco":"S/N"},{"no_bairro":"ALTO DO ARACAJU"},{"nu_telefone":"(79)33221833"},{"co_cep":"49900000"},{"uf":"SE"},{"cidade":"Propriá"},{"ano_ubs_det":"2016"},{"mes_ubs_det":"5"}],"geometry":{"type":"Point","coordinates":[-36.842099359099,-10.208207315314]}},{"type":"Feature","properties":[{"gid":"9038"},{"co_cnes":"2612291"},{"lat":"-10.4338467121121"},{"long":"-36.5451407432546"},{"no_fantasia":"USF POV BOLIVA"},{"no_logradouro":"POVOADO BOLIVAR"},{"nu_endereco":"0001"},{"no_bairro":"POVOADO BOLIVAR"},{"nu_telefone":"(79)33771277"},{"co_cep":"49990000"},{"uf":"SE"},{"cidade":"Ilha das Flores"},{"ano_ubs_det":"2016"},{"mes_ubs_det":"5"}],"geometry":{"type":"Point","coordinates":[-36.545140743255,-10.433846712112]}},{"type":"Feature","properties":[{"gid":"8864"},{"co_cnes":"2422204"},{"lat":"-10.6050355731006"},{"long":"-37.1122253407609"},{"no_fantasia":"UNIDADE DE SAUDE DA FAMILIA DO POV LAGOA GRANDE"},{"no_logradouro":"POVOADO LAGOA GRANDE"},{"nu_endereco":"S/N"},{"no_bairro":"POVOADO"},{"nu_telefone":"(79)996394879"},{"co_cep":"49630000"},{"uf":"SE"},{"cidade":"Siriri"},{"ano_ubs_det":"2016"},{"mes_ubs_det":"5"}],"geometry":{"type":"Point","coordinates":[-37.112225340761,-10.605035573101]}},{"type":"Feature","properties":[{"gid":"8996"},{"co_cnes":"2421313"},{"lat":"-10.7632858113462"},{"long":"-37.1608257293701"},{"no_fantasia":"UNIDADE DE SAUDE DA FAMILIA BOM JESUS"},{"no_logradouro":"POVOADO BOM JESUS"},{"nu_endereco":"S/N"},{"no_bairro":"POVOADO BOM JESUS"},{"nu_telefone":"(79)2811 052"},{"co_cep":"49170000"},{"uf":"SE"},{"cidade":"Laranjeiras"},{"ano_ubs_det":"2016"},{"mes_ubs_det":"5"}],"geometry":{"type":"Point","coordinates":[-37.16082572937,-10.763285811346]}},{"type":"Feature","properties":[{"gid":"9357"},{"co_cnes":"2545888"},{"lat":"-11.0221187749041"},{"long":"-37.4777553588879"},{"no_fantasia":"U S F DO POV AGUA FRIA"},{"no_logradouro":"POVOADO"},{"nu_endereco":"S/N"},{"no_bairro":"POVOADO"},{"nu_telefone":"( )"},{"co_cep":"49390000"},{"uf":"SE"},{"cidade":"Salgado"},{"ano_ubs_det":"2016"},{"mes_ubs_det":"5"}],"geometry":{"type":"Point","coordinates":[-37.477755358888,-11.022118774904]}},{"type":"Feature","properties":[{"gid":"9599"},{"co_cnes":"2477017"},{"lat":"-10.7988846302029"},{"long":"-37.3812389373768"},{"no_fantasia":"UNIDADE DE SAUDE DA FAMILIA MESTRE ELIAS"},{"no_logradouro":"ZONA RURAL POVOADO CAJUEIRO"},{"nu_endereco":"S/N"},{"no_bairro":"ZONA RURAL"},{"nu_telefone":""},{"co_cep":"49580000"},{"uf":"SE"},{"cidade":"Areia Branca"},{"ano_ubs_det":"2016"},{"mes_ubs_det":"5"}],"geometry":{"type":"Point","coordinates":[-37.381238937377,-10.798884630203]}},{"type":"Feature","properties":[{"gid":"9304"},{"co_cnes":"2421690"},{"lat":"-10.8487541757333"},{"long":"-37.1284961300464"},{"no_fantasia":"US MUGIVAL MESSIAS DOS SANTOS"},{"no_logradouro":"AVENIDA 5"},{"nu_endereco":"S/N"},{"no_bairro":"COMPLEXO TAICOCA"},{"nu_telefone":"(79) 21067400"},{"co_cep":"49160000"},{"uf":"SE"},{"cidade":"Nossa Senhora do Socorro"},{"ano_ubs_det":"2016"},{"mes_ubs_det":"5"}],"geometry":{"type":"Point","coordinates":[-37.128496130046,-10.848754175733]}},{"type":"Feature","properties":[{"gid":"9583"},{"co_cnes":"6119581"},{"lat":"-11.01124048233"},{"long":"-37.3278951644887"},{"no_fantasia":"POSTO DE SAUDE DO POVOADO ARATICUM"},{"no_logradouro":"POVOADO ARATICUM"},{"nu_endereco":"S/N"},{"no_bairro":"ZONA RURAL"},{"nu_telefone":""},{"co_cep":"49120000"},{"uf":"SE"},{"cidade":"Itaporanga d'Ajuda"},{"ano_ubs_det":"2016"},{"mes_ubs_det":"5"}],"geometry":{"type":"Point","coordinates":[-37.327895164489,-11.01124048233]}},{"type":"Feature","properties":[{"gid":"9810"},{"co_cnes":"7109148"},{"lat":"-11.0116335432621"},{"long":"-37.3099136352539"},{"no_fantasia":"UBS SAUDE DA FAMILIA GETULIO SAVIO SOBRAL"},{"no_logradouro":"LOTEAMENTO SANTO ANTONIO"},{"nu_endereco":"S/N"},{"no_bairro":"CENTRO"},{"nu_telefone":""},{"co_cep":"49120000"},{"uf":"SE"},{"cidade":"Itaporanga d'Ajuda"},{"ano_ubs_det":"2016"},{"mes_ubs_det":"5"}],"geometry":{"type":"Point","coordinates":[-37.309913635254,-11.011633543262]}},{"type":"Feature","properties":[{"gid":"10070"},{"co_cnes":"2612364"},{"lat":"-11.3186109066006"},{"long":"-37.680423259734"},{"no_fantasia":"UNIDADE DE SAUDE DA FAMILIA DO POVOADO CAMBOATA"},{"no_logradouro":"POVOADO CAMBOATA"},{"nu_endereco":"124"},{"no_bairro":"ZONA RURAL"},{"nu_telefone":""},{"co_cep":"49220000"},{"uf":"SE"},{"cidade":"Arauá"},{"ano_ubs_det":"2016"},{"mes_ubs_det":"5"}],"geometry":{"type":"Point","coordinates":[-37.680423259734,-11.318610906601]}},{"type":"Feature","properties":[{"gid":"10642"},{"co_cnes":"2476908"},{"lat":"-10.5060996319003"},{"long":"-37.0548329945789"},{"no_fantasia":"CLINICA DE SAUDE DA FAMILIA MARIA LEONTINA DE OLIVEIRA"},{"no_logradouro":"RUA DA PAZ"},{"nu_endereco":"S/N"},{"no_bairro":"CENTRO"},{"nu_telefone":"(79)30454031/R1032"},{"co_cep":"49700000"},{"uf":"SE"},{"cidade":"Capela"},{"ano_ubs_det":"2016"},{"mes_ubs_det":"5"}],"geometry":{"type":"Point","coordinates":[-37.054832994579,-10.5060996319]}},{"type":"Feature","properties":[{"gid":"10958"},{"co_cnes":"6024335"},{"lat":"-10.4816222190854"},{"long":"-37.1874332427968"},{"no_fantasia":"CENTRO DE SAUDE DR LAURO DE BRITTO PORTO"},{"no_logradouro":"PISTA DE CAPELA"},{"nu_endereco":"5411"},{"no_bairro":"CAMPO VELHO"},{"nu_telefone":"(79)3265-1402"},{"co_cep":"49600000"},{"uf":"SE"},{"cidade":"Nossa Senhora das Dores"},{"ano_ubs_det":"2016"},{"mes_ubs_det":"5"}],"geometry":{"type":"Point","coordinates":[-37.187433242797,-10.481622219085]}},{"type":"Feature","properties":[{"gid":"10975"},{"co_cnes":"2476878"},{"lat":"-10.4942178726193"},{"long":"-37.1922183036793"},{"no_fantasia":"CENTRO DE SAUDE DR MILTON CALUMBY TOURINHO"},{"no_logradouro":"RUA MARECHAL CANDIDO RONDOM"},{"nu_endereco":"265"},{"no_bairro":"CENTRO"},{"nu_telefone":"(79)2651238"},{"co_cep":"49600000"},{"uf":"SE"},{"cidade":"Nossa Senhora das Dores"},{"ano_ubs_det":"2016"},{"mes_ubs_det":"5"}],"geometry":{"type":"Point","coordinates":[-37.192218303679,-10.494217872619]}},{"type":"Feature","properties":[{"gid":"11135"},{"co_cnes":"2423405"},{"lat":"-11.3533173973413"},{"long":"-37.4498421802076"},{"no_fantasia":"UNID DE SAUDE DA F POV CRASTO"},{"no_logradouro":"RUA DE ESTANCIA"},{"nu_endereco":"S/N"},{"no_bairro":"ZONA RURAL"},{"nu_telefone":"(79)5481210"},{"co_cep":"49230000"},{"uf":"SE"},{"cidade":"Santa Luzia do Itanhy"},{"ano_ubs_det":"2016"},{"mes_ubs_det":"5"}],"geometry":{"type":"Point","coordinates":[-37.449842180208,-11.353317397341]}},{"type":"Feature","properties":[{"gid":"11114"},{"co_cnes":"2422646"},{"lat":"-10.2925180922231"},{"long":"-37.0221808560785"},{"no_fantasia":"USF CRUZ GRANDE"},{"no_logradouro":"POVOADO CRUZ GRANDE"},{"nu_endereco":"S/N"},{"no_bairro":"ZONA RURAL"},{"nu_telefone":""},{"co_cep":"49790000"},{"uf":"SE"},{"cidade":"Aquidabã"},{"ano_ubs_det":"2016"},{"mes_ubs_det":"5"}],"geometry":{"type":"Point","coordinates":[-37.022180856078,-10.292518092223]}},{"type":"Feature","properties":[{"gid":"11044"},{"co_cnes":"2477637"},{"lat":"-10.3465099141957"},{"long":"-36.8007564643613"},{"no_fantasia":"CLINICA DE SAUDE DA FAMILIA DOURIVAL DIAS GUIMARAES"},{"no_logradouro":"RUA DR JOAO AUGUSTO FALCAO"},{"nu_endereco":"972"},{"no_bairro":"CENTRO"},{"nu_telefone":"(79)3348-1069"},{"co_cep":"49950000"},{"uf":"SE"},{"cidade":"Japoatã"},{"ano_ubs_det":"2016"},{"mes_ubs_det":"5"}],"geometry":{"type":"Point","coordinates":[-36.800756464361,-10.346509914196]}},{"type":"Feature","properties":[{"gid":"11565"},{"co_cnes":"2420767"},{"lat":"-10.9180390834805"},{"long":"-37.6718401908864"},{"no_fantasia":"U B S LEANDRO MACIEL"},{"no_logradouro":"AV NILO ROMERO"},{"nu_endereco":"92"},{"no_bairro":"CENTRO"},{"nu_telefone":"(79) 36319624"},{"co_cep":"49400000"},{"uf":"SE"},{"cidade":"Lagarto"},{"ano_ubs_det":"2016"},{"mes_ubs_det":"5"}],"geometry":{"type":"Point","coordinates":[-37.671840190886,-10.91803908348]}},{"type":"Feature","properties":[{"gid":"11779"},{"co_cnes":"2546256"},{"lat":"-10.3580170968976"},{"long":"-37.7019192069375"},{"no_fantasia":"USF BAIXA GRANDE"},{"no_logradouro":"POVOADO BAIXA GRANDE"},{"nu_endereco":"S/N"},{"no_bairro":"ZONA RURAL"},{"nu_telefone":""},{"co_cep":"49550000"},{"uf":"SE"},{"cidade":"Carira"},{"ano_ubs_det":"2016"},{"mes_ubs_det":"5"}],"geometry":{"type":"Point","coordinates":[-37.701919206937,-10.358017096898]}},{"type":"Feature","properties":[{"gid":"11935"},{"co_cnes":"2477769"},{"lat":"-10.7630074024197"},{"long":"-37.3861956596364"},{"no_fantasia":"UNIDADE PSF RIO DAS PEDRAS"},{"no_logradouro":"POVOADO RIO DAS PEDRAS"},{"nu_endereco":"S/N"},{"no_bairro":"RURAL"},{"nu_telefone":"(79)34313366"},{"co_cep":"49511899"},{"uf":"SE"},{"cidade":"Itabaiana"},{"ano_ubs_det":"2016"},{"mes_ubs_det":"5"}],"geometry":{"type":"Point","coordinates":[-37.386195659636,-10.76300740242]}},{"type":"Feature","properties":[{"gid":"12094"},{"co_cnes":"2477092"},{"lat":"-9.69789147376986"},{"long":"-37.8276228904713"},{"no_fantasia":"UNIDADE DE SAUDE DA FAMILIA EDINALDO VIEIRA BARROS"},{"no_logradouro":"RUA SANTA LUZIA"},{"nu_endereco":"S/N"},{"no_bairro":"CUYABA"},{"nu_telefone":"(79) 3461960"},{"co_cep":"49820000"},{"uf":"SE"},{"cidade":"Canindé de São Francisco"},{"ano_ubs_det":"2016"},{"mes_ubs_det":"5"}],"geometry":{"type":"Point","coordinates":[-37.827622890471,-9.6978914737699]}},{"type":"Feature","properties":[{"gid":"12395"},{"co_cnes":"2477076"},{"lat":"-9.65410406729849"},{"long":"-37.7879637221177"},{"no_fantasia":"UNIDADE DE SAUDE DA FAMILIA ANTONIO APOLONIO COSTA"},{"no_logradouro":"AV ANTONIO CARLOS VALADARES"},{"nu_endereco":"S/N"},{"no_bairro":"TORRE"},{"nu_telefone":"(79) 3461960"},{"co_cep":"49820000"},{"uf":"SE"},{"cidade":"Canindé de São Francisco"},{"ano_ubs_det":"2016"},{"mes_ubs_det":"5"}],"geometry":{"type":"Point","coordinates":[-37.787963722118,-9.6541040672985]}},{"type":"Feature","properties":[{"gid":"12170"},{"co_cnes":"2423286"},{"lat":"-10.8845973014828"},{"long":"-37.2081184387196"},{"no_fantasia":"U S F MANOEL JUVINO SANTOS CARDOSO"},{"no_logradouro":"POVOADO CARDOSO"},{"nu_endereco":"S/N"},{"no_bairro":"CARDOSO"},{"nu_telefone":""},{"co_cep":"49100000"},{"uf":"SE"},{"cidade":"São Cristóvão"},{"ano_ubs_det":"2016"},{"mes_ubs_det":"5"}],"geometry":{"type":"Point","coordinates":[-37.20811843872,-10.884597301483]}},{"type":"Feature","properties":[{"gid":"12792"},{"co_cnes":"2422689"},{"lat":"-10.2925180922231"},{"long":"-37.0221808560785"},{"no_fantasia":"USF GETULIO VARGAS"},{"no_logradouro":"AVENIDA GETULIO VARGAS"},{"nu_endereco":"S/N"},{"no_bairro":"CENTRO"},{"nu_telefone":""},{"co_cep":"49790000"},{"uf":"SE"},{"cidade":"Aquidabã"},{"ano_ubs_det":"2016"},{"mes_ubs_det":"5"}],"geometry":{"type":"Point","coordinates":[-37.022180856078,-10.292518092223]}},{"type":"Feature","properties":[{"gid":"12764"},{"co_cnes":"2422123"},{"lat":"-9.92511749267549"},{"long":"-37.4803090095509"},{"no_fantasia":"UNIDADE DE SAUDE DA FAMILIA DO POVOADO LINDA FRANCA"},{"no_logradouro":"POVOADO LINDA FRANCA"},{"nu_endereco":"S/N"},{"no_bairro":"ZONA RURAL"},{"nu_telefone":""},{"co_cep":"49800000"},{"uf":"SE"},{"cidade":"Porto da Folha"},{"ano_ubs_det":"2016"},{"mes_ubs_det":"5"}],"geometry":{"type":"Point","coordinates":[-37.480309009551,-9.9251174926755]}},{"type":"Feature","properties":[{"gid":"12710"},{"co_cnes":"2422697"},{"lat":"-10.2853915054333"},{"long":"-37.0188283386231"},{"no_fantasia":"CENTRO DE SAUDE DE AQUIDABA"},{"no_logradouro":"RUA GENERAL ADEMAR MESSIAS ARAGAO"},{"nu_endereco":"317"},{"no_bairro":"CENTRO"},{"nu_telefone":""},{"co_cep":"49790000"},{"uf":"SE"},{"cidade":"Aquidabã"},{"ano_ubs_det":"2016"},{"mes_ubs_det":"5"}],"geometry":{"type":"Point","coordinates":[-37.018828338623,-10.285391505433]}},{"type":"Feature","properties":[{"gid":"13500"},{"co_cnes":"3496171"},{"lat":"-10.8637082576749"},{"long":"-37.0861959457387"},{"no_fantasia":"US JOSAFA MOTA DE SOUZA"},{"no_logradouro":"AVENIDA L"},{"nu_endereco":"S/N"},{"no_bairro":"JOAO ALVES FILHO"},{"nu_telefone":"(79)21067400"},{"co_cep":"49160000"},{"uf":"SE"},{"cidade":"Nossa Senhora do Socorro"},{"ano_ubs_det":"2016"},{"mes_ubs_det":"5"}],"geometry":{"type":"Point","coordinates":[-37.086195945739,-10.863708257675]}},{"type":"Feature","properties":[{"gid":"13423"},{"co_cnes":"2545799"},{"lat":"-10.72919011116"},{"long":"-37.190716266631"},{"no_fantasia":"CENTRO DE SAUDE DR PAULO GARCEZ"},{"no_logradouro":"RUA SANTA MARIA"},{"nu_endereco":"S/N"},{"no_bairro":"CENTRO"},{"nu_telefone":"(79)32692236"},{"co_cep":"49130000"},{"uf":"SE"},{"cidade":"Riachuelo"},{"ano_ubs_det":"2016"},{"mes_ubs_det":"5"}],"geometry":{"type":"Point","coordinates":[-37.190716266631,-10.72919011116]}},{"type":"Feature","properties":[{"gid":"13317"},{"co_cnes":"4020715"},{"lat":"-10.7624602317807"},{"long":"-37.5527930259694"},{"no_fantasia":"UNIDADE BASICA DE SAUDE ANTONIO VITOR"},{"no_logradouro":"POVOADO GAMELEIRA"},{"nu_endereco":"S/N"},{"no_bairro":"ZONA RURAL"},{"nu_telefone":""},{"co_cep":"49520000"},{"uf":"SE"},{"cidade":"Campo do Brito"},{"ano_ubs_det":"2016"},{"mes_ubs_det":"5"}],"geometry":{"type":"Point","coordinates":[-37.552793025969,-10.762460231781]}},{"type":"Feature","properties":[{"gid":"13311"},{"co_cnes":"3393755"},{"lat":"-10.4846997354798"},{"long":"-37.1845954656601"},{"no_fantasia":"CENTRO INTEGRADO DE SUPORTE A ATENCAO BASICA OSVANDA MARIA"},{"no_logradouro":"AV LIBERDADE"},{"nu_endereco":"226"},{"no_bairro":"CRUZEIRO DAS MOCAS"},{"nu_telefone":"(79)2651402"},{"co_cep":"49600000"},{"uf":"SE"},{"cidade":"Nossa Senhora das Dores"},{"ano_ubs_det":"2016"},{"mes_ubs_det":"5"}],"geometry":{"type":"Point","coordinates":[-37.18459546566,-10.48469973548]}},{"type":"Feature","properties":[{"gid":"14210"},{"co_cnes":"2420996"},{"lat":"-11.4735577970762"},{"long":"-37.754659635068"},{"no_fantasia":"U B S MAE URANIA"},{"no_logradouro":"RUA FRANCISCO BENICIO DOS SANTOS"},{"nu_endereco":"S/N"},{"no_bairro":"MANOEL JOAQUIM"},{"nu_telefone":"79-99944-0757"},{"co_cep":"49270000"},{"uf":"SE"},{"cidade":"Cristinápolis"},{"ano_ubs_det":"2016"},{"mes_ubs_det":"5"}],"geometry":{"type":"Point","coordinates":[-37.754659635068,-11.473557797076]}},{"type":"Feature","properties":[{"gid":"14140"},{"co_cnes":"2420856"},{"lat":"-11.0943782329556"},{"long":"-37.7574777603138"},{"no_fantasia":"PS POVOADO LAGOA"},{"no_logradouro":"POVOADO LAGOA"},{"nu_endereco":"S/N"},{"no_bairro":"POVOADO LAGOA"},{"nu_telefone":"(79)6431248"},{"co_cep":"49320000"},{"uf":"SE"},{"cidade":"Riachão do Dantas"},{"ano_ubs_det":"2016"},{"mes_ubs_det":"5"}],"geometry":{"type":"Point","coordinates":[-37.757477760314,-11.094378232956]}},{"type":"Feature","properties":[{"gid":"14489"},{"co_cnes":"2420570"},{"lat":"-10.8849298954007"},{"long":"-37.5114226341237"},{"no_fantasia":"U B S GIVALDA DOS SANTOS ALMEIDA"},{"no_logradouro":"POVOADO JENIPAPO ESTRADA DA TABOCA"},{"nu_endereco":"164"},{"no_bairro":"ZONA RURAL"},{"nu_telefone":"7936319620"},{"co_cep":"49400000"},{"uf":"SE"},{"cidade":"Lagarto"},{"ano_ubs_det":"2016"},{"mes_ubs_det":"5"}],"geometry":{"type":"Point","coordinates":[-37.511422634124,-10.884929895401]}},{"type":"Feature","properties":[{"gid":"14714"},{"co_cnes":"2423294"},{"lat":"-11.0090196132657"},{"long":"-37.2390604019154"},{"no_fantasia":"U S F JOSE A DE LIMA C MIRANDA"},{"no_logradouro":"PRACA PRINCIPAL"},{"nu_endereco":"S/N"},{"no_bairro":"COLONIA"},{"nu_telefone":""},{"co_cep":"49100000"},{"uf":"SE"},{"cidade":"São Cristóvão"},{"ano_ubs_det":"2016"},{"mes_ubs_det":"5"}],"geometry":{"type":"Point","coordinates":[-37.239060401915,-11.009019613266]}},{"type":"Feature","properties":[{"gid":"14624"},{"co_cnes":"2420961"},{"lat":"-11.4280557632443"},{"long":"-37.772991657256"},{"no_fantasia":"U B S ESTELA CAVALCANTE"},{"no_logradouro":"POV AGUA BRANCA"},{"nu_endereco":"S/N"},{"no_bairro":"POV AGUA BRANCA"},{"nu_telefone":"79-99985-5340"},{"co_cep":"49270000"},{"uf":"SE"},{"cidade":"Cristinápolis"},{"ano_ubs_det":"2016"},{"mes_ubs_det":"5"}],"geometry":{"type":"Point","coordinates":[-37.772991657256,-11.428055763244]}},{"type":"Feature","properties":[{"gid":"14639"},{"co_cnes":"6740510"},{"lat":"-10.3570250323237"},{"long":"-37.1878992756552"},{"no_fantasia":"UNIDADE BASICA DE SAUDE LEOZIRO ROSA DE MENEZES"},{"no_logradouro":"POV SACO GRANDE"},{"nu_endereco":"S/N"},{"no_bairro":"ZONA RURAL"},{"nu_telefone":"(079)33621267"},{"co_cep":"49660000"},{"uf":"SE"},{"cidade":"Cumbe"},{"ano_ubs_det":"2016"},{"mes_ubs_det":"5"}],"geometry":{"type":"Point","coordinates":[-37.187899275655,-10.357025032324]}},{"type":"Feature","properties":[{"gid":"14625"},{"co_cnes":"3047628"},{"lat":"-10.4067134857175"},{"long":"-36.7591595649709"},{"no_fantasia":"UNIDADE DE SAUDE DA FAMILIA MANOEL CALDAS DE SIQUEIRA"},{"no_logradouro":"POVOADO LADEIRAS"},{"nu_endereco":"S/N"},{"no_bairro":"ZONA RURAL"},{"nu_telefone":"(79)3348-1069"},{"co_cep":"49950000"},{"uf":"SE"},{"cidade":"Japoatã"},{"ano_ubs_det":"2016"},{"mes_ubs_det":"5"}],"geometry":{"type":"Point","coordinates":[-36.759159564971,-10.406713485717]}},{"type":"Feature","properties":[{"gid":"14686"},{"co_cnes":"2420058"},{"lat":"-10.3158782272668"},{"long":"-36.5767181793652"},{"no_fantasia":"E S F BETUME"},{"no_logradouro":"POVOADO BETUME"},{"nu_endereco":"S/N"},{"no_bairro":"BETUME"},{"nu_telefone":"(79)3441277"},{"co_cep":"49980000"},{"uf":"SE"},{"cidade":"Neópolis"},{"ano_ubs_det":"2016"},{"mes_ubs_det":"5"}],"geometry":{"type":"Point","coordinates":[-36.576718179365,-10.315878227267]}},{"type":"Feature","properties":[{"gid":"14866"},{"co_cnes":"2680092"},{"lat":"-10.32"},{"long":"-36.579"},{"no_fantasia":"E S F CENTRO I"},{"no_logradouro":"RUA DO BONFIM"},{"nu_endereco":"565"},{"no_bairro":"CENTRO"},{"nu_telefone":"(79)3441277"},{"co_cep":"49980000"},{"uf":"SE"},{"cidade":"Neópolis"},{"ano_ubs_det":"2016"},{"mes_ubs_det":"5"}],"geometry":{"type":"Point","coordinates":[-36.579,-10.32]}},{"type":"Feature","properties":[{"gid":"14867"},{"co_cnes":"6467989"},{"lat":"-9.98767468007694"},{"long":"-37.4290620117188"},{"no_fantasia":"PSF LAGOA DO RANCHO"},{"no_logradouro":"LAGOA DO RANCHO"},{"nu_endereco":"S/N"},{"no_bairro":"CENTRO"},{"nu_telefone":"33491463"},{"co_cep":"49800000"},{"uf":"SE"},{"cidade":"Porto da Folha"},{"ano_ubs_det":"2016"},{"mes_ubs_det":"5"}],"geometry":{"type":"Point","coordinates":[-37.429062011719,-9.9876746800769]}},{"type":"Feature","properties":[{"gid":"15075"},{"co_cnes":"2421593"},{"lat":"-10.8388924598691"},{"long":"-37.0675063133229"},{"no_fantasia":"US VEREADOR GERVASIO REIS DE OLIVEIRA"},{"no_logradouro":"AVENIDA A 3"},{"nu_endereco":"42"},{"no_bairro":"MARCOS FREIRE I"},{"nu_telefone":"(79)32543303"},{"co_cep":"49160000"},{"uf":"SE"},{"cidade":"Nossa Senhora do Socorro"},{"ano_ubs_det":"2016"},{"mes_ubs_det":"5"}],"geometry":{"type":"Point","coordinates":[-37.067506313323,-10.838892459869]}},{"type":"Feature","properties":[{"gid":"14882"},{"co_cnes":"2422093"},{"lat":"-9.89264920598291"},{"long":"-37.3531876831055"},{"no_fantasia":"UNIDADE DE SAUDE DA FAMILIA DO POVOADO LAGOA DA VOLTA"},{"no_logradouro":"POVOADO LAGOA DA VOLTA"},{"nu_endereco":"S/N"},{"no_bairro":"ZONA RURAL"},{"nu_telefone":""},{"co_cep":"49800000"},{"uf":"SE"},{"cidade":"Porto da Folha"},{"ano_ubs_det":"2016"},{"mes_ubs_det":"5"}],"geometry":{"type":"Point","coordinates":[-37.353187683105,-9.8926492059829]}},{"type":"Feature","properties":[{"gid":"14863"},{"co_cnes":"2422670"},{"lat":"-10.2925180922231"},{"long":"-37.0221808560785"},{"no_fantasia":"USF MARTA BARRETO"},{"no_logradouro":"RUA DA CERAMICA"},{"nu_endereco":"S/N"},{"no_bairro":"VULCAO"},{"nu_telefone":""},{"co_cep":"49790000"},{"uf":"SE"},{"cidade":"Aquidabã"},{"ano_ubs_det":"2016"},{"mes_ubs_det":"5"}],"geometry":{"type":"Point","coordinates":[-37.022180856078,-10.292518092223]}},{"type":"Feature","properties":[{"gid":"14892"},{"co_cnes":"2477068"},{"lat":"-10.6945899789945"},{"long":"-37.0313228648729"},{"no_fantasia":"POSTO DE SAUDE M ZENAIDE"},{"no_logradouro":"POV SIRIRIZINHO"},{"nu_endereco":"S/N"},{"no_bairro":"POV SIRIRIZINHO"},{"nu_telefone":"(79)32745091"},{"co_cep":"49760000"},{"uf":"SE"},{"cidade":"Rosário do Catete"},{"ano_ubs_det":"2016"},{"mes_ubs_det":"5"}],"geometry":{"type":"Point","coordinates":[-37.031322864873,-10.694589978995]}},{"type":"Feature","properties":[{"gid":"14865"},{"co_cnes":"3603"},{"lat":"-10.8699309825894"},{"long":"-37.05654144287"},{"no_fantasia":"US EUNICE BARBOSA DE OLIVEIRA"},{"no_logradouro":"RUA BEIRA RIO"},{"nu_endereco":"92"},{"no_bairro":"COQUEIRAL"},{"nu_telefone":"(79)31793415"},{"co_cep":"49069030"},{"uf":"SE"},{"cidade":"Aracaju"},{"ano_ubs_det":"2016"},{"mes_ubs_det":"5"}],"geometry":{"type":"Point","coordinates":[-37.05654144287,-10.869930982589]}},{"type":"Feature","properties":[{"gid":"15212"},{"co_cnes":"2420538"},{"lat":"-10.9153009698622"},{"long":"-37.666353409722"},{"no_fantasia":"C S JOSEFA BARBOSA DOS REIS ROMAO"},{"no_logradouro":"AV MACHADO"},{"nu_endereco":"S/N"},{"no_bairro":"ALDEMAR DE CARVALHO"},{"nu_telefone":"(79)6319620"},{"co_cep":"49400000"},{"uf":"SE"},{"cidade":"Lagarto"},{"ano_ubs_det":"2016"},{"mes_ubs_det":"5"}],"geometry":{"type":"Point","coordinates":[-37.666353409722,-10.915300969862]}},{"type":"Feature","properties":[{"gid":"15230"},{"co_cnes":"2422824"},{"lat":"-10.9967327673046"},{"long":"-37.3078269330688"},{"no_fantasia":"USF DO POVOADO NOVA DESCOBERTA"},{"no_logradouro":"POVOADO NOVA DESCOBERTA"},{"nu_endereco":"S/N"},{"no_bairro":"ZONA RURAL"},{"nu_telefone":""},{"co_cep":"49120000"},{"uf":"SE"},{"cidade":"Itaporanga d'Ajuda"},{"ano_ubs_det":"2016"},{"mes_ubs_det":"5"}],"geometry":{"type":"Point","coordinates":[-37.307826933069,-10.996732767305]}},{"type":"Feature","properties":[{"gid":"15880"},{"co_cnes":"2658429"},{"lat":"-10.47467"},{"long":"-36.41779"},{"no_fantasia":"UNIDADE DE SAUDE DA FAMILIA JADER PEREIRA DE FARIAS"},{"no_logradouro":"POVOADO BREJAO"},{"nu_endereco":"S/N"},{"no_bairro":"POVOADO"},{"nu_telefone":"(79)33661250"},{"co_cep":"49995000"},{"uf":"SE"},{"cidade":"Brejo Grande"},{"ano_ubs_det":"2016"},{"mes_ubs_det":"5"}],"geometry":{"type":"Point","coordinates":[-36.41779,-10.47467]}},{"type":"Feature","properties":[{"gid":"15921"},{"co_cnes":"3074684"},{"lat":"-10.9110859138183"},{"long":"-37.0280780448913"},{"no_fantasia":"VER ANA DOS ANJOS SANTOS"},{"no_logradouro":"RUA GILBERTO GIL"},{"nu_endereco":"335"},{"no_bairro":"CAMINHO DO PORTO"},{"nu_telefone":"79 30258162"},{"co_cep":"49140000"},{"uf":"SE"},{"cidade":"Barra dos Coqueiros"},{"ano_ubs_det":"2016"},{"mes_ubs_det":"5"}],"geometry":{"type":"Point","coordinates":[-37.028078044891,-10.911085913818]}},{"type":"Feature","properties":[{"gid":"16149"},{"co_cnes":"2612410"},{"lat":"-10.6118488311764"},{"long":"-37.2600030899037"},{"no_fantasia":"POSTO DE SAUDE ZEFERINO FARO DE AZEVEDO"},{"no_logradouro":"POVOADO LAGOA DO CARAO"},{"nu_endereco":"S/N"},{"no_bairro":"CENTRO"},{"nu_telefone":"(07)92731349"},{"co_cep":"49640000"},{"uf":"SE"},{"cidade":"Santa Rosa de Lima"},{"ano_ubs_det":"2016"},{"mes_ubs_det":"5"}],"geometry":{"type":"Point","coordinates":[-37.260003089904,-10.611848831176]}},{"type":"Feature","properties":[{"gid":"16234"},{"co_cnes":"3469182"},{"lat":"-10.9216868877408"},{"long":"-37.0764112472523"},{"no_fantasia":"US JOALDO BARBOSA"},{"no_logradouro":"AV GUANABARA"},{"nu_endereco":"S/N"},{"no_bairro":"AMERICA"},{"nu_telefone":"(79)31793581"},{"co_cep":"49080260"},{"uf":"SE"},{"cidade":"Aracaju"},{"ano_ubs_det":"2016"},{"mes_ubs_det":"5"}],"geometry":{"type":"Point","coordinates":[-37.076411247252,-10.921686887741]}},{"type":"Feature","properties":[{"gid":"16763"},{"co_cnes":"2420554"},{"lat":"-10.9850513935086"},{"long":"-37.5503468513478"},{"no_fantasia":"U B S PADRE ALMEIDA"},{"no_logradouro":"POVOADO COLONIA TREZE"},{"nu_endereco":"989"},{"no_bairro":"ZONA RURAL"},{"nu_telefone":"( 79)36421229"},{"co_cep":"49400000"},{"uf":"SE"},{"cidade":"Lagarto"},{"ano_ubs_det":"2016"},{"mes_ubs_det":"5"}],"geometry":{"type":"Point","coordinates":[-37.550346851348,-10.985051393509]}},{"type":"Feature","properties":[{"gid":"16500"},{"co_cnes":"2658410"},{"lat":"-10.46733"},{"long":"-36.48048"},{"no_fantasia":"CLINICA DE SAUDE DA FAMILIA MARECHAL DEODORO DA FONSECA"},{"no_logradouro":"PRACA MARECHAL DEODORO"},{"nu_endereco":"116"},{"no_bairro":"CENTRO"},{"nu_telefone":"(79)33661250"},{"co_cep":"49995000"},{"uf":"SE"},{"cidade":"Brejo Grande"},{"ano_ubs_det":"2016"},{"mes_ubs_det":"5"}],"geometry":{"type":"Point","coordinates":[-36.48048,-10.46733]}},{"type":"Feature","properties":[{"gid":"16484"},{"co_cnes":"2421992"},{"lat":"-10.9828412532803"},{"long":"-38.1636714935292"},{"no_fantasia":"UNIDADE BASICA DE SAUDE JOSELITA OLINDA DOS SANTOS"},{"no_logradouro":"POVOADO MONTE COELHOS"},{"nu_endereco":"S/N"},{"no_bairro":"ZONA RURAL"},{"nu_telefone":"(79)35411220"},{"co_cep":"49300000"},{"uf":"SE"},{"cidade":"Tobias Barreto"},{"ano_ubs_det":"2016"},{"mes_ubs_det":"5"}],"geometry":{"type":"Point","coordinates":[-38.163671493529,-10.98284125328]}},{"type":"Feature","properties":[{"gid":"16940"},{"co_cnes":"2477122"},{"lat":"-9.77747797965975"},{"long":"-37.8891205787648"},{"no_fantasia":"UNIDADE DE SAUDE DA FAMILIA MARIA VIRGULINO"},{"no_logradouro":"PRACA JORGE VALENCA"},{"nu_endereco":"S/N"},{"no_bairro":"CAPIM GROSSO"},{"nu_telefone":"(79) 3461960"},{"co_cep":"49820000"},{"uf":"SE"},{"cidade":"Canindé de São Francisco"},{"ano_ubs_det":"2016"},{"mes_ubs_det":"5"}],"geometry":{"type":"Point","coordinates":[-37.889120578765,-9.7774779796597]}},{"type":"Feature","properties":[{"gid":"16840"},{"co_cnes":"2420775"},{"lat":"-10.982058048248"},{"long":"-37.7704167366017"},{"no_fantasia":"U B S EDITH KUPLLER MENDES"},{"no_logradouro":"POVOADO CAMPO DO CRIOULO"},{"nu_endereco":"45"},{"no_bairro":"ZONA RURAL"},{"nu_telefone":""},{"co_cep":"49400000"},{"uf":"SE"},{"cidade":"Lagarto"},{"ano_ubs_det":"2016"},{"mes_ubs_det":"5"}],"geometry":{"type":"Point","coordinates":[-37.770416736602,-10.982058048248]}},{"type":"Feature","properties":[{"gid":"16990"},{"co_cnes":"2422840"},{"lat":"-10.9498393535611"},{"long":"-37.4680137634266"},{"no_fantasia":"USF GRAVATA"},{"no_logradouro":"POVOADO GRAVATA"},{"nu_endereco":"S/N"},{"no_bairro":"ZONA RURAL"},{"nu_telefone":""},{"co_cep":"49120000"},{"uf":"SE"},{"cidade":"Itaporanga d'Ajuda"},{"ano_ubs_det":"2016"},{"mes_ubs_det":"5"}],"geometry":{"type":"Point","coordinates":[-37.468013763427,-10.949839353561]}},{"type":"Feature","properties":[{"gid":"17355"},{"co_cnes":"2423278"},{"lat":"-11.0644555091855"},{"long":"-37.1941494941701"},{"no_fantasia":"U S F ALICE FREIRE PEDREIRAS"},{"no_logradouro":"POVOADO PEDREIRAS"},{"nu_endereco":"S/N"},{"no_bairro":"PEDREIRAS"},{"nu_telefone":""},{"co_cep":"49100000"},{"uf":"SE"},{"cidade":"São Cristóvão"},{"ano_ubs_det":"2016"},{"mes_ubs_det":"5"}],"geometry":{"type":"Point","coordinates":[-37.19414949417,-11.064455509185]}},{"type":"Feature","properties":[{"gid":"17209"},{"co_cnes":"7725205"},{"lat":"-11.1811805374422"},{"long":"-37.6421213150024"},{"no_fantasia":"POSTO DE SAUDE DO POVOADO ROMAO"},{"no_logradouro":"POVOADO ROMAO"},{"nu_endereco":"S/N"},{"no_bairro":"POVOADO ROMAO"},{"nu_telefone":""},{"co_cep":"49360000"},{"uf":"SE"},{"cidade":"Boquim"},{"ano_ubs_det":"2016"},{"mes_ubs_det":"5"}],"geometry":{"type":"Point","coordinates":[-37.642121315002,-11.181180537442]}},{"type":"Feature","properties":[{"gid":"17537"},{"co_cnes":"2477157"},{"lat":"-10.7410561554894"},{"long":"-36.8597462116876"},{"no_fantasia":"UNIDADE DE ALAGAMAR"},{"no_logradouro":"POV ALAGAMAR"},{"nu_endereco":"S/N"},{"no_bairro":"CENTRO"},{"nu_telefone":"(79)32761725"},{"co_cep":"49190000"},{"uf":"SE"},{"cidade":"Pirambu"},{"ano_ubs_det":"2016"},{"mes_ubs_det":"5"}],"geometry":{"type":"Point","coordinates":[-36.859746211688,-10.741056155489]}},{"type":"Feature","properties":[{"gid":"17836"},{"co_cnes":"2421720"},{"lat":"-10.872387886047"},{"long":"-37.1357631683339"},{"no_fantasia":"US ALCIDES ALVES DOS SANTOS"},{"no_logradouro":"RUA JOSE ESMERALDO"},{"nu_endereco":"S/N"},{"no_bairro":"POVOADO TABOCAS"},{"nu_telefone":"(79) 32535160"},{"co_cep":"49160000"},{"uf":"SE"},{"cidade":"Nossa Senhora do Socorro"},{"ano_ubs_det":"2016"},{"mes_ubs_det":"5"}],"geometry":{"type":"Point","coordinates":[-37.135763168334,-10.872387886047]}},{"type":"Feature","properties":[{"gid":"17904"},{"co_cnes":"2423227"},{"lat":"-11.0079789161679"},{"long":"-37.2089552879323"},{"no_fantasia":"U B S JAIRO TEIXEIRA DE JESUS"},{"no_logradouro":"AVENIDA FELIX PEREIRA"},{"nu_endereco":"S/N"},{"no_bairro":"CENTRO"},{"nu_telefone":"079 3261 2935"},{"co_cep":"49100000"},{"uf":"SE"},{"cidade":"São Cristóvão"},{"ano_ubs_det":"2016"},{"mes_ubs_det":"5"}],"geometry":{"type":"Point","coordinates":[-37.208955287932,-11.007978916168]}},{"type":"Feature","properties":[{"gid":"17823"},{"co_cnes":"2477262"},{"lat":"-10.4243302345273"},{"long":"-36.9576001167287"},{"no_fantasia":"CLINICA SAUDE DA FAMILIA MARILZA FRANCO"},{"no_logradouro":"RUA LUIZ MOTA"},{"nu_endereco":"327"},{"no_bairro":"CENTRO"},{"nu_telefone":"(79)33421426"},{"co_cep":"49780000"},{"uf":"SE"},{"cidade":"Muribeca"},{"ano_ubs_det":"2016"},{"mes_ubs_det":"5"}],"geometry":{"type":"Point","coordinates":[-36.957600116729,-10.424330234527]}},{"type":"Feature","properties":[{"gid":"17804"},{"co_cnes":"2477858"},{"lat":"-11.267948649303"},{"long":"-37.4400108537292"},{"no_fantasia":"USF IRMA MADALENA"},{"no_logradouro":"AV RAIMUNDO SILVEIRA SOUZA"},{"nu_endereco":"S/N"},{"no_bairro":"ALAGOAS"},{"nu_telefone":"(79)5222468"},{"co_cep":"49200000"},{"uf":"SE"},{"cidade":"Estância"},{"ano_ubs_det":"2016"},{"mes_ubs_det":"5"}],"geometry":{"type":"Point","coordinates":[-37.440010853729,-11.267948649303]}},{"type":"Feature","properties":[{"gid":"17994"},{"co_cnes":"5147948"},{"lat":"-10.3824234008786"},{"long":"-36.6373443603505"},{"no_fantasia":"E S F FLOR DO BREJO"},{"no_logradouro":"FLOR DO BREJO"},{"nu_endereco":"S/N"},{"no_bairro":"POVOADO FLOR DO BREJ"},{"nu_telefone":"3344-1277"},{"co_cep":"49980000"},{"uf":"SE"},{"cidade":"Neópolis"},{"ano_ubs_det":"2016"},{"mes_ubs_det":"5"}],"geometry":{"type":"Point","coordinates":[-36.63734436035,-10.382423400879]}},{"type":"Feature","properties":[{"gid":"17834"},{"co_cnes":"2420325"},{"lat":"-10.6865298123961"},{"long":"-36.9879844294671"},{"no_fantasia":"UNIDADE BASICA DE SAUDE JOSEFINA CARDOSO DA SILVA"},{"no_logradouro":"PRACA DA MATRIZ"},{"nu_endereco":"S/N"},{"no_bairro":"CENTRO"},{"nu_telefone":"32681245"},{"co_cep":"49750000"},{"uf":"SE"},{"cidade":"General Maynard"},{"ano_ubs_det":"2016"},{"mes_ubs_det":"5"}],"geometry":{"type":"Point","coordinates":[-36.987984429467,-10.686529812396]}},{"type":"Feature","properties":[{"gid":"18074"},{"co_cnes":"2422832"},{"lat":"-10.9967327673046"},{"long":"-37.3078269330688"},{"no_fantasia":"USF SAPE"},{"no_logradouro":"POVOADO SAPE"},{"nu_endereco":"S/N"},{"no_bairro":"ZONA RURAL"},{"nu_telefone":""},{"co_cep":"49120000"},{"uf":"SE"},{"cidade":"Itaporanga d'Ajuda"},{"ano_ubs_det":"2016"},{"mes_ubs_det":"5"}],"geometry":{"type":"Point","coordinates":[-37.307826933069,-10.996732767305]}},{"type":"Feature","properties":[{"gid":"18443"},{"co_cnes":"2216"},{"lat":"-10.99539"},{"long":"-37.10173"},{"no_fantasia":"US OSVALDO LEITE TERRA DURA"},{"no_logradouro":"AV AZUL"},{"nu_endereco":"S/N"},{"no_bairro":"SANTA MARIA"},{"nu_telefone":"3179-3008"},{"co_cep":"49043800"},{"uf":"SE"},{"cidade":"Aracaju"},{"ano_ubs_det":"2016"},{"mes_ubs_det":"5"}],"geometry":{"type":"Point","coordinates":[-37.10173,-10.99539]}},{"type":"Feature","properties":[{"gid":"19617"},{"co_cnes":"2615"},{"lat":"-10.95431"},{"long":"-37.05882"},{"no_fantasia":"US MINISTRO COSTA CAVALVANTE INACIO BARBOSA"},{"no_logradouro":"AV TRANCREDO NEVES"},{"nu_endereco":"S/N"},{"no_bairro":"INACIO BARBOSA"},{"nu_telefone":"3179-1443"},{"co_cep":"49040490"},{"uf":"SE"},{"cidade":"Aracaju"},{"ano_ubs_det":"2016"},{"mes_ubs_det":"5"}],"geometry":{"type":"Point","coordinates":[-37.05882,-10.95431]}},{"type":"Feature","properties":[{"gid":"19622"},{"co_cnes":"2420422"},{"lat":"-11.3680522747437"},{"long":"-37.8453707752723"},{"no_fantasia":"UNIDADE BASICA DE SAUDE PEDRO GOIS"},{"no_logradouro":"POVOADO LOPES"},{"nu_endereco":"S/N"},{"no_bairro":"ZONA RURAL"},{"nu_telefone":"(79)37516000"},{"co_cep":"49280000"},{"uf":"SE"},{"cidade":"Tomar do Geru"},{"ano_ubs_det":"2016"},{"mes_ubs_det":"5"}],"geometry":{"type":"Point","coordinates":[-37.845370775272,-11.368052274744]}},{"type":"Feature","properties":[{"gid":"20062"},{"co_cnes":"2612224"},{"lat":"-10.2261996604122"},{"long":"-37.196054632255"},{"no_fantasia":"CLINICA DE SAUDE DA FAMILIA NOSSA SENHORA DA PIEDADE"},{"no_logradouro":"RUA DA GLORIA"},{"nu_endereco":"S/N"},{"no_bairro":"ZONA URBANA"},{"nu_telefone":"(79)33191003"},{"co_cep":"49860000"},{"uf":"SE"},{"cidade":"Gracho Cardoso"},{"ano_ubs_det":"2016"},{"mes_ubs_det":"5"}],"geometry":{"type":"Point","coordinates":[-37.196054632255,-10.226199660412]}},{"type":"Feature","properties":[{"gid":"20428"},{"co_cnes":"2502895"},{"lat":"-10.4259288311002"},{"long":"-36.5618991851796"},{"no_fantasia":"USF POV SERRAO"},{"no_logradouro":"POVOADO SERRAO"},{"nu_endereco":"S/N"},{"no_bairro":"POVOADO SERRAO"},{"nu_telefone":"(79) 33455310"},{"co_cep":"49990000"},{"uf":"SE"},{"cidade":"Ilha das Flores"},{"ano_ubs_det":"2016"},{"mes_ubs_det":"5"}],"geometry":{"type":"Point","coordinates":[-36.56189918518,-10.4259288311]}},{"type":"Feature","properties":[{"gid":"20427"},{"co_cnes":"2420511"},{"lat":"-10.9153009698622"},{"long":"-37.666353409722"},{"no_fantasia":"C S RAIMUNDA REIS"},{"no_logradouro":"POVOADO BRASILIA"},{"nu_endereco":"S/N"},{"no_bairro":"ZONA RURAL"},{"nu_telefone":"7936319621"},{"co_cep":"49400000"},{"uf":"SE"},{"cidade":"Lagarto"},{"ano_ubs_det":"2016"},{"mes_ubs_det":"5"}],"geometry":{"type":"Point","coordinates":[-37.666353409722,-10.915300969862]}},{"type":"Feature","properties":[{"gid":"20417"},{"co_cnes":"2623"},{"lat":"-10.9055614471432"},{"long":"-37.096881866454"},{"no_fantasia":"US WALTER CARDOSO VENEZA"},{"no_logradouro":"RUA B"},{"nu_endereco":"372"},{"no_bairro":"VENEZA"},{"nu_telefone":"31793210"},{"co_cep":"49092520"},{"uf":"SE"},{"cidade":"Aracaju"},{"ano_ubs_det":"2016"},{"mes_ubs_det":"5"}],"geometry":{"type":"Point","coordinates":[-37.096881866454,-10.905561447143]}},{"type":"Feature","properties":[{"gid":"20421"},{"co_cnes":"2477653"},{"lat":"-10.3465099141957"},{"long":"-36.8007564643613"},{"no_fantasia":"UNIDADE DE SAUDE DA FAMILIA DE ESPINHEIRO"},{"no_logradouro":"POV ESPINHEIRO RUA JOSE V BRANDAO"},{"nu_endereco":"S/N"},{"no_bairro":"CENTRO"},{"nu_telefone":"(79) 3348-1069"},{"co_cep":"49950000"},{"uf":"SE"},{"cidade":"Japoatã"},{"ano_ubs_det":"2016"},{"mes_ubs_det":"5"}],"geometry":{"type":"Point","coordinates":[-36.800756464361,-10.346509914196]}},{"type":"Feature","properties":[{"gid":"20420"},{"co_cnes":"2745291"},{"lat":"-10.42636"},{"long":"-36.8468"},{"no_fantasia":"UNIDADE DE SAUDE DA FAMILIA JOSE RODRIGUES DOS SANTOS"},{"no_logradouro":"POV PROJETO LADEIRINHAS A"},{"nu_endereco":"S/N"},{"no_bairro":"RURAL"},{"nu_telefone":"(79) 3348-1069"},{"co_cep":"49950000"},{"uf":"SE"},{"cidade":"Japoatã"},{"ano_ubs_det":"2016"},{"mes_ubs_det":"5"}],"geometry":{"type":"Point","coordinates":[-36.8468,-10.42636]}},{"type":"Feature","properties":[{"gid":"20415"},{"co_cnes":"2422654"},{"lat":"-10.2925180922231"},{"long":"-37.0221808560785"},{"no_fantasia":"USF MARIA HILDA FERREIRA"},{"no_logradouro":"RODOVIA GOVERNADOR VALADARES"},{"nu_endereco":"S/N"},{"no_bairro":"JOAO ALVES"},{"nu_telefone":""},{"co_cep":"49790000"},{"uf":"SE"},{"cidade":"Aquidabã"},{"ano_ubs_det":"2016"},{"mes_ubs_det":"5"}],"geometry":{"type":"Point","coordinates":[-37.022180856078,-10.292518092223]}},{"type":"Feature","properties":[{"gid":"20615"},{"co_cnes":"2420910"},{"lat":"-11.0400152206418"},{"long":"-37.8560757637013"},{"no_fantasia":"PS POVOADO BOMFIM"},{"no_logradouro":"POVOADO BOMFIM"},{"nu_endereco":"00"},{"no_bairro":"POVOADO BOMFIM"},{"nu_telefone":"(79)6431248"},{"co_cep":"49320000"},{"uf":"SE"},{"cidade":"Riachão do Dantas"},{"ano_ubs_det":"2016"},{"mes_ubs_det":"5"}],"geometry":{"type":"Point","coordinates":[-37.856075763701,-11.040015220642]}},{"type":"Feature","properties":[{"gid":"21108"},{"co_cnes":"2477548"},{"lat":"-10.5919146537778"},{"long":"-37.674479484557"},{"no_fantasia":"UNIDADE DE SAUDE DA FAMILIA MARIA JOSE SOARES FIGUEIROA"},{"no_logradouro":"POVOADO GRAVATA"},{"nu_endereco":"S/N"},{"no_bairro":"ZONA RURAL"},{"nu_telefone":"(79)34591240"},{"co_cep":"49512000"},{"uf":"SE"},{"cidade":"Pedra Mole"},{"ano_ubs_det":"2016"},{"mes_ubs_det":"5"}],"geometry":{"type":"Point","coordinates":[-37.674479484557,-10.591914653778]}},{"type":"Feature","properties":[{"gid":"21082"},{"co_cnes":"2477297"},{"lat":"-10.3824663162228"},{"long":"-36.9374299049367"},{"no_fantasia":"UNIDADE BASICA DE SAUDE VISGUEIRO"},{"no_logradouro":"RUA MARIA OLIVEIRA VIEIRA"},{"nu_endereco":"S/N"},{"no_bairro":"POV VISGUEIRO"},{"nu_telefone":"33421426"},{"co_cep":"49780000"},{"uf":"SE"},{"cidade":"Muribeca"},{"ano_ubs_det":"2016"},{"mes_ubs_det":"5"}],"geometry":{"type":"Point","coordinates":[-36.937429904937,-10.382466316223]}},{"type":"Feature","properties":[{"gid":"21073"},{"co_cnes":"2476924"},{"lat":"-10.5060996319003"},{"long":"-37.0548329945789"},{"no_fantasia":"CLINICA DE SAUDE DA FAMILIA JOSEFA PAIXAO"},{"no_logradouro":"RUA ESTRADA DE FERRO"},{"nu_endereco":"S/N"},{"no_bairro":"SAO CRISTOVAO"},{"nu_telefone":"(79)30454031/R1031"},{"co_cep":"49700000"},{"uf":"SE"},{"cidade":"Capela"},{"ano_ubs_det":"2016"},{"mes_ubs_det":"5"}],"geometry":{"type":"Point","coordinates":[-37.054832994579,-10.5060996319]}},{"type":"Feature","properties":[{"gid":"21080"},{"co_cnes":"2423200"},{"lat":"-10.9298944473263"},{"long":"-37.1187257766713"},{"no_fantasia":"U B S MARIA JOSE S FIGUEIROA"},{"no_logradouro":"AV MARGINAL SN"},{"nu_endereco":"S/N"},{"no_bairro":"ROSA ELZE"},{"nu_telefone":"079 3257-8939"},{"co_cep":"49100000"},{"uf":"SE"},{"cidade":"São Cristóvão"},{"ano_ubs_det":"2016"},{"mes_ubs_det":"5"}],"geometry":{"type":"Point","coordinates":[-37.118725776671,-10.929894447326]}},{"type":"Feature","properties":[{"gid":"24712"},{"co_cnes":"2477211"},{"lat":"-10.5866360664365"},{"long":"-37.3053860664357"},{"no_fantasia":"UNIDADE DE SAUDE DA FAMILIA IDALICE LIMA SANTOS"},{"no_logradouro":"POVOADO CAPUNGA"},{"nu_endereco":"S/N"},{"no_bairro":"CENTRO"},{"nu_telefone":"(79)4531374"},{"co_cep":"49560000"},{"uf":"SE"},{"cidade":"Moita Bonita"},{"ano_ubs_det":"2016"},{"mes_ubs_det":"5"}],"geometry":{"type":"Point","coordinates":[-37.305386066436,-10.586636066436]}},{"type":"Feature","properties":[{"gid":"25390"},{"co_cnes":"6650392"},{"lat":"-10.3580170968976"},{"long":"-37.7019192069375"},{"no_fantasia":"UNIDADE DE SAUDE DA FAMILIA BONFIM"},{"no_logradouro":"POVOADO BONFIM"},{"nu_endereco":"S/N"},{"no_bairro":"POVOADO"},{"nu_telefone":""},{"co_cep":"49550000"},{"uf":"SE"},{"cidade":"Carira"},{"ano_ubs_det":"2016"},{"mes_ubs_det":"5"}],"geometry":{"type":"Point","coordinates":[-37.701919206937,-10.358017096898]}},{"type":"Feature","properties":[{"gid":"25944"},{"co_cnes":"6181317"},{"lat":"-10.4324426568396"},{"long":"-36.6745948791504"},{"no_fantasia":"UNIDADE BASICA DE SAUDE MARIA ROSA DE MELO"},{"no_logradouro":"RUA ARNALDO GARCEZ"},{"nu_endereco":"402"},{"no_bairro":"CENTRO"},{"nu_telefone":"(79) 33431323"},{"co_cep":"49970000"},{"uf":"SE"},{"cidade":"Pacatuba"},{"ano_ubs_det":"2016"},{"mes_ubs_det":"5"}],"geometry":{"type":"Point","coordinates":[-36.67459487915,-10.43244265684]}},{"type":"Feature","properties":[{"gid":"25682"},{"co_cnes":"2422573"},{"lat":"-10.2552759647366"},{"long":"-36.7855525016774"},{"no_fantasia":"UNIDADE DE SAUDE DA FAMILIA MANOEL VITORINO"},{"no_logradouro":"POVOADO BOA ESPERANCA"},{"nu_endereco":"S/N"},{"no_bairro":"ZONA RURAL"},{"nu_telefone":""},{"co_cep":"49900000"},{"uf":"SE"},{"cidade":"Propriá"},{"ano_ubs_det":"2016"},{"mes_ubs_det":"5"}],"geometry":{"type":"Point","coordinates":[-36.785552501677,-10.255275964737]}},{"type":"Feature","properties":[{"gid":"25773"},{"co_cnes":"2502925"},{"lat":"-10.361"},{"long":"-37.701"},{"no_fantasia":"USF POV DESCOBERTO"},{"no_logradouro":"POVOADO DESCOBERTO"},{"nu_endereco":"S/N"},{"no_bairro":"POVOADO DESCOBERTO"},{"nu_telefone":""},{"co_cep":"49550000"},{"uf":"SE"},{"cidade":"Carira"},{"ano_ubs_det":"2016"},{"mes_ubs_det":"5"}],"geometry":{"type":"Point","coordinates":[-37.701,-10.361]}},{"type":"Feature","properties":[{"gid":"25829"},{"co_cnes":"2420864"},{"lat":"-11.107242107391"},{"long":"-37.7905440330494"},{"no_fantasia":"US DA FAMILIA POVOADO CARNAIBA"},{"no_logradouro":"POVOADO CARNAIBA"},{"nu_endereco":"S/N"},{"no_bairro":"POVOADO CARNAIBA"},{"nu_telefone":"(79)6431248"},{"co_cep":"49320000"},{"uf":"SE"},{"cidade":"Riachão do Dantas"},{"ano_ubs_det":"2016"},{"mes_ubs_det":"5"}],"geometry":{"type":"Point","coordinates":[-37.790544033049,-11.107242107391]}},{"type":"Feature","properties":[{"gid":"25924"},{"co_cnes":"2420902"},{"lat":"-11.0664022904367"},{"long":"-37.7293412249827"},{"no_fantasia":"US DA FAMILIA POVOADO TANQUE NOVO"},{"no_logradouro":"POVOADO TANQUE NOVO"},{"nu_endereco":"S/N"},{"no_bairro":"POVOADO TANQUE NOVO"},{"nu_telefone":"(79)6431248"},{"co_cep":"49320000"},{"uf":"SE"},{"cidade":"Riachão do Dantas"},{"ano_ubs_det":"2016"},{"mes_ubs_det":"5"}],"geometry":{"type":"Point","coordinates":[-37.729341224983,-11.066402290437]}},{"type":"Feature","properties":[{"gid":"25906"},{"co_cnes":"2477467"},{"lat":"-10.4833173751828"},{"long":"-36.8813610076894"},{"no_fantasia":"POSTO DE SAUDE DE ENCRUZILHADA"},{"no_logradouro":"POVOADO ENCRUZILHADA"},{"nu_endereco":"S/N"},{"no_bairro":"RURAL"},{"nu_telefone":"(79)32721555"},{"co_cep":"49960000"},{"uf":"SE"},{"cidade":"Japaratuba"},{"ano_ubs_det":"2016"},{"mes_ubs_det":"5"}],"geometry":{"type":"Point","coordinates":[-36.881361007689,-10.483317375183]}},{"type":"Feature","properties":[{"gid":"26116"},{"co_cnes":"2477939"},{"lat":"-10.2660155296323"},{"long":"-36.7495465278615"},{"no_fantasia":"E S F MUSSUIPE"},{"no_logradouro":"MUSSUIPE"},{"nu_endereco":"S/N"},{"no_bairro":"MUSSUIPE"},{"nu_telefone":"(79)3441277"},{"co_cep":"49980000"},{"uf":"SE"},{"cidade":"Neópolis"},{"ano_ubs_det":"2016"},{"mes_ubs_det":"5"}],"geometry":{"type":"Point","coordinates":[-36.749546527861,-10.266015529632]}},{"type":"Feature","properties":[{"gid":"26251"},{"co_cnes":"3845869"},{"lat":"-10.3230257604063"},{"long":"-36.5774345397949"},{"no_fantasia":"E S F CENTRO II"},{"no_logradouro":"JOSE LEANDRO SOARES"},{"nu_endereco":"136"},{"no_bairro":"CENTRO"},{"nu_telefone":""},{"co_cep":"49980000"},{"uf":"SE"},{"cidade":"Neópolis"},{"ano_ubs_det":"2016"},{"mes_ubs_det":"5"}],"geometry":{"type":"Point","coordinates":[-36.577434539795,-10.323025760406]}},{"type":"Feature","properties":[{"gid":"26673"},{"co_cnes":"3539148"},{"lat":"-11.5185072682496"},{"long":"-37.5150947928792"},{"no_fantasia":"UNIDADE DE SAUDE DA FAMILIA DO POV SITIO NOVO"},{"no_logradouro":"POV SITIO NOVO"},{"nu_endereco":"S/N"},{"no_bairro":"ZONA RURAL"},{"nu_telefone":""},{"co_cep":"49250000"},{"uf":"SE"},{"cidade":"Indiaroba"},{"ano_ubs_det":"2016"},{"mes_ubs_det":"5"}],"geometry":{"type":"Point","coordinates":[-37.515094792879,-11.51850726825]}},{"type":"Feature","properties":[{"gid":"26476"},{"co_cnes":"6992617"},{"lat":"-10.6973683834073"},{"long":"-37.0188403129567"},{"no_fantasia":"UNIDADE DE SAUDE DR ANTONIO FERNANDO MAYNARD"},{"no_logradouro":"LARGO TAMANDARE"},{"nu_endereco":"S/N"},{"no_bairro":"CENTRO"},{"nu_telefone":"(79) 3274-1769"},{"co_cep":"49760000"},{"uf":"SE"},{"cidade":"Rosário do Catete"},{"ano_ubs_det":"2016"},{"mes_ubs_det":"5"}],"geometry":{"type":"Point","coordinates":[-37.018840312957,-10.697368383407]}},{"type":"Feature","properties":[{"gid":"26799"},{"co_cnes":"2477238"},{"lat":"-10.5895221233365"},{"long":"-37.3786425590504"},{"no_fantasia":"POSTO DE SAUDE DA FAMILIA CAMPO GRANDE"},{"no_logradouro":"POVOADO CAMPO GRANDE"},{"nu_endereco":"S/N"},{"no_bairro":"RURAL"},{"nu_telefone":"(79)3453-1374"},{"co_cep":"49560000"},{"uf":"SE"},{"cidade":"Moita Bonita"},{"ano_ubs_det":"2016"},{"mes_ubs_det":"5"}],"geometry":{"type":"Point","coordinates":[-37.37864255905,-10.589522123337]}},{"type":"Feature","properties":[{"gid":"27147"},{"co_cnes":"2546205"},{"lat":"-10.3580170968976"},{"long":"-37.7019192069375"},{"no_fantasia":"USF POV ALTOS VERDES"},{"no_logradouro":"USF POV ALTOS VERDES"},{"nu_endereco":"S/N"},{"no_bairro":"ZONA RURAL"},{"nu_telefone":""},{"co_cep":"49550000"},{"uf":"SE"},{"cidade":"Carira"},{"ano_ubs_det":"2016"},{"mes_ubs_det":"5"}],"geometry":{"type":"Point","coordinates":[-37.701919206937,-10.358017096898]}},{"type":"Feature","properties":[{"gid":"26815"},{"co_cnes":"2658593"},{"lat":"-10.2477649415004"},{"long":"-36.8840359528515"},{"no_fantasia":"CLINICA DE SAUDE DA FAMILIA JURACI RAMOS ROCHA"},{"no_logradouro":"PRACA JONAS TRINDADE"},{"nu_endereco":"49"},{"no_bairro":"CENTRO"},{"nu_telefone":"(79)33471233"},{"co_cep":"49930000"},{"uf":"SE"},{"cidade":"Cedro de São João"},{"ano_ubs_det":"2016"},{"mes_ubs_det":"5"}],"geometry":{"type":"Point","coordinates":[-36.884035952851,-10.2477649415]}},{"type":"Feature","properties":[{"gid":"27485"},{"co_cnes":"2612305"},{"lat":"-10.4274274735498"},{"long":"-36.9570014375569"},{"no_fantasia":"UNIDADE BASICA DE SAUDE CAMARA"},{"no_logradouro":"POVOADO CAMARA"},{"nu_endereco":"S/N"},{"no_bairro":"POVOADO"},{"nu_telefone":""},{"co_cep":"49780000"},{"uf":"SE"},{"cidade":"Muribeca"},{"ano_ubs_det":"2016"},{"mes_ubs_det":"5"}],"geometry":{"type":"Point","coordinates":[-36.957001437557,-10.42742747355]}},{"type":"Feature","properties":[{"gid":"27278"},{"co_cnes":"2423138"},{"lat":"-11.4289999008175"},{"long":"-37.4124383926381"},{"no_fantasia":"UNIDADE DE SAUDE DA FAMILIA GIVALDA LESSA DA COSTA"},{"no_logradouro":"POVOADO TERRA CAIDA"},{"nu_endereco":"15"},{"no_bairro":"POVOADO"},{"nu_telefone":"7935431353"},{"co_cep":"49250000"},{"uf":"SE"},{"cidade":"Indiaroba"},{"ano_ubs_det":"2016"},{"mes_ubs_det":"5"}],"geometry":{"type":"Point","coordinates":[-37.412438392638,-11.428999900817]}},{"type":"Feature","properties":[{"gid":"27494"},{"co_cnes":"6756859"},{"lat":"-10.3922510147092"},{"long":"-36.97189092636"},{"no_fantasia":"UNIDADE BASICA DE SAUDE PEDRAS"},{"no_logradouro":"PEDRAS"},{"nu_endereco":"S/N"},{"no_bairro":"POVOADO"},{"nu_telefone":""},{"co_cep":"49780000"},{"uf":"SE"},{"cidade":"Muribeca"},{"ano_ubs_det":"2016"},{"mes_ubs_det":"5"}],"geometry":{"type":"Point","coordinates":[-36.97189092636,-10.392251014709]}},{"type":"Feature","properties":[{"gid":"27296"},{"co_cnes":"2423073"},{"lat":"-11.4816999435421"},{"long":"-37.4676060676564"},{"no_fantasia":"POSTO DE SAUDE POVOADO CONVENTO"},{"no_logradouro":"POVOADO CONVENTO"},{"nu_endereco":"35"},{"no_bairro":"POVOADO"},{"nu_telefone":"7935431353"},{"co_cep":"49250000"},{"uf":"SE"},{"cidade":"Indiaroba"},{"ano_ubs_det":"2016"},{"mes_ubs_det":"5"}],"geometry":{"type":"Point","coordinates":[-37.467606067656,-11.481699943542]}},{"type":"Feature","properties":[{"gid":"27472"},{"co_cnes":"2477270"},{"lat":"-10.358723402023"},{"long":"-36.9638013839711"},{"no_fantasia":"UNIDADE BASICA DE SAUDE SACO DAS VARAS"},{"no_logradouro":"RUA MANOEL ROSENDO"},{"nu_endereco":"S/N"},{"no_bairro":"POV SACO DAS VARAS"},{"nu_telefone":"33421426"},{"co_cep":"49780000"},{"uf":"SE"},{"cidade":"Muribeca"},{"ano_ubs_det":"2016"},{"mes_ubs_det":"5"}],"geometry":{"type":"Point","coordinates":[-36.963801383971,-10.358723402023]}},{"type":"Feature","properties":[{"gid":"27368"},{"co_cnes":"2477335"},{"lat":"-10.6879377365109"},{"long":"-37.5504326820363"},{"no_fantasia":"UNIDADE DE SAUDE DA FAMILIA JOAO CALAZANS DE ALMEIDA"},{"no_logradouro":"POVOADO LAGOA SECA"},{"nu_endereco":"S/N"},{"no_bairro":"ZONA RURAL"},{"nu_telefone":"(79)34571302"},{"co_cep":"49565000"},{"uf":"SE"},{"cidade":"Macambira"},{"ano_ubs_det":"2016"},{"mes_ubs_det":"5"}],"geometry":{"type":"Point","coordinates":[-37.550432682036,-10.687937736511]}},{"type":"Feature","properties":[{"gid":"27491"},{"co_cnes":"6764622"},{"lat":"-10.3133618831632"},{"long":"-37.0106220245351"},{"no_fantasia":"UNIDADE BASICA DE SAUDE ARRODEADOR"},{"no_logradouro":"ARRODEADOR"},{"nu_endereco":"S/N"},{"no_bairro":"POVOADO"},{"nu_telefone":""},{"co_cep":"49780000"},{"uf":"SE"},{"cidade":"Muribeca"},{"ano_ubs_det":"2016"},{"mes_ubs_det":"5"}],"geometry":{"type":"Point","coordinates":[-37.010622024535,-10.313361883163]}},{"type":"Feature","properties":[{"gid":"27266"},{"co_cnes":"6931510"},{"lat":"-10.4770088195798"},{"long":"-36.4273166656484"},{"no_fantasia":"UNIDADE DE SAUDE DA FAMILIA CARLOS AUGUSTO FERREIRA"},{"no_logradouro":"POVOADO SARAMEM"},{"nu_endereco":"S/N"},{"no_bairro":"POVOADO SARAMEM"},{"nu_telefone":""},{"co_cep":"49995000"},{"uf":"SE"},{"cidade":"Brejo Grande"},{"ano_ubs_det":"2016"},{"mes_ubs_det":"5"}],"geometry":{"type":"Point","coordinates":[-36.427316665648,-10.47700881958]}},{"type":"Feature","properties":[{"gid":"27481"},{"co_cnes":"6764614"},{"lat":"-10.362854003906"},{"long":"-36.974959373473"},{"no_fantasia":"UNIDADE BASICA DE SAUDE PAU ALTO"},{"no_logradouro":"PAU ALTO"},{"nu_endereco":"S/N"},{"no_bairro":"POVOADO"},{"nu_telefone":""},{"co_cep":"49780000"},{"uf":"SE"},{"cidade":"Muribeca"},{"ano_ubs_det":"2016"},{"mes_ubs_det":"5"}],"geometry":{"type":"Point","coordinates":[-36.974959373473,-10.362854003906]}},{"type":"Feature","properties":[{"gid":"27748"},{"co_cnes":"2477831"},{"lat":"-11.1164367198941"},{"long":"-37.4350976943959"},{"no_fantasia":"POSTO DE SAUDE COLONIA ENTRE RIOS"},{"no_logradouro":"COLONIA ENTRE RIOS"},{"nu_endereco":"S/N"},{"no_bairro":"ZONA RURAL"},{"nu_telefone":"(79)35226001"},{"co_cep":"49200000"},{"uf":"SE"},{"cidade":"Estância"},{"ano_ubs_det":"2016"},{"mes_ubs_det":"5"}],"geometry":{"type":"Point","coordinates":[-37.435097694396,-11.116436719894]}},{"type":"Feature","properties":[{"gid":"27937"},{"co_cnes":"2545837"},{"lat":"-11.3533173973413"},{"long":"-37.4498421802076"},{"no_fantasia":"UNIDADE DE SAUDE DA FAMILIA POV AREIA BRANCA"},{"no_logradouro":"BR 101"},{"nu_endereco":"S/N"},{"no_bairro":"ZONA RURAL"},{"nu_telefone":""},{"co_cep":"49230000"},{"uf":"SE"},{"cidade":"Santa Luzia do Itanhy"},{"ano_ubs_det":"2016"},{"mes_ubs_det":"5"}],"geometry":{"type":"Point","coordinates":[-37.449842180208,-11.353317397341]}},{"type":"Feature","properties":[{"gid":"27616"},{"co_cnes":"2477025"},{"lat":"-10.76073"},{"long":"-37.31746"},{"no_fantasia":"UNIDADE DE SAUDE DA FAMILIA JOSE BATISTA IRMAO"},{"no_logradouro":"ZONA RURAL POVOADO JUNCO"},{"nu_endereco":"S/N"},{"no_bairro":"ZONA RURAL"},{"nu_telefone":""},{"co_cep":"49580000"},{"uf":"SE"},{"cidade":"Areia Branca"},{"ano_ubs_det":"2016"},{"mes_ubs_det":"5"}],"geometry":{"type":"Point","coordinates":[-37.31746,-10.76073]}},{"type":"Feature","properties":[{"gid":"27659"},{"co_cnes":"2477033"},{"lat":"-10.758192250822"},{"long":"-37.3133626004441"},{"no_fantasia":"UNIDADE DA SAUDE DA FAMILIA ASCENDINO DE SOUZA FILHO"},{"no_logradouro":"ZONA RURAL POVOADO PEDRINHAS"},{"nu_endereco":"S/N"},{"no_bairro":"ZONA RURAL"},{"nu_telefone":""},{"co_cep":"49580000"},{"uf":"SE"},{"cidade":"Areia Branca"},{"ano_ubs_det":"2016"},{"mes_ubs_det":"5"}],"geometry":{"type":"Point","coordinates":[-37.313362600444,-10.758192250822]}},{"type":"Feature","properties":[{"gid":"27608"},{"co_cnes":"4021037"},{"lat":"-10.7923257834115"},{"long":"-37.5684292045339"},{"no_fantasia":"US DA FAMILIA DO POVOADO MANGABEIRA"},{"no_logradouro":"POVOADO MANGABEIRA"},{"nu_endereco":"S/N"},{"no_bairro":"ZONA RURAL"},{"nu_telefone":""},{"co_cep":"49525000"},{"uf":"SE"},{"cidade":"São Domingos"},{"ano_ubs_det":"2016"},{"mes_ubs_det":"5"}],"geometry":{"type":"Point","coordinates":[-37.568429204534,-10.792325783411]}},{"type":"Feature","properties":[{"gid":"28382"},{"co_cnes":"2477149"},{"lat":"-10.7410561554894"},{"long":"-36.8597462116876"},{"no_fantasia":"EQUIPE BASICA DE SAUDE SAGRADO CORACAO DE JESUS"},{"no_logradouro":"RUA GONCALO ROLLBERG"},{"nu_endereco":"S/N"},{"no_bairro":"CENTRO"},{"nu_telefone":"(79) 32761693"},{"co_cep":"49190000"},{"uf":"SE"},{"cidade":"Pirambu"},{"ano_ubs_det":"2016"},{"mes_ubs_det":"5"}],"geometry":{"type":"Point","coordinates":[-36.859746211688,-10.741056155489]}},{"type":"Feature","properties":[{"gid":"28775"},{"co_cnes":"2477351"},{"lat":"-10.2973600719842"},{"long":"-36.6176774101257"},{"no_fantasia":"UNIDADE DE SAUDE SANTANA DO SAO FRANCISCO"},{"no_logradouro":"RUA DO SESP"},{"nu_endereco":"054"},{"no_bairro":"CENTRO"},{"nu_telefone":"(79)33910220"},{"co_cep":"49985000"},{"uf":"SE"},{"cidade":"Santana do São Francisco"},{"ano_ubs_det":"2016"},{"mes_ubs_det":"5"}],"geometry":{"type":"Point","coordinates":[-36.617677410126,-10.297360071984]}},{"type":"Feature","properties":[{"gid":"28577"},{"co_cnes":"2477858"},{"lat":"-11.267948649303"},{"long":"-37.4400108537292"},{"no_fantasia":"USF IRMA MADALENA"},{"no_logradouro":"AV RAIMUNDO SILVEIRA SOUZA"},{"nu_endereco":"S/N"},{"no_bairro":"ALAGOAS"},{"nu_telefone":"(79)5222468"},{"co_cep":"49200000"},{"uf":"SE"},{"cidade":"Estância"},{"ano_ubs_det":"2016"},{"mes_ubs_det":"5"}],"geometry":{"type":"Point","coordinates":[-37.440010853729,-11.267948649303]}},{"type":"Feature","properties":[{"gid":"28781"},{"co_cnes":"2477254"},{"lat":"-10.5769264698025"},{"long":"-37.3502111434926"},{"no_fantasia":"UNIDADE DE SAUDE DA FAMILIA SERAPIAO ANTONIO DE GOIS"},{"no_logradouro":"AV JOAO EVANGELISTA DA COSTA"},{"nu_endereco":"S/N"},{"no_bairro":"CENTRO"},{"nu_telefone":"(79)34531374"},{"co_cep":"49560000"},{"uf":"SE"},{"cidade":"Moita Bonita"},{"ano_ubs_det":"2016"},{"mes_ubs_det":"5"}],"geometry":{"type":"Point","coordinates":[-37.350211143493,-10.576926469802]}},{"type":"Feature","properties":[{"gid":"28444"},{"co_cnes":"2546043"},{"lat":"-10.4498997629294"},{"long":"-36.6479863948283"},{"no_fantasia":"USF DE SANTANA DOS FRADES"},{"no_logradouro":"POV SANTANA DOS FRADES"},{"nu_endereco":"S/N"},{"no_bairro":"RURAL"},{"nu_telefone":"(79) 33431323"},{"co_cep":"49970000"},{"uf":"SE"},{"cidade":"Pacatuba"},{"ano_ubs_det":"2016"},{"mes_ubs_det":"5"}],"geometry":{"type":"Point","coordinates":[-36.647986394828,-10.449899762929]}},{"type":"Feature","properties":[{"gid":"28776"},{"co_cnes":"3059170"},{"lat":"-10.02636"},{"long":"-37.55863"},{"no_fantasia":"UNIDADE DE SAUDE DA FAMILIA DO POVOADO MARAVILHA"},{"no_logradouro":"POVOADO MARAVILHA MONTE ALEGRESE"},{"nu_endereco":"22"},{"no_bairro":"ZONA RURAL"},{"nu_telefone":"(79)33181612"},{"co_cep":"49690000"},{"uf":"SE"},{"cidade":"Monte Alegre de Sergipe"},{"ano_ubs_det":"2016"},{"mes_ubs_det":"5"}],"geometry":{"type":"Point","coordinates":[-37.55863,-10.02636]}},{"type":"Feature","properties":[{"gid":"29109"},{"co_cnes":"2422220"},{"lat":"-10.6572532653806"},{"long":"-37.3106861114491"},{"no_fantasia":"UNIDADE DE SAUDE DA FAMILIA PADRE ANTONIO RESENDE DE SOUZA"},{"no_logradouro":"AVENIDA SENADOR WALTER FRANCO"},{"nu_endereco":"1040"},{"no_bairro":"CENTRO"},{"nu_telefone":"(79) 3442-1252"},{"co_cep":"49570000"},{"uf":"SE"},{"cidade":"Malhador"},{"ano_ubs_det":"2016"},{"mes_ubs_det":"5"}],"geometry":{"type":"Point","coordinates":[-37.310686111449,-10.657253265381]}},{"type":"Feature","properties":[{"gid":"29113"},{"co_cnes":"2476959"},{"lat":"-10.5060996319003"},{"long":"-37.0548329945789"},{"no_fantasia":"CLINICA DE SAUDE DA FAMILIA DR GERALDO LUIZ SOUZA MOTA"},{"no_logradouro":"AV QUINTINO BOCAIUVA"},{"nu_endereco":"740"},{"no_bairro":"CENTRO"},{"nu_telefone":"(79)32631279"},{"co_cep":"49700000"},{"uf":"SE"},{"cidade":"Capela"},{"ano_ubs_det":"2016"},{"mes_ubs_det":"5"}],"geometry":{"type":"Point","coordinates":[-37.054832994579,-10.5060996319]}},{"type":"Feature","properties":[{"gid":"29187"},{"co_cnes":"2546051"},{"lat":"-10.4498997629294"},{"long":"-36.6479863948283"},{"no_fantasia":"CSF MARIA DO CEU INACIO DA SILVA"},{"no_logradouro":"RUA A CONJUNTO ALBANO FRANCO"},{"nu_endereco":"S/N"},{"no_bairro":"CENTRO"},{"nu_telefone":"(79) 33431208"},{"co_cep":"49970000"},{"uf":"SE"},{"cidade":"Pacatuba"},{"ano_ubs_det":"2016"},{"mes_ubs_det":"5"}],"geometry":{"type":"Point","coordinates":[-36.647986394828,-10.449899762929]}},{"type":"Feature","properties":[{"gid":"29249"},{"co_cnes":"2546280"},{"lat":"-10.56808"},{"long":"-37.72284"},{"no_fantasia":"UNIDADE BASICA DONA CACULA"},{"no_logradouro":"POV RAJAS"},{"nu_endereco":"S/N"},{"no_bairro":"RURAL"},{"nu_telefone":"(79)34611133"},{"co_cep":"49517000"},{"uf":"SE"},{"cidade":"Pinhão"},{"ano_ubs_det":"2016"},{"mes_ubs_det":"5"}],"geometry":{"type":"Point","coordinates":[-37.72284,-10.56808]}},{"type":"Feature","properties":[{"gid":"29639"},{"co_cnes":"2477300"},{"lat":"-10.6659368"},{"long":"-37.5403193"},{"no_fantasia":"CLINICA DE SAUDE RAIMUNDA RIBEIRO DOS SANTOS DONA CACULA"},{"no_logradouro":"RUA ROQUE BISPO DE MENEZES"},{"nu_endereco":"S/N"},{"no_bairro":"CENTRO"},{"nu_telefone":"(79)34571281"},{"co_cep":"49565000"},{"uf":"SE"},{"cidade":"Macambira"},{"ano_ubs_det":"2016"},{"mes_ubs_det":"5"}],"geometry":{"type":"Point","coordinates":[-37.5403193,-10.6659368]}},{"type":"Feature","properties":[{"gid":"29720"},{"co_cnes":"2798"},{"lat":"-10.8830630779263"},{"long":"-37.0664548873891"},{"no_fantasia":"US JOSE AUGUSTO BARRETO JAPAOZINHO"},{"no_logradouro":"AV EUCLIDES FIGUEIREDO"},{"nu_endereco":"S/N"},{"no_bairro":"JAPAOZINHO"},{"nu_telefone":"(79)3179-5405"},{"co_cep":"49015150"},{"uf":"SE"},{"cidade":"Aracaju"},{"ano_ubs_det":"2016"},{"mes_ubs_det":"5"}],"geometry":{"type":"Point","coordinates":[-37.066454887389,-10.883063077926]}},{"type":"Feature","properties":[{"gid":"29739"},{"co_cnes":"2477580"},{"lat":"-10.9067992470842"},{"long":"-37.0412415492828"},{"no_fantasia":"CLINICA DE SAUDE DA FAMILIA SANTA LUZIA"},{"no_logradouro":"RUA A"},{"nu_endereco":"185"},{"no_bairro":"CENTRO"},{"nu_telefone":"(79)30258119"},{"co_cep":"49140000"},{"uf":"SE"},{"cidade":"Barra dos Coqueiros"},{"ano_ubs_det":"2016"},{"mes_ubs_det":"5"}],"geometry":{"type":"Point","coordinates":[-37.041241549283,-10.906799247084]}},{"type":"Feature","properties":[{"gid":"30154"},{"co_cnes":"2423391"},{"lat":"-11.3533173973413"},{"long":"-37.4498421802076"},{"no_fantasia":"UNID DE SAUDE DA F POV BOTEQUIM"},{"no_logradouro":"POV BOTEQUIM"},{"nu_endereco":"S/N"},{"no_bairro":"ZONA RURAL"},{"nu_telefone":"(79)5481210"},{"co_cep":"49230000"},{"uf":"SE"},{"cidade":"Santa Luzia do Itanhy"},{"ano_ubs_det":"2016"},{"mes_ubs_det":"5"}],"geometry":{"type":"Point","coordinates":[-37.449842180208,-11.353317397341]}},{"type":"Feature","properties":[{"gid":"30153"},{"co_cnes":"2420988"},{"lat":"-11.4705741405484"},{"long":"-37.7464699745167"},{"no_fantasia":"U B S MARIA DOLORES S FONSECA"},{"no_logradouro":"BAIRRO SAO FRANCISCO"},{"nu_endereco":"S/N"},{"no_bairro":"BAIRRO SAO FRANCISCO"},{"nu_telefone":"79 99969-8677"},{"co_cep":"49270000"},{"uf":"SE"},{"cidade":"Cristinápolis"},{"ano_ubs_det":"2016"},{"mes_ubs_det":"5"}],"geometry":{"type":"Point","coordinates":[-37.746469974517,-11.470574140548]}},{"type":"Feature","properties":[{"gid":"30151"},{"co_cnes":"2420201"},{"lat":"-10.0786160367074"},{"long":"-37.0504728834465"},{"no_fantasia":"CLINICA DE SAUDE DA FAMILIA MARIA GOMES DE ANDRADE"},{"no_logradouro":"RUA 21 DE ABRIL"},{"nu_endereco":"S/N"},{"no_bairro":"CAIXA DAGUA"},{"nu_telefone":"(79)3316 1024"},{"co_cep":"49890000"},{"uf":"SE"},{"cidade":"Nossa Senhora de Lourdes"},{"ano_ubs_det":"2016"},{"mes_ubs_det":"5"}],"geometry":{"type":"Point","coordinates":[-37.050472883447,-10.078616036707]}},{"type":"Feature","properties":[{"gid":"30156"},{"co_cnes":"2423413"},{"lat":"-11.3533173973413"},{"long":"-37.4498421802076"},{"no_fantasia":"CLINICA DE SAUDE DA FAMILIA AMILKA DO AMOR CARDOSO"},{"no_logradouro":"RUA JESSE DA SILVA PRADO"},{"nu_endereco":"S/N"},{"no_bairro":"CENTRO"},{"nu_telefone":"(79)5481210"},{"co_cep":"49230000"},{"uf":"SE"},{"cidade":"Santa Luzia do Itanhy"},{"ano_ubs_det":"2016"},{"mes_ubs_det":"5"}],"geometry":{"type":"Point","coordinates":[-37.449842180208,-11.353317397341]}},{"type":"Feature","properties":[{"gid":"30152"},{"co_cnes":"2420228"},{"lat":"-10.0259041786191"},{"long":"-36.9593381881703"},{"no_fantasia":"CLINICA DE SAUDE DA FAMILIA TECLA CONCEICAO DA SILVEIRA"},{"no_logradouro":"RUA ALTO DA BOA VISTA"},{"nu_endereco":"185"},{"no_bairro":"POVOADO ESCURIAL"},{"nu_telefone":"79 3316-1215"},{"co_cep":"49890000"},{"uf":"SE"},{"cidade":"Nossa Senhora de Lourdes"},{"ano_ubs_det":"2016"},{"mes_ubs_det":"5"}],"geometry":{"type":"Point","coordinates":[-36.95933818817,-10.025904178619]}},{"type":"Feature","properties":[{"gid":"30923"},{"co_cnes":"2658488"},{"lat":"-10.97657"},{"long":"-37.09407"},{"no_fantasia":"US CELSO DANIEL SANTA MARIA"},{"no_logradouro":"TRAVESSA 5"},{"nu_endereco":"S/N"},{"no_bairro":"SANTA MARIA"},{"nu_telefone":"(79)31793007"},{"co_cep":"49044000"},{"uf":"SE"},{"cidade":"Aracaju"},{"ano_ubs_det":"2016"},{"mes_ubs_det":"5"}],"geometry":{"type":"Point","coordinates":[-37.09407,-10.97657]}},{"type":"Feature","properties":[{"gid":"31548"},{"co_cnes":"6672205"},{"lat":"-10.6468185839523"},{"long":"-36.9908161851827"},{"no_fantasia":"UNIDADE DE SAUDE ARIOVALDO FERREIRA DE SOUZA"},{"no_logradouro":"RUA THEOTONIO NETO"},{"nu_endereco":"S/N"},{"no_bairro":"CONJ ALBANO FRANCO"},{"nu_telefone":""},{"co_cep":"49740000"},{"uf":"SE"},{"cidade":"Carmópolis"},{"ano_ubs_det":"2016"},{"mes_ubs_det":"5"}],"geometry":{"type":"Point","coordinates":[-36.990816185183,-10.646818583952]}},{"type":"Feature","properties":[{"gid":"31254"},{"co_cnes":"2477408"},{"lat":"-10.6088232994077"},{"long":"-36.9028615951527"},{"no_fantasia":"POSTO DE SAUDE DE SAPUCAIA"},{"no_logradouro":"POVOADO SAPUCAIA"},{"nu_endereco":"S/N"},{"no_bairro":"RURAL"},{"nu_telefone":"(79)32721555"},{"co_cep":"49960000"},{"uf":"SE"},{"cidade":"Japaratuba"},{"ano_ubs_det":"2016"},{"mes_ubs_det":"5"}],"geometry":{"type":"Point","coordinates":[-36.902861595153,-10.608823299408]}},{"type":"Feature","properties":[{"gid":"31258"},{"co_cnes":"2477475"},{"lat":"-10.4686188697812"},{"long":"-36.8933773040761"},{"no_fantasia":"POSTO DE SAUDE DE MUNDO NOVO"},{"no_logradouro":"POVOADO MUNDO NOVO"},{"nu_endereco":"S/N"},{"no_bairro":"RURAL"},{"nu_telefone":"(79)32721555"},{"co_cep":"49960000"},{"uf":"SE"},{"cidade":"Japaratuba"},{"ano_ubs_det":"2016"},{"mes_ubs_det":"5"}],"geometry":{"type":"Point","coordinates":[-36.893377304076,-10.468618869781]}},{"type":"Feature","properties":[{"gid":"31259"},{"co_cnes":"2477505"},{"lat":"-10.6576180458066"},{"long":"-36.9012522697438"},{"no_fantasia":"UNIDADE DE SAUDE DA FAMILIA SAO JOSE DA CAATINGA"},{"no_logradouro":"POVOAO SAO JOSE"},{"nu_endereco":"S/N"},{"no_bairro":"ZONA RURAL"},{"nu_telefone":"(79)32721555"},{"co_cep":"49960000"},{"uf":"SE"},{"cidade":"Japaratuba"},{"ano_ubs_det":"2016"},{"mes_ubs_det":"5"}],"geometry":{"type":"Point","coordinates":[-36.901252269744,-10.657618045807]}},{"type":"Feature","properties":[{"gid":"31256"},{"co_cnes":"2477440"},{"lat":"-10.5917108058926"},{"long":"-36.9492959976186"},{"no_fantasia":"CLINICA DR JOSE AUGUSTO CORREA SANTOS ZEDU"},{"no_logradouro":"RODOVIA LUCIO PRADO"},{"nu_endereco":"S/N"},{"no_bairro":"CENTRO"},{"nu_telefone":"(79) 32723230"},{"co_cep":"49960000"},{"uf":"SE"},{"cidade":"Japaratuba"},{"ano_ubs_det":"2016"},{"mes_ubs_det":"5"}],"geometry":{"type":"Point","coordinates":[-36.949295997619,-10.591710805893]}},{"type":"Feature","properties":[{"gid":"31255"},{"co_cnes":"2477416"},{"lat":"-10.5214369297025"},{"long":"-36.8907809257497"},{"no_fantasia":"UNIDADE DE SAUDE DA FAMILIA SIBALDE"},{"no_logradouro":"POVOADO SIBALDE"},{"nu_endereco":"S/N"},{"no_bairro":"RURAL"},{"nu_telefone":"(79)32721555"},{"co_cep":"49960000"},{"uf":"SE"},{"cidade":"Japaratuba"},{"ano_ubs_det":"2016"},{"mes_ubs_det":"5"}],"geometry":{"type":"Point","coordinates":[-36.89078092575,-10.521436929702]}},{"type":"Feature","properties":[{"gid":"31257"},{"co_cnes":"2477459"},{"lat":"-10.5659508705136"},{"long":"-36.8158721923817"},{"no_fantasia":"UNIDADE DE SAUDE DA FAMILIA BADAJOS"},{"no_logradouro":"POVOADO BADAJOS"},{"nu_endereco":"S/N"},{"no_bairro":"RURAL"},{"nu_telefone":"(79)32721555"},{"co_cep":"49960000"},{"uf":"SE"},{"cidade":"Japaratuba"},{"ano_ubs_det":"2016"},{"mes_ubs_det":"5"}],"geometry":{"type":"Point","coordinates":[-36.815872192382,-10.565950870514]}},{"type":"Feature","properties":[{"gid":"31239"},{"co_cnes":"2421119"},{"lat":"-10.2181434631345"},{"long":"-37.4212145805348"},{"no_fantasia":"CLINICA DE SAUDE DA FAMILIA MARIA DA CONCEICAO PARTEIRA"},{"no_logradouro":"PRACA DO MERCADO"},{"nu_endereco":"31"},{"no_bairro":"CENTRO"},{"nu_telefone":"(79) 34113099"},{"co_cep":"49680000"},{"uf":"SE"},{"cidade":"Nossa Senhora da Glória"},{"ano_ubs_det":"2016"},{"mes_ubs_det":"5"}],"geometry":{"type":"Point","coordinates":[-37.421214580535,-10.218143463134]}},{"type":"Feature","properties":[{"gid":"31829"},{"co_cnes":"2815877"},{"lat":"-10.9853410720822"},{"long":"-37.3490953445424"},{"no_fantasia":"USF DO POVOADO SALVADOR"},{"no_logradouro":"POVOADO SALVADOR"},{"nu_endereco":"S/N"},{"no_bairro":"ZONA RURAL"},{"nu_telefone":""},{"co_cep":"49120000"},{"uf":"SE"},{"cidade":"Itaporanga d'Ajuda"},{"ano_ubs_det":"2016"},{"mes_ubs_det":"5"}],"geometry":{"type":"Point","coordinates":[-37.349095344542,-10.985341072082]}},{"type":"Feature","properties":[{"gid":"31705"},{"co_cnes":"2422786"},{"lat":"-10.9629821777341"},{"long":"-37.4533367156972"},{"no_fantasia":"POSTO DE SAUDE DO POVOADO MOITA FORMOSA"},{"no_logradouro":"POVOADO MOITA FORMOSA"},{"nu_endereco":"S/N"},{"no_bairro":"ZONA RURAL"},{"nu_telefone":""},{"co_cep":"49120000"},{"uf":"SE"},{"cidade":"Itaporanga d'Ajuda"},{"ano_ubs_det":"2016"},{"mes_ubs_det":"5"}],"geometry":{"type":"Point","coordinates":[-37.453336715697,-10.962982177734]}},{"type":"Feature","properties":[{"gid":"31708"},{"co_cnes":"2422816"},{"lat":"-10.9962727"},{"long":"-37.3069618"},{"no_fantasia":"CLINICA DE SAUDE DA FAMILIA UMBERTO MANDARINO"},{"no_logradouro":"AVENIDA EMIDIO MAXI NETO"},{"nu_endereco":"S/N"},{"no_bairro":"CENTRO"},{"nu_telefone":""},{"co_cep":"49120000"},{"uf":"SE"},{"cidade":"Itaporanga d'Ajuda"},{"ano_ubs_det":"2016"},{"mes_ubs_det":"5"}],"geometry":{"type":"Point","coordinates":[-37.3069618,-10.9962727]}},{"type":"Feature","properties":[{"gid":"31710"},{"co_cnes":"2422867"},{"lat":"-11.0809886455533"},{"long":"-37.2896361351002"},{"no_fantasia":"POSTO DE SAUDE DO POVOADO TIJUPEBA"},{"no_logradouro":"POVOADO COLONIA TIJUPEBA"},{"nu_endereco":"S/N"},{"no_bairro":"ZONA RURAL"},{"nu_telefone":"( )"},{"co_cep":"49120000"},{"uf":"SE"},{"cidade":"Itaporanga d'Ajuda"},{"ano_ubs_det":"2016"},{"mes_ubs_det":"5"}],"geometry":{"type":"Point","coordinates":[-37.2896361351,-11.080988645553]}},{"type":"Feature","properties":[{"gid":"31827"},{"co_cnes":"2815850"},{"lat":"-10.9131038188931"},{"long":"-37.3419284820546"},{"no_fantasia":"POSTO DE SAUDE DO POVOADO IPANEMA"},{"no_logradouro":"POVOADO IPANEMA"},{"nu_endereco":"S/N"},{"no_bairro":"ZONA RURAL"},{"nu_telefone":""},{"co_cep":"49120000"},{"uf":"SE"},{"cidade":"Itaporanga d'Ajuda"},{"ano_ubs_det":"2016"},{"mes_ubs_det":"5"}],"geometry":{"type":"Point","coordinates":[-37.341928482055,-10.913103818893]}},{"type":"Feature","properties":[{"gid":"31930"},{"co_cnes":"5070074"},{"lat":"-11.0609900951382"},{"long":"-37.3766684532155"},{"no_fantasia":"USF RAIMUNDO ARAUJO SILVA"},{"no_logradouro":"POVOADO RIO FUNDO CACHOEIRA"},{"nu_endereco":"S/N"},{"no_bairro":"ZONA RURAL"},{"nu_telefone":""},{"co_cep":"49120000"},{"uf":"SE"},{"cidade":"Itaporanga d'Ajuda"},{"ano_ubs_det":"2016"},{"mes_ubs_det":"5"}],"geometry":{"type":"Point","coordinates":[-37.376668453216,-11.060990095138]}},{"type":"Feature","properties":[{"gid":"31828"},{"co_cnes":"2815869"},{"lat":"-11.2057971954342"},{"long":"-37.3397612571705"},{"no_fantasia":"POSTO DE SAUDE DO POVOADO RIO FUNDO ABAIS"},{"no_logradouro":"POVOADO RIO FUNDO ABAIS"},{"nu_endereco":"S/N"},{"no_bairro":"ZONA RURAL"},{"nu_telefone":""},{"co_cep":"49120000"},{"uf":"SE"},{"cidade":"Itaporanga d'Ajuda"},{"ano_ubs_det":"2016"},{"mes_ubs_det":"5"}],"geometry":{"type":"Point","coordinates":[-37.339761257171,-11.205797195434]}},{"type":"Feature","properties":[{"gid":"31706"},{"co_cnes":"2422794"},{"lat":"-10.9967327673046"},{"long":"-37.3078269330688"},{"no_fantasia":"USF TAPERA"},{"no_logradouro":"POVOADO TAPERA"},{"nu_endereco":"S/N"},{"no_bairro":"ZONA RURAL"},{"nu_telefone":""},{"co_cep":"49120000"},{"uf":"SE"},{"cidade":"Itaporanga d'Ajuda"},{"ano_ubs_det":"2016"},{"mes_ubs_det":"5"}],"geometry":{"type":"Point","coordinates":[-37.307826933069,-10.996732767305]}},{"type":"Feature","properties":[{"gid":"31925"},{"co_cnes":"2477572"},{"lat":"-10.6181191604186"},{"long":"-37.6860272130241"},{"no_fantasia":"CLINICA JOSE FONSECA DA CONCEICAO"},{"no_logradouro":"PRACA DOS ESTUDANTES"},{"nu_endereco":"15"},{"no_bairro":"CENTRO"},{"nu_telefone":"(79)34591240"},{"co_cep":"49512000"},{"uf":"SE"},{"cidade":"Pedra Mole"},{"ano_ubs_det":"2016"},{"mes_ubs_det":"5"}],"geometry":{"type":"Point","coordinates":[-37.686027213024,-10.618119160419]}},{"type":"Feature","properties":[{"gid":"31707"},{"co_cnes":"2422808"},{"lat":"-11.0504436492917"},{"long":"-37.3857021331776"},{"no_fantasia":"POSTO DE SAUDE DO POVOADO RIO FUNDO"},{"no_logradouro":"POVOADO RIO FUNDO"},{"nu_endereco":"S/N"},{"no_bairro":"ZONA RURAL"},{"nu_telefone":""},{"co_cep":"49120000"},{"uf":"SE"},{"cidade":"Itaporanga d'Ajuda"},{"ano_ubs_det":"2016"},{"mes_ubs_det":"5"}],"geometry":{"type":"Point","coordinates":[-37.385702133178,-11.050443649292]}},{"type":"Feature","properties":[{"gid":"31943"},{"co_cnes":"5393078"},{"lat":"-10.9967327673046"},{"long":"-37.3078269330688"},