[{"type":"Feature","properties":[{"gid":"15"},{"co_cnes":"2751216"},{"lat":"-21.4876699447626"},{"long":"-51.6999650001511"},{"no_fantasia":"UBS MARCIA CRISTIANE DA SILVA DE OURO VERDE"},{"no_logradouro":"RUA PERNAMBUCO"},{"nu_endereco":"648"},{"no_bairro":"CENTRO"},{"nu_telefone":"(18)38721186"},{"co_cep":"17920000"},{"uf":"SP"},{"cidade":"Ouro Verde"},{"ano_ubs_det":"2016"},{"mes_ubs_det":"5"}],"geometry":{"type":"Point","coordinates":[-51.699965000151,-21.487669944763]}},{"type":"Feature","properties":[{"gid":"127"},{"co_cnes":"3051919"},{"lat":"-22.57668"},{"long":"-48.8154"},{"no_fantasia":"ESF IRENE A COSTA ANDRADE"},{"no_logradouro":"AV DAS ARARAS"},{"nu_endereco":"570"},{"no_bairro":"JARDIM DAS NACOES"},{"nu_telefone":"(14)32641007"},{"co_cep":"18685640"},{"uf":"SP"},{"cidade":"Lençóis Paulista"},{"ano_ubs_det":"2016"},{"mes_ubs_det":"5"}],"geometry":{"type":"Point","coordinates":[-48.8154,-22.57668]}},{"type":"Feature","properties":[{"gid":"109"},{"co_cnes":"2066602"},{"lat":"-22.6993886263406"},{"long":"-46.7650856904636"},{"no_fantasia":"USF ARCADAS"},{"no_logradouro":"RUA PEDRO ALVES DA SILVA"},{"nu_endereco":"62"},{"no_bairro":"ARCADAS"},{"nu_telefone":"(19)38071369"},{"co_cep":"13908030"},{"uf":"SP"},{"cidade":"Amparo"},{"ano_ubs_det":"2016"},{"mes_ubs_det":"5"}],"geometry":{"type":"Point","coordinates":[-46.765085690464,-22.699388626341]}},{"type":"Feature","properties":[{"gid":"762"},{"co_cnes":"5636876"},{"lat":"-21.1525976657861"},{"long":"-47.8401803970323"},{"no_fantasia":"UBS DR ALVARO DE OLIVEIRA PAIVA JARDIM PAIVA"},{"no_logradouro":"RUA FRANCISCO PEIXOTO"},{"nu_endereco":"195"},{"no_bairro":"JARDIM PAIVA"},{"nu_telefone":"(16)39664658"},{"co_cep":"14056838"},{"uf":"SP"},{"cidade":"Ribeirão Preto"},{"ano_ubs_det":"2016"},{"mes_ubs_det":"5"}],"geometry":{"type":"Point","coordinates":[-47.840180397032,-21.152597665786]}},{"type":"Feature","properties":[{"gid":"676"},{"co_cnes":"3264114"},{"lat":"-23.588483333587"},{"long":"-48.019866943358"},{"no_fantasia":"USF MARIA RAVACCI DE OLIVEIRA JARDIM FOGACA"},{"no_logradouro":"RUA SALVADOR LOPES VIEIRA"},{"nu_endereco":"85"},{"no_bairro":"JARDIM FOGACA"},{"nu_telefone":"(015)33735383"},{"co_cep":"18202190"},{"uf":"SP"},{"cidade":"Itapetininga"},{"ano_ubs_det":"2016"},{"mes_ubs_det":"5"}],"geometry":{"type":"Point","coordinates":[-48.019866943358,-23.588483333587]}},{"type":"Feature","properties":[{"gid":"536"},{"co_cnes":"2718871"},{"lat":"-23.5316419601434"},{"long":"-46.3905858993517"},{"no_fantasia":"UBS LUCAS SIMPLICIO DELIESPOSTI"},{"no_logradouro":"RUA JOSE BREVES BRETAS"},{"nu_endereco":"10"},{"no_bairro":"JAD ROSANA"},{"nu_telefone":"(11)46788064"},{"co_cep":"08537200"},{"uf":"SP"},{"cidade":"Ferraz de Vasconcelos"},{"ano_ubs_det":"2016"},{"mes_ubs_det":"5"}],"geometry":{"type":"Point","coordinates":[-46.390585899352,-23.531641960143]}},{"type":"Feature","properties":[{"gid":"522"},{"co_cnes":"2751186"},{"lat":"-22.1507978439325"},{"long":"-51.17169857025"},{"no_fantasia":"UBS II DR JOSE CARLOS MACUCO JANINI"},{"no_logradouro":"AVN CEL JOAO GOMES MARTINS"},{"nu_endereco":"749"},{"no_bairro":"CENTRO"},{"nu_telefone":"(18)3275-9050"},{"co_cep":"19500000"},{"uf":"SP"},{"cidade":"Martinópolis"},{"ano_ubs_det":"2016"},{"mes_ubs_det":"5"}],"geometry":{"type":"Point","coordinates":[-51.17169857025,-22.150797843933]}},{"type":"Feature","properties":[{"gid":"463"},{"co_cnes":"2086247"},{"lat":"-23.3477926254266"},{"long":"-47.8670024871812"},{"no_fantasia":"ESF OTHONIEL CERQUEIRA LUZ CDHU TATUI SP"},{"no_logradouro":"RUA SERGIO MASCARENHAS C BARROS"},{"nu_endereco":"S/N"},{"no_bairro":"CDHU"},{"nu_telefone":"(15)32515789"},{"co_cep":"18277400"},{"uf":"SP"},{"cidade":"Tatuí"},{"ano_ubs_det":"2016"},{"mes_ubs_det":"5"}],"geometry":{"type":"Point","coordinates":[-47.867002487181,-23.347792625427]}},{"type":"Feature","properties":[{"gid":"764"},{"co_cnes":"2791242"},{"lat":"-21.5402626991266"},{"long":"-49.8472023010239"},{"no_fantasia":"UBS ESF JARDIM SAO JOAO PROMISSAO"},{"no_logradouro":"RUA SAO CARLOS"},{"nu_endereco":"205"},{"no_bairro":"JARDIM SAO JOAO"},{"nu_telefone":"(14)35413535"},{"co_cep":"16370000"},{"uf":"SP"},{"cidade":"Promissão"},{"ano_ubs_det":"2016"},{"mes_ubs_det":"5"}],"geometry":{"type":"Point","coordinates":[-49.847202301024,-21.540262699127]}},{"type":"Feature","properties":[{"gid":"532"},{"co_cnes":"8788"},{"lat":"-23.7005996704095"},{"long":"-46.5047621726976"},{"no_fantasia":"UBS VILA LUZITA"},{"no_logradouro":"AVN DOM PEDRO I"},{"nu_endereco":"4197"},{"no_bairro":"VIL LUZITA"},{"nu_telefone":"(11)44534861"},{"co_cep":"09130400"},{"uf":"SP"},{"cidade":"Santo André"},{"ano_ubs_det":"2016"},{"mes_ubs_det":"5"}],"geometry":{"type":"Point","coordinates":[-46.504762172698,-23.700599670409]}},{"type":"Feature","properties":[{"gid":"723"},{"co_cnes":"2688107"},{"lat":"-22.9520165920251"},{"long":"-46.5321850776659"},{"no_fantasia":"UBS VILA APARECIDA"},{"no_logradouro":"AVENIDA SAO CRISTOVAO"},{"nu_endereco":"365"},{"no_bairro":"JARDIM COMENDADOR CA"},{"nu_telefone":"(11) 4035-5025"},{"co_cep":"12912530"},{"uf":"SP"},{"cidade":"Bragança Paulista"},{"ano_ubs_det":"2016"},{"mes_ubs_det":"5"}],"geometry":{"type":"Point","coordinates":[-46.532185077666,-22.952016592025]}},{"type":"Feature","properties":[{"gid":"1075"},{"co_cnes":"3788474"},{"lat":"-23.9518904685967"},{"long":"-46.3985896110521"},{"no_fantasia":"UNIDADE BASICA DE SAUDE PARQUE SAO VICENTE SAO VICENTE"},{"no_logradouro":"PRACA DOM PEDRO I"},{"nu_endereco":"S/N"},{"no_bairro":"PARQUE SAO VICENTE"},{"nu_telefone":"13 34641565"},{"co_cep":"11360000"},{"uf":"SP"},{"cidade":"São Vicente"},{"ano_ubs_det":"2016"},{"mes_ubs_det":"5"}],"geometry":{"type":"Point","coordinates":[-46.398589611052,-23.951890468597]}},{"type":"Feature","properties":[{"gid":"1119"},{"co_cnes":"2049341"},{"lat":"-23.2119548320764"},{"long":"-47.5090456008897"},{"no_fantasia":"PSF DR FRANCISCO MOREIRA JUNIOR PORTO FELIZ"},{"no_logradouro":"RUA MANOEL ITAGIBA DE ALMEIDA"},{"nu_endereco":"153"},{"no_bairro":"VIL AMERICA"},{"nu_telefone":"(15)02622215"},{"co_cep":"18540000"},{"uf":"SP"},{"cidade":"Porto Feliz"},{"ano_ubs_det":"2016"},{"mes_ubs_det":"5"}],"geometry":{"type":"Point","coordinates":[-47.50904560089,-23.211954832076]}},{"type":"Feature","properties":[{"gid":"1077"},{"co_cnes":"2051184"},{"lat":"-22.785592"},{"long":"-50.2187909877223"},{"no_fantasia":"ESF II DR ISOALDO ABUD"},{"no_logradouro":"RUA EMILIO RORATO"},{"nu_endereco":"17"},{"no_bairro":"JD STA TEREZINHA"},{"nu_telefone":"(18)33515068"},{"co_cep":"19970000"},{"uf":"SP"},{"cidade":"Palmital"},{"ano_ubs_det":"2016"},{"mes_ubs_det":"5"}],"geometry":{"type":"Point","coordinates":[-50.218790987722,-22.785592]}},{"type":"Feature","properties":[{"gid":"841"},{"co_cnes":"2054671"},{"lat":"-20.4930102825159"},{"long":"-47.4012851715074"},{"no_fantasia":"UBS DISTRITAL HORTO MIRAMONTES FRANCA SP"},{"no_logradouro":"RUA LUIZ BELCHIOR"},{"nu_endereco":"1040"},{"no_bairro":"HORTO"},{"nu_telefone":"(16)37030440"},{"co_cep":"14409508"},{"uf":"SP"},{"cidade":"Franca"},{"ano_ubs_det":"2016"},{"mes_ubs_det":"5"}],"geometry":{"type":"Point","coordinates":[-47.401285171507,-20.493010282516]}},{"type":"Feature","properties":[{"gid":"1415"},{"co_cnes":"3459926"},{"lat":"-22.8792536258691"},{"long":"-47.2546434402452"},{"no_fantasia":"UBS TAQUARA BRANCA"},{"no_logradouro":"RUA ONZE DE AGOSTO"},{"nu_endereco":"25"},{"no_bairro":"TAQUARA BRANCA"},{"nu_telefone":"(19)38976082"},{"co_cep":"13188305"},{"uf":"SP"},{"cidade":"Hortolândia"},{"ano_ubs_det":"2016"},{"mes_ubs_det":"5"}],"geometry":{"type":"Point","coordinates":[-47.254643440245,-22.879253625869]}},{"type":"Feature","properties":[{"gid":"1359"},{"co_cnes":"2751496"},{"lat":"-23.7986612319939"},{"long":"-48.5966920852647"},{"no_fantasia":"UNIDADE DO PSF III CONJUNTO HABITACIONAL SAO JOSE BURI SP"},{"no_logradouro":"RUA FLORENTINO PEREIRA"},{"nu_endereco":"S/N"},{"no_bairro":"CENTRO"},{"nu_telefone":"(15)5461673"},{"co_cep":"18290000"},{"uf":"SP"},{"cidade":"Buri"},{"ano_ubs_det":"2016"},{"mes_ubs_det":"5"}],"geometry":{"type":"Point","coordinates":[-48.596692085265,-23.798661231994]}},{"type":"Feature","properties":[{"gid":"1497"},{"co_cnes":"3007642"},{"lat":"-22.01259"},{"long":"-47.41611"},{"no_fantasia":"USF ANA PAULA FERRARI PIRASSUNUNGA"},{"no_logradouro":"RUA AMAZONAS"},{"nu_endereco":"990"},{"no_bairro":"JARDIM KAMEL"},{"nu_telefone":"(19)35621218"},{"co_cep":"13632405"},{"uf":"SP"},{"cidade":"Pirassununga"},{"ano_ubs_det":"2016"},{"mes_ubs_det":"5"}],"geometry":{"type":"Point","coordinates":[-47.41611,-22.01259]}},{"type":"Feature","properties":[{"gid":"1620"},{"co_cnes":"2034247"},{"lat":"-21.0137347171998"},{"long":"-49.5071383479432"},{"no_fantasia":"CS DE NOVA ALIANCA"},{"no_logradouro":"RUA JOSE FAGLIARI"},{"nu_endereco":"75"},{"no_bairro":"PARQUE INDUSTRIAL"},{"nu_telefone":"(17)38111208"},{"co_cep":"15210000"},{"uf":"SP"},{"cidade":"Nova Aliança"},{"ano_ubs_det":"2016"},{"mes_ubs_det":"5"}],"geometry":{"type":"Point","coordinates":[-49.507138347943,-21.0137347172]}},{"type":"Feature","properties":[{"gid":"1619"},{"co_cnes":"2053128"},{"lat":"-23.8617360591882"},{"long":"-48.1744480133043"},{"no_fantasia":"PAS BAIRRO POCINHO SAO MIGUEL ARCANJO"},{"no_logradouro":"RUA PEDRO NUNES DE ALMEIDA"},{"nu_endereco":"175"},{"no_bairro":"POCINHO"},{"nu_telefone":""},{"co_cep":"18230000"},{"uf":"SP"},{"cidade":"São Miguel Arcanjo"},{"ano_ubs_det":"2016"},{"mes_ubs_det":"5"}],"geometry":{"type":"Point","coordinates":[-48.174448013304,-23.861736059188]}},{"type":"Feature","properties":[{"gid":"1968"},{"co_cnes":"2022400"},{"lat":"-20.94981552"},{"long":"-48.4773621747017"},{"no_fantasia":"E S F DR JOAO CARLOS GALHARDO"},{"no_logradouro":"RUA HENRIQUE T DE CARVALHO ESQUINA AV MISSIONARIOS"},{"nu_endereco":"645"},{"no_bairro":"JD SAO CARLOS"},{"nu_telefone":"(17)3343-1902"},{"co_cep":"14702180"},{"uf":"SP"},{"cidade":"Bebedouro"},{"ano_ubs_det":"2016"},{"mes_ubs_det":"5"}],"geometry":{"type":"Point","coordinates":[-48.477362174702,-20.94981552]}},{"type":"Feature","properties":[{"gid":"1655"},{"co_cnes":"2061821"},{"lat":"-23.6491322249999"},{"long":"-47.5746801202081"},{"no_fantasia":"PSF CAMPO LARGO"},{"no_logradouro":"PEDRO PIRES DE MELLO"},{"nu_endereco":"1115"},{"no_bairro":"CAMPO LARGO"},{"nu_telefone":"(15)32922206"},{"co_cep":"18160000"},{"uf":"SP"},{"cidade":"Salto de Pirapora"},{"ano_ubs_det":"2016"},{"mes_ubs_det":"5"}],"geometry":{"type":"Point","coordinates":[-47.574680120208,-23.649132225]}},{"type":"Feature","properties":[{"gid":"1739"},{"co_cnes":"2070308"},{"lat":"-21.0670395669021"},{"long":"-50.1492812527853"},{"no_fantasia":"UBS III DA FAMILIA JAIME PINTO CUNHA BURITAMA"},{"no_logradouro":"RUA JOAQUIM PEREIRA ROSA"},{"nu_endereco":"907"},{"no_bairro":"CENTRO"},{"nu_telefone":"(18)6911658"},{"co_cep":"15290000"},{"uf":"SP"},{"cidade":"Buritama"},{"ano_ubs_det":"2016"},{"mes_ubs_det":"5"}],"geometry":{"type":"Point","coordinates":[-50.149281252785,-21.067039566902]}},{"type":"Feature","properties":[{"gid":"1658"},{"co_cnes":"2747588"},{"lat":"-21.95694"},{"long":"-47.98971"},{"no_fantasia":"PSF JARDIM CRUZADO IBATE"},{"no_logradouro":"RUA BORBOREMA"},{"nu_endereco":"S/N"},{"no_bairro":"JARDIM CRUZADO"},{"nu_telefone":"(16)33437000"},{"co_cep":"14815000"},{"uf":"SP"},{"cidade":"Ibaté"},{"ano_ubs_det":"2016"},{"mes_ubs_det":"5"}],"geometry":{"type":"Point","coordinates":[-47.98971,-21.95694]}},{"type":"Feature","properties":[{"gid":"1815"},{"co_cnes":"2093057"},{"lat":"-24.525386611147"},{"long":"-48.103228422535"},{"no_fantasia":"UNIDADE DE PSF I FLAMBOYANT ELDORADO"},{"no_logradouro":"RODOVIA SP 165 KM 111"},{"nu_endereco":"S/N"},{"no_bairro":"ANDRE LOPES"},{"nu_telefone":"(13) 3879-7000"},{"co_cep":"11960000"},{"uf":"SP"},{"cidade":"Eldorado"},{"ano_ubs_det":"2016"},{"mes_ubs_det":"5"}],"geometry":{"type":"Point","coordinates":[-48.103228422535,-24.525386611147]}},{"type":"Feature","properties":[{"gid":"1804"},{"co_cnes":"2041820"},{"lat":"-24.3207030789726"},{"long":"-47.6353419676622"},{"no_fantasia":"UNIDADE DE ESF COLONIZACAO JUQUIA JUQUIA"},{"no_logradouro":"BAIRRO COLONIZACAO"},{"nu_endereco":"S/N"},{"no_bairro":"COLONIZACAO"},{"nu_telefone":"(13)3844-1298"},{"co_cep":"11800000"},{"uf":"SP"},{"cidade":"Juquiá"},{"ano_ubs_det":"2016"},{"mes_ubs_det":"5"}],"geometry":{"type":"Point","coordinates":[-47.635341967662,-24.320703078973]}},{"type":"Feature","properties":[{"gid":"1688"},{"co_cnes":"6676928"},{"lat":"-22.3669302463525"},{"long":"-47.3681974410997"},{"no_fantasia":"POSTO DE ATENDIMENTO MEDICO JOSE FIORI ARARAS"},{"no_logradouro":"RUA ANA DA SILVA"},{"nu_endereco":"S/N"},{"no_bairro":"JARDIM NOVA SUICA"},{"nu_telefone":"35429308"},{"co_cep":"13607088"},{"uf":"SP"},{"cidade":"Araras"},{"ano_ubs_det":"2016"},{"mes_ubs_det":"5"}],"geometry":{"type":"Point","coordinates":[-47.3681974411,-22.366930246352]}},{"type":"Feature","properties":[{"gid":"1624"},{"co_cnes":"2024926"},{"lat":"-22.3437774181359"},{"long":"-47.3753857612596"},{"no_fantasia":"ESF NILTON DE LOLLO ARARAS"},{"no_logradouro":"RUA CATANDUVA"},{"nu_endereco":"255"},{"no_bairro":"JARDIM SAO JOAO"},{"nu_telefone":"(19)35447302"},{"co_cep":"13606320"},{"uf":"SP"},{"cidade":"Araras"},{"ano_ubs_det":"2016"},{"mes_ubs_det":"5"}],"geometry":{"type":"Point","coordinates":[-47.37538576126,-22.343777418136]}},{"type":"Feature","properties":[{"gid":"1749"},{"co_cnes":"2083922"},{"lat":"-21.6816902160638"},{"long":"-51.0663199424729"},{"no_fantasia":"UBS VILA JARDIM"},{"no_logradouro":"ALAMEDA DAS MARGARIDAS"},{"nu_endereco":"S/N"},{"no_bairro":"VILA JARDIM"},{"nu_telefone":"(18)35228041"},{"co_cep":"17800000"},{"uf":"SP"},{"cidade":"Adamantina"},{"ano_ubs_det":"2016"},{"mes_ubs_det":"5"}],"geometry":{"type":"Point","coordinates":[-51.066319942473,-21.681690216064]}},{"type":"Feature","properties":[{"gid":"1621"},{"co_cnes":"2087537"},{"lat":"-23.5424244403832"},{"long":"-47.4563884735094"},{"no_fantasia":"UNIDADE BASICA DE SAUDE PARQUE BELA VISTA"},{"no_logradouro":"AVENIDA SAO JOAO"},{"nu_endereco":"867"},{"no_bairro":"PQ BELA VISTA"},{"nu_telefone":"(15) 3243-2605"},{"co_cep":"18110210"},{"uf":"SP"},{"cidade":"Votorantim"},{"ano_ubs_det":"2016"},{"mes_ubs_det":"5"}],"geometry":{"type":"Point","coordinates":[-47.456388473509,-23.542424440383]}},{"type":"Feature","properties":[{"gid":"1942"},{"co_cnes":"9393"},{"lat":"-23.2378649711602"},{"long":"-45.9086680412279"},{"no_fantasia":"UBS PARQUE INDUSTRIAL"},{"no_logradouro":"RUA GOIANIA"},{"nu_endereco":"495"},{"no_bairro":"PARQUE INDUSTRIAL"},{"nu_telefone":"12 39321320"},{"co_cep":"12235625"},{"uf":"SP"},{"cidade":"São José dos Campos"},{"ano_ubs_det":"2016"},{"mes_ubs_det":"5"}],"geometry":{"type":"Point","coordinates":[-45.908668041228,-23.23786497116]}},{"type":"Feature","properties":[{"gid":"1636"},{"co_cnes":"2032465"},{"lat":"-22.8089046478265"},{"long":"-47.2236585617052"},{"no_fantasia":"USF CIS NOVA VENEZA"},{"no_logradouro":"RUA PARAIBA"},{"nu_endereco":"211"},{"no_bairro":"JD SAO FRANCISCO"},{"nu_telefone":"(19)38641305"},{"co_cep":"13177040"},{"uf":"SP"},{"cidade":"Sumaré"},{"ano_ubs_det":"2016"},{"mes_ubs_det":"5"}],"geometry":{"type":"Point","coordinates":[-47.223658561705,-22.808904647826]}},{"type":"Feature","properties":[{"gid":"1743"},{"co_cnes":"2064391"},{"lat":"-23.4529352188104"},{"long":"-46.4037823677049"},{"no_fantasia":"UBS PARQUE JANDAIA"},{"no_logradouro":"RUA PORTO ALEGRE"},{"nu_endereco":"446"},{"no_bairro":"PQ JANDAIA"},{"nu_telefone":"1124995702"},{"co_cep":"07261080"},{"uf":"SP"},{"cidade":"Guarulhos"},{"ano_ubs_det":"2016"},{"mes_ubs_det":"5"}],"geometry":{"type":"Point","coordinates":[-46.403782367705,-23.45293521881]}},{"type":"Feature","properties":[{"gid":"1737"},{"co_cnes":"5724120"},{"lat":"-23.0747501474065"},{"long":"-44.958026903498"},{"no_fantasia":"ESF DR PAULO JARBAS DA SILVA"},{"no_logradouro":"RUA JOAO MAYELA QUERIDO"},{"nu_endereco":"223"},{"no_bairro":"OLARIA"},{"nu_telefone":"12 3111 3247"},{"co_cep":"12530000"},{"uf":"SP"},{"cidade":"Cunha"},{"ano_ubs_det":"2016"},{"mes_ubs_det":"5"}],"geometry":{"type":"Point","coordinates":[-44.958026903498,-23.074750147407]}},{"type":"Feature","properties":[{"gid":"1680"},{"co_cnes":"6769519"},{"lat":"-22.230667"},{"long":"-50.8953692"},{"no_fantasia":"ESF RUY CHARLES AMABILE TOFFOLI MARCHIANI"},{"no_logradouro":"RUA JOAO FERREIRA FRANCO"},{"nu_endereco":"240"},{"no_bairro":"RUY CHARLES"},{"nu_telefone":"(18) 3265-5180"},{"co_cep":"19600000"},{"uf":"SP"},{"cidade":"Rancharia"},{"ano_ubs_det":"2016"},{"mes_ubs_det":"5"}],"geometry":{"type":"Point","coordinates":[-50.8953692,-22.230667]}},{"type":"Feature","properties":[{"gid":"1946"},{"co_cnes":"2090414"},{"lat":"-20.1715588433353"},{"long":"-48.6874841798296"},{"no_fantasia":"UNIDADE DE SAUDE DA FAMILIA I COLOMBIA"},{"no_logradouro":"RUA RUI BARBOSA"},{"nu_endereco":"1345"},{"no_bairro":"CENTRO"},{"nu_telefone":"(17)33351035"},{"co_cep":"14795000"},{"uf":"SP"},{"cidade":"Colômbia"},{"ano_ubs_det":"2016"},{"mes_ubs_det":"5"}],"geometry":{"type":"Point","coordinates":[-48.68748417983,-20.171558843335]}},{"type":"Feature","properties":[{"gid":"1707"},{"co_cnes":"2034174"},{"lat":"-22.9244542121881"},{"long":"-47.8982448577867"},{"no_fantasia":"UNIDADE BASICA DE SAUDE DE LARAS"},{"no_logradouro":"RUA JOAO H DE CAMPOS"},{"nu_endereco":"S/N"},{"no_bairro":"DIST DE LARAS"},{"nu_telefone":"(15)2876177"},{"co_cep":"18505000"},{"uf":"SP"},{"cidade":"Laranjal Paulista"},{"ano_ubs_det":"2016"},{"mes_ubs_det":"5"}],"geometry":{"type":"Point","coordinates":[-47.898244857787,-22.924454212188]}},{"type":"Feature","properties":[{"gid":"1656"},{"co_cnes":"2090511"},{"lat":"-23.3889609139385"},{"long":"-49.5120533766983"},{"no_fantasia":"PSF VILA NOSSA SENHORA DE FATIMA FARTURA"},{"no_logradouro":"RUA SAO CAETANO"},{"nu_endereco":"145"},{"no_bairro":"VILA NSRAFATIMA"},{"nu_telefone":"(14)33821194"},{"co_cep":"18870000"},{"uf":"SP"},{"cidade":"Fartura"},{"ano_ubs_det":"2016"},{"mes_ubs_det":"5"}],"geometry":{"type":"Point","coordinates":[-49.512053376698,-23.388960913939]}},{"type":"Feature","properties":[{"gid":"1838"},{"co_cnes":"5905206"},{"lat":"-21.0899640290791"},{"long":"-47.1559309699915"},{"no_fantasia":"PROGRAMA SAUDE DA FAMILIA JOAQUIM AGUIAR"},{"no_logradouro":"RUA PIMENTA"},{"nu_endereco":"60"},{"no_bairro":"SAO BENEDITO"},{"nu_telefone":""},{"co_cep":"14390000"},{"uf":"SP"},{"cidade":"Santo Antônio da Alegria"},{"ano_ubs_det":"2016"},{"mes_ubs_det":"5"}],"geometry":{"type":"Point","coordinates":[-47.155930969992,-21.089964029079]}},{"type":"Feature","properties":[{"gid":"1676"},{"co_cnes":"9237"},{"lat":"-23.1376683711999"},{"long":"-45.9102129936205"},{"no_fantasia":"UBS VILA PAIVA"},{"no_logradouro":"RUA JOAO PEDRO DA ROCHA"},{"nu_endereco":"181"},{"no_bairro":"VILA PAIVA"},{"nu_telefone":"12 39213466"},{"co_cep":"12213510"},{"uf":"SP"},{"cidade":"São José dos Campos"},{"ano_ubs_det":"2016"},{"mes_ubs_det":"5"}],"geometry":{"type":"Point","coordinates":[-45.91021299362,-23.1376683712]}},{"type":"Feature","properties":[{"gid":"1713"},{"co_cnes":"2023288"},{"lat":"-23.01006"},{"long":"-46.81015"},{"no_fantasia":"PSF 06 07 SAN FRANCISCO CLELIO ANTONIO RELA"},{"no_logradouro":"AVENIDA ANTONIO NARDI"},{"nu_endereco":"260"},{"no_bairro":"SAN FRANCISCO"},{"nu_telefone":"(11) 4487-2127"},{"co_cep":"13254260"},{"uf":"SP"},{"cidade":"Itatiba"},{"ano_ubs_det":"2016"},{"mes_ubs_det":"5"}],"geometry":{"type":"Point","coordinates":[-46.81015,-23.01006]}},{"type":"Feature","properties":[{"gid":"1663"},{"co_cnes":"2039257"},{"lat":"-23.97156715393"},{"long":"-46.3951992988573"},{"no_fantasia":"UNIDADE BASICA DE SAUDE PARQUE BITARU SAO VICENTE"},{"no_logradouro":"PRACA INFANTE DOM HENRIQUE"},{"nu_endereco":"S/N"},{"no_bairro":"PARQUE BITARU"},{"nu_telefone":"(13)34671757"},{"co_cep":"11330205"},{"uf":"SP"},{"cidade":"São Vicente"},{"ano_ubs_det":"2016"},{"mes_ubs_det":"5"}],"geometry":{"type":"Point","coordinates":[-46.395199298857,-23.97156715393]}},{"type":"Feature","properties":[{"gid":"1664"},{"co_cnes":"2076446"},{"lat":"-20.30572772026"},{"long":"-50.2408647537217"},{"no_fantasia":"UBS DR ANTONIO MILTON ZAMBOM CAIC FERNANDOPOLIS"},{"no_logradouro":"RUA BENEDITA CRUZ"},{"nu_endereco":"747"},{"no_bairro":"BERNARDO PESSUTO"},{"nu_telefone":"1734423922"},{"co_cep":"15604310"},{"uf":"SP"},{"cidade":"Fernandópolis"},{"ano_ubs_det":"2016"},{"mes_ubs_det":"5"}],"geometry":{"type":"Point","coordinates":[-50.240864753722,-20.30572772026]}},{"type":"Feature","properties":[{"gid":"1672"},{"co_cnes":"2030837"},{"lat":"-23.0048529993206"},{"long":"-46.8375578529412"},{"no_fantasia":"PSF 02 03 CECAP JOSE FRANCISCON"},{"no_logradouro":"AVN BENEDITO DE GODOY CAMARGO"},{"nu_endereco":"55"},{"no_bairro":"CECAP"},{"nu_telefone":"(11) 4538-9721"},{"co_cep":"13255540"},{"uf":"SP"},{"cidade":"Itatiba"},{"ano_ubs_det":"2016"},{"mes_ubs_det":"5"}],"geometry":{"type":"Point","coordinates":[-46.837557852941,-23.004852999321]}},{"type":"Feature","properties":[{"gid":"1766"},{"co_cnes":"2819317"},{"lat":"-21.7278909993504"},{"long":"-50.7248383216512"},{"no_fantasia":"ESF ANTENOR CARLOS DE MATOS"},{"no_logradouro":"RUA SAO LUCAS"},{"nu_endereco":"437"},{"no_bairro":"JARDIM MARIANA"},{"nu_telefone":"18-3583-2595"},{"co_cep":"17740000"},{"uf":"SP"},{"cidade":"Rinópolis"},{"ano_ubs_det":"2016"},{"mes_ubs_det":"5"}],"geometry":{"type":"Point","coordinates":[-50.724838321651,-21.72789099935]}},{"type":"Feature","properties":[{"gid":"1892"},{"co_cnes":"2060361"},{"lat":"-22.1054255962365"},{"long":"-50.1671791076646"},{"no_fantasia":"USF DR ELYSIO PRADO MOREIRA"},{"no_logradouro":"RUA EPAMINONDAS DE TOLEDO PIZZA"},{"nu_endereco":"392"},{"no_bairro":"FLANDRIA"},{"nu_telefone":"(14)34051548"},{"co_cep":"17580000"},{"uf":"SP"},{"cidade":"Pompéia"},{"ano_ubs_det":"2016"},{"mes_ubs_det":"5"}],"geometry":{"type":"Point","coordinates":[-50.167179107665,-22.105425596237]}},{"type":"Feature","properties":[{"gid":"1770"},{"co_cnes":"2039095"},{"lat":"-22.122806310653"},{"long":"-47.665429115294"},{"no_fantasia":"CENTRO DE SAUDE DE ANALANDIA"},{"no_logradouro":"AVN 12"},{"nu_endereco":"235"},{"no_bairro":"CENTRO"},{"nu_telefone":"(19)35661227"},{"co_cep":"13550000"},{"uf":"SP"},{"cidade":"Analândia"},{"ano_ubs_det":"2016"},{"mes_ubs_det":"5"}],"geometry":{"type":"Point","coordinates":[-47.665429115294,-22.122806310653]}},{"type":"Feature","properties":[{"gid":"1973"},{"co_cnes":"2043092"},{"lat":"-20.737283985"},{"long":"-48.9134917257694"},{"no_fantasia":"ESF DR GILBERTO VICENTE MORA"},{"no_logradouro":"RUA SIMAO ANTONIO DOS SANTOS"},{"nu_endereco":"60"},{"no_bairro":"BAGUACU"},{"nu_telefone":"(17)3257 9125"},{"co_cep":"15405000"},{"uf":"SP"},{"cidade":"Olímpia"},{"ano_ubs_det":"2016"},{"mes_ubs_det":"5"}],"geometry":{"type":"Point","coordinates":[-48.913491725769,-20.737283985]}},{"type":"Feature","properties":[{"gid":"1633"},{"co_cnes":"2788632"},{"lat":"-23.53844"},{"long":"-46.70368"},{"no_fantasia":"UBS VILA SANTA MARIA"},{"no_logradouro":"R PROF DARIO RIBEIRO"},{"nu_endereco":"670"},{"no_bairro":"VNC"},{"nu_telefone":"39656035"},{"co_cep":"02559000"},{"uf":"SP"},{"cidade":"São Paulo"},{"ano_ubs_det":"2016"},{"mes_ubs_det":"5"}],"geometry":{"type":"Point","coordinates":[-46.70368,-23.53844]}},{"type":"Feature","properties":[{"gid":"2396"},{"co_cnes":"2058219"},{"lat":"-24.1097223758691"},{"long":"-48.8063549995408"},{"no_fantasia":"UNIDADE PSF ALTO DA BRANCAL ITAPEVA"},{"no_logradouro":"BAIRRO ALTO DA BRANCAL"},{"nu_endereco":"S/N"},{"no_bairro":"ALTO DA BRANCAL"},{"nu_telefone":"(15)35267299"},{"co_cep":"18406380"},{"uf":"SP"},{"cidade":"Itapeva"},{"ano_ubs_det":"2016"},{"mes_ubs_det":"5"}],"geometry":{"type":"Point","coordinates":[-48.806354999541,-24.109722375869]}},{"type":"Feature","properties":[{"gid":"2030"},{"co_cnes":"6281419"},{"lat":"-23.8518548011773"},{"long":"-46.9443869590746"},{"no_fantasia":"USF CENTRO"},{"no_logradouro":"RUA IVONE PIRES GUIMARAES"},{"nu_endereco":"160"},{"no_bairro":"CENTRO"},{"nu_telefone":"(11)46861397"},{"co_cep":"06890000"},{"uf":"SP"},{"cidade":"São Lourenço da Serra"},{"ano_ubs_det":"2016"},{"mes_ubs_det":"5"}],"geometry":{"type":"Point","coordinates":[-46.944386959075,-23.851854801177]}},{"type":"Feature","properties":[{"gid":"2395"},{"co_cnes":"2033062"},{"lat":"-22.22258"},{"long":"-49.66307"},{"no_fantasia":"USF MARIA LUCIA FERREIRA CAVALLINI"},{"no_logradouro":"RUA GUARANTA"},{"nu_endereco":"105"},{"no_bairro":"JD EUCALIPTOS"},{"nu_telefone":"(14)34062000"},{"co_cep":"17400000"},{"uf":"SP"},{"cidade":"Garça"},{"ano_ubs_det":"2016"},{"mes_ubs_det":"5"}],"geometry":{"type":"Point","coordinates":[-49.66307,-22.22258]}},{"type":"Feature","properties":[{"gid":"2351"},{"co_cnes":"3846660"},{"lat":"-23.5329079627984"},{"long":"-47.4448871612535"},{"no_fantasia":"UNIDADE BASICA DE SAUDE JARDIM ARCHILA"},{"no_logradouro":"RUA LAZARO BUENO DE ARRUDA"},{"nu_endereco":"68"},{"no_bairro":"ANGELO VIAL"},{"nu_telefone":"(15) 3247-3012"},{"co_cep":"18111660"},{"uf":"SP"},{"cidade":"Votorantim"},{"ano_ubs_det":"2016"},{"mes_ubs_det":"5"}],"geometry":{"type":"Point","coordinates":[-47.444887161253,-23.532907962798]}},{"type":"Feature","properties":[{"gid":"2300"},{"co_cnes":"3314723"},{"lat":"-21.1372876167291"},{"long":"-48.9493489265428"},{"no_fantasia":"USF DR JOSE RAMIRO MADEIRA CONJUNTO EUCLIDES"},{"no_logradouro":"RUA ARICANDUVA"},{"nu_endereco":"457"},{"no_bairro":"CONJUNTO EUCLIDES"},{"nu_telefone":"17-35213658"},{"co_cep":"15808055"},{"uf":"SP"},{"cidade":"Catanduva"},{"ano_ubs_det":"2016"},{"mes_ubs_det":"5"}],"geometry":{"type":"Point","coordinates":[-48.949348926543,-21.137287616729]}},{"type":"Feature","properties":[{"gid":"2086"},{"co_cnes":"2035170"},{"lat":"-22.1711719036096"},{"long":"-49.9610996246323"},{"no_fantasia":"UBS JK"},{"no_logradouro":"RUA LUCILIO COELHO DE OLIVEIRA"},{"nu_endereco":"05"},{"no_bairro":"J K"},{"nu_telefone":"(14)34216537"},{"co_cep":"17511630"},{"uf":"SP"},{"cidade":"Marília"},{"ano_ubs_det":"2016"},{"mes_ubs_det":"5"}],"geometry":{"type":"Point","coordinates":[-49.961099624632,-22.17117190361]}},{"type":"Feature","properties":[{"gid":"2319"},{"co_cnes":"2087383"},{"lat":"-23.0896139144891"},{"long":"-47.7149963378892"},{"no_fantasia":"CENTRO DE SAUDE III TIETE JD BONANZA"},{"no_logradouro":"RUA AUGUSTO ASSIS CRUZ"},{"nu_endereco":"160"},{"no_bairro":"JD BONANZA"},{"nu_telefone":"(15) 3282-4732"},{"co_cep":"18530000"},{"uf":"SP"},{"cidade":"Tietê"},{"ano_ubs_det":"2016"},{"mes_ubs_det":"5"}],"geometry":{"type":"Point","coordinates":[-47.714996337889,-23.089613914489]}},{"type":"Feature","properties":[{"gid":"2290"},{"co_cnes":"2051400"},{"lat":"-23.6058747768395"},{"long":"-46.7621684074388"},{"no_fantasia":"UBS DRA MARIA JOSE DE ALBUQUERQUE"},{"no_logradouro":"RUA JOSE MARI"},{"nu_endereco":"13"},{"no_bairro":"PRQ ASSUNCAO"},{"nu_telefone":"(11)47873522"},{"co_cep":"06754140"},{"uf":"SP"},{"cidade":"Taboão da Serra"},{"ano_ubs_det":"2016"},{"mes_ubs_det":"5"}],"geometry":{"type":"Point","coordinates":[-46.762168407439,-23.605874776839]}},{"type":"Feature","properties":[{"gid":"2002"},{"co_cnes":"7699360"},{"lat":"-22.0819912927715"},{"long":"-51.379631459713"},{"no_fantasia":"ESF BELA VISTA DR YUGO MORITA"},{"no_logradouro":"RUA ELYDIA GALBINI PINHEIRO"},{"nu_endereco":"31"},{"no_bairro":"RESIDENCIAL BELA VIS"},{"nu_telefone":"(18) 3911-1225"},{"co_cep":"19034725"},{"uf":"SP"},{"cidade":"Presidente Prudente"},{"ano_ubs_det":"2016"},{"mes_ubs_det":"5"}],"geometry":{"type":"Point","coordinates":[-51.379631459713,-22.081991292771]}},{"type":"Feature","properties":[{"gid":"2093"},{"co_cnes":"2052148"},{"lat":"-23.592"},{"long":"-48.053"},{"no_fantasia":"USF DR WALDOMIRO DE CARVALHO CHAPADINHA"},{"no_logradouro":"RUA MOISES NALESSO"},{"nu_endereco":"927"},{"no_bairro":"CHAPADINHA"},{"nu_telefone":"(15)32728623"},{"co_cep":"18206800"},{"uf":"SP"},{"cidade":"Itapetininga"},{"ano_ubs_det":"2016"},{"mes_ubs_det":"5"}],"geometry":{"type":"Point","coordinates":[-48.053,-23.592]}},{"type":"Feature","properties":[{"gid":"2225"},{"co_cnes":"2773767"},{"lat":"-23.5469198226922"},{"long":"-46.2463045120226"},{"no_fantasia":"UBS NOVA JUNDIAPEBA"},{"no_logradouro":"RUA DOLORES DE AQUINO"},{"nu_endereco":"601"},{"no_bairro":"NOVA JUNDIAPEBA"},{"nu_telefone":"(11)47294008"},{"co_cep":"08750790"},{"uf":"SP"},{"cidade":"Mogi das Cruzes"},{"ano_ubs_det":"2016"},{"mes_ubs_det":"5"}],"geometry":{"type":"Point","coordinates":[-46.246304512023,-23.546919822692]}},{"type":"Feature","properties":[{"gid":"2271"},{"co_cnes":"2040085"},{"lat":"-23.4606385231011"},{"long":"-46.4968657493578"},{"no_fantasia":"UBS PARQUE CECAP"},{"no_logradouro":"RUA PROFESSORA MARIA DEL PILAR MUNHOZ BONONATO"},{"nu_endereco":"78"},{"no_bairro":"PARQUE CECAP"},{"nu_telefone":"1124427095"},{"co_cep":"07190029"},{"uf":"SP"},{"cidade":"Guarulhos"},{"ano_ubs_det":"2016"},{"mes_ubs_det":"5"}],"geometry":{"type":"Point","coordinates":[-46.496865749358,-23.460638523101]}},{"type":"Feature","properties":[{"gid":"2366"},{"co_cnes":"2086190"},{"lat":"-23.356"},{"long":"-47.857"},{"no_fantasia":"UBS DR ALCEU MACHADO FILHO SAO CRISTOVAO TATUI SP"},{"no_logradouro":"PRACA DEOCACIR DE OLIVEIRA E FILHO"},{"nu_endereco":"114"},{"no_bairro":"SAO CRISTOVAO"},{"nu_telefone":"(15)32514692"},{"co_cep":"18280018"},{"uf":"SP"},{"cidade":"Tatuí"},{"ano_ubs_det":"2016"},{"mes_ubs_det":"5"}],"geometry":{"type":"Point","coordinates":[-47.857,-23.356]}},{"type":"Feature","properties":[{"gid":"2176"},{"co_cnes":"7594925"},{"lat":"-22.8748"},{"long":"-46.78842"},{"no_fantasia":"USF AMELIA STRANIERI FRARE"},{"no_logradouro":"LUIZA GORETE FRARE DO NASCIMENTO"},{"nu_endereco":"201"},{"no_bairro":"SAO BENEDITO"},{"nu_telefone":""},{"co_cep":"13260000"},{"uf":"SP"},{"cidade":"Morungaba"},{"ano_ubs_det":"2016"},{"mes_ubs_det":"5"}],"geometry":{"type":"Point","coordinates":[-46.78842,-22.8748]}},{"type":"Feature","properties":[{"gid":"2344"},{"co_cnes":"2042215"},{"lat":"-24.4940078258507"},{"long":"-47.8368115425096"},{"no_fantasia":"UBS MAURITY I A OLIVEIRA VILA NOVA REGISTRO"},{"no_logradouro":"RUA RAFAEL GONCALVES DE FREITAS"},{"nu_endereco":"221"},{"no_bairro":"VILA NOVA"},{"nu_telefone":"(13)38211101"},{"co_cep":"11900000"},{"uf":"SP"},{"cidade":"Registro"},{"ano_ubs_det":"2016"},{"mes_ubs_det":"5"}],"geometry":{"type":"Point","coordinates":[-47.83681154251,-24.494007825851]}},{"type":"Feature","properties":[{"gid":"2331"},{"co_cnes":"2047373"},{"lat":"-23.6789810657494"},{"long":"-47.2085738182054"},{"no_fantasia":"CENTRO DE SAUDE II DR ARCY BANDEIRA IBIUNA SP"},{"no_logradouro":"AVENIDA SAO SEBASTIAO"},{"nu_endereco":"369"},{"no_bairro":"CENTRO"},{"nu_telefone":"15 3241 1565"},{"co_cep":"18150000"},{"uf":"SP"},{"cidade":"Ibiúna"},{"ano_ubs_det":"2016"},{"mes_ubs_det":"5"}],"geometry":{"type":"Point","coordinates":[-47.208573818205,-23.678981065749]}},{"type":"Feature","properties":[{"gid":"2254"},{"co_cnes":"2061392"},{"lat":"-24.040188789367"},{"long":"-48.011047840117"},{"no_fantasia":"USF ABAITINGA SAO MIGUEL ARCANJO"},{"no_logradouro":"RUA LAURINDO GOMES FERREIRA"},{"nu_endereco":"133"},{"no_bairro":"ABAITINGA"},{"nu_telefone":""},{"co_cep":"18230000"},{"uf":"SP"},{"cidade":"São Miguel Arcanjo"},{"ano_ubs_det":"2016"},{"mes_ubs_det":"5"}],"geometry":{"type":"Point","coordinates":[-48.011047840117,-24.040188789367]}},{"type":"Feature","properties":[{"gid":"2118"},{"co_cnes":"7418078"},{"lat":"-21.76807157791"},{"long":"-48.1582518229484"},{"no_fantasia":"USF JARDIM BRASILIA"},{"no_logradouro":"RUA MARTINIANO PRISCO DOS SANTOS"},{"nu_endereco":"51"},{"no_bairro":"JARDIM BRASILIA"},{"nu_telefone":"1633335378"},{"co_cep":"14810448"},{"uf":"SP"},{"cidade":"Araraquara"},{"ano_ubs_det":"2016"},{"mes_ubs_det":"5"}],"geometry":{"type":"Point","coordinates":[-48.158251822948,-21.76807157791]}},{"type":"Feature","properties":[{"gid":"2398"},{"co_cnes":"2096528"},{"lat":"-22.9772675"},{"long":"-49.868579835937"},{"no_fantasia":"USF JARDIM SAO JORGE"},{"no_logradouro":"RUA RUBENS RIBEIRO DE MORAES"},{"nu_endereco":"148"},{"no_bairro":"JD SAO JORGE"},{"nu_telefone":"14 33222127"},{"co_cep":"19913185"},{"uf":"SP"},{"cidade":"Ourinhos"},{"ano_ubs_det":"2016"},{"mes_ubs_det":"5"}],"geometry":{"type":"Point","coordinates":[-49.868579835937,-22.9772675]}},{"type":"Feature","properties":[{"gid":"2355"},{"co_cnes":"2083450"},{"lat":"-20.9575366973871"},{"long":"-48.1175208091722"},{"no_fantasia":"POSTO DE SAUDE MARIO PASCHOAL"},{"no_logradouro":"RUA EUGENIA VIEL BIAGI"},{"nu_endereco":"S/N"},{"no_bairro":"VILA V BECKER"},{"nu_telefone":"(16) 39538083"},{"co_cep":"14180000"},{"uf":"SP"},{"cidade":"Pontal"},{"ano_ubs_det":"2016"},{"mes_ubs_det":"5"}],"geometry":{"type":"Point","coordinates":[-48.117520809172,-20.957536697387]}},{"type":"Feature","properties":[{"gid":"2318"},{"co_cnes":"2786397"},{"lat":"-23.6552168048515"},{"long":"-46.9346237182617"},{"no_fantasia":"UBS PINHEIRINHO"},{"no_logradouro":"RUA PAINEIRAS"},{"nu_endereco":"246"},{"no_bairro":"JARDIM PINHEIRINHO"},{"nu_telefone":"4704-6139"},{"co_cep":"06835110"},{"uf":"SP"},{"cidade":"Embu das Artes"},{"ano_ubs_det":"2016"},{"mes_ubs_det":"5"}],"geometry":{"type":"Point","coordinates":[-46.934623718262,-23.655216804852]}},{"type":"Feature","properties":[{"gid":"2007"},{"co_cnes":"2025655"},{"lat":"-22.431142330169"},{"long":"-46.9576478004442"},{"no_fantasia":"ESF RURAL SUDESTE MOGI MIRIM"},{"no_logradouro":"ASSENTAMENTO 12 DE OUTUBRO 1 HORTO DE VERGEL"},{"nu_endereco":"S/N"},{"no_bairro":"VERGEL"},{"nu_telefone":"(19)38058300"},{"co_cep":"13801540"},{"uf":"SP"},{"cidade":"Mogi Mirim"},{"ano_ubs_det":"2016"},{"mes_ubs_det":"5"}],"geometry":{"type":"Point","coordinates":[-46.957647800444,-22.431142330169]}},{"type":"Feature","properties":[{"gid":"2270"},{"co_cnes":"2087065"},{"lat":"-23.2166647911065"},{"long":"-46.0036182403551"},{"no_fantasia":"UMSF PAGADOR ANDRADE"},{"no_logradouro":"RUA ANTONIO ALVES"},{"nu_endereco":"169"},{"no_bairro":"PAGADOR ANDRADE"},{"nu_telefone":"(12)39522674"},{"co_cep":"12334450"},{"uf":"SP"},{"cidade":"Jacareí"},{"ano_ubs_det":"2016"},{"mes_ubs_det":"5"}],"geometry":{"type":"Point","coordinates":[-46.003618240355,-23.216664791106]}},{"type":"Feature","properties":[{"gid":"2238"},{"co_cnes":"2791102"},{"lat":"-22.5101280212396"},{"long":"-48.5505151748643"},{"no_fantasia":"PAS ADMA ARIK RAYES IGARACU TIETE"},{"no_logradouro":"RUA HERCULES PERACOLI"},{"nu_endereco":"63"},{"no_bairro":"VILA MANOEL RAYAS"},{"nu_telefone":"14 36441000"},{"co_cep":"17350000"},{"uf":"SP"},{"cidade":"Igaraçu do Tietê"},{"ano_ubs_det":"2016"},{"mes_ubs_det":"5"}],"geometry":{"type":"Point","coordinates":[-48.550515174864,-22.51012802124]}},{"type":"Feature","properties":[{"gid":"2282"},{"co_cnes":"6230474"},{"lat":"-21.0245826445728"},{"long":"-47.3732802928901"},{"no_fantasia":"ESF SANTA CRUZ"},{"no_logradouro":"FIORAVANTE MALAGUTTI"},{"nu_endereco":"100"},{"no_bairro":"FIGUEIREDO WALTER"},{"nu_telefone":"(16) 3665-9568"},{"co_cep":"14350000"},{"uf":"SP"},{"cidade":"Altinópolis"},{"ano_ubs_det":"2016"},{"mes_ubs_det":"5"}],"geometry":{"type":"Point","coordinates":[-47.37328029289,-21.024582644573]}},{"type":"Feature","properties":[{"gid":"2043"},{"co_cnes":"6317685"},{"lat":"-24.4577336311333"},{"long":"-47.8163623809801"},{"no_fantasia":"USF ARAPONGAL OESTE REGISTRO"},{"no_logradouro":"RUA PROJETADA A"},{"nu_endereco":"180"},{"no_bairro":"ARAPONGAL"},{"nu_telefone":"(13)3822-2390"},{"co_cep":"11900000"},{"uf":"SP"},{"cidade":"Registro"},{"ano_ubs_det":"2016"},{"mes_ubs_det":"5"}],"geometry":{"type":"Point","coordinates":[-47.81636238098,-24.457733631133]}},{"type":"Feature","properties":[{"gid":"2365"},{"co_cnes":"2088479"},{"lat":"-23.0545198917382"},{"long":"-49.6298789978013"},{"no_fantasia":"CENTRO DE SAUDE DE IPAUCU"},{"no_logradouro":"RUA 7 DE SETEMBRO"},{"nu_endereco":"651"},{"no_bairro":"CENTRO"},{"nu_telefone":"(14)3441026"},{"co_cep":"18950000"},{"uf":"SP"},{"cidade":"Ipaussu"},{"ano_ubs_det":"2016"},{"mes_ubs_det":"5"}],"geometry":{"type":"Point","coordinates":[-49.629878997801,-23.054519891738]}},{"type":"Feature","properties":[{"gid":"2353"},{"co_cnes":"2035812"},{"lat":"-23.2773041725152"},{"long":"-47.3052835464464"},{"no_fantasia":"UBS 07 SANTA TEREZINHA ITU"},{"no_logradouro":"RUA ANTONIO FAUSTINO FILHO"},{"nu_endereco":"82"},{"no_bairro":"CRUZ DAS ALMAS"},{"nu_telefone":"(11) 40132749"},{"co_cep":"13310400"},{"uf":"SP"},{"cidade":"Itu"},{"ano_ubs_det":"2016"},{"mes_ubs_det":"5"}],"geometry":{"type":"Point","coordinates":[-47.305283546446,-23.277304172515]}},{"type":"Feature","properties":[{"gid":"2314"},{"co_cnes":"2022907"},{"lat":"-22.8717970848077"},{"long":"-47.0283079147325"},{"no_fantasia":"CENTRO DE SAUDE VILA 31 DE MARCO"},{"no_logradouro":"RUA ANTONIO PAVIN"},{"nu_endereco":"1065"},{"no_bairro":"JARDIM CONCEICAO"},{"nu_telefone":"(19)32070074"},{"co_cep":"13091010"},{"uf":"SP"},{"cidade":"Campinas"},{"ano_ubs_det":"2016"},{"mes_ubs_det":"5"}],"geometry":{"type":"Point","coordinates":[-47.028307914733,-22.871797084808]}},{"type":"Feature","properties":[{"gid":"2409"},{"co_cnes":"2716577"},{"lat":"-20.2977132797235"},{"long":"-49.7335195541367"},{"no_fantasia":"CS DE AMERICO DE CAMPOS"},{"no_logradouro":"RUA SAO JOAO"},{"nu_endereco":"617"},{"no_bairro":"CENTRO"},{"nu_telefone":"(17)34451206"},{"co_cep":"15550000"},{"uf":"SP"},{"cidade":"Américo de Campos"},{"ano_ubs_det":"2016"},{"mes_ubs_det":"5"}],"geometry":{"type":"Point","coordinates":[-49.733519554137,-20.297713279723]}},{"type":"Feature","properties":[{"gid":"2455"},{"co_cnes":"6403719"},{"lat":"-20.4092931747431"},{"long":"-47.4163699150072"},{"no_fantasia":"EQUIPE DE SAUDE DA FAMILIA CRISTAIS PAULISTA"},{"no_logradouro":"RUA SEBASTIAO RODRIGUES DE SOUZA"},{"nu_endereco":"155"},{"no_bairro":"CENTRO"},{"nu_telefone":"(16) 3133-1275"},{"co_cep":"14460000"},{"uf":"SP"},{"cidade":"Cristais Paulista"},{"ano_ubs_det":"2016"},{"mes_ubs_det":"5"}],"geometry":{"type":"Point","coordinates":[-47.416369915007,-20.409293174743]}},{"type":"Feature","properties":[{"gid":"2412"},{"co_cnes":"2048833"},{"lat":"-24.0180221483629"},{"long":"-48.6856194863319"},{"no_fantasia":"UNIDADE DE SAUDE PACOVA"},{"no_logradouro":"RUA 1 ACESSO RODOVIA ESPIRIDIAO LUCIO MARTINS"},{"nu_endereco":"S/N"},{"no_bairro":"PACOVA"},{"nu_telefone":"(15)35222996"},{"co_cep":"18400970"},{"uf":"SP"},{"cidade":"Itapeva"},{"ano_ubs_det":"2016"},{"mes_ubs_det":"5"}],"geometry":{"type":"Point","coordinates":[-48.685619486332,-24.018022148363]}},{"type":"Feature","properties":[{"gid":"2436"},{"co_cnes":"3737659"},{"lat":"-23.0347974993199"},{"long":"-49.1653301708879"},{"no_fantasia":"ESF NOVE DE JULHO"},{"no_logradouro":"RUA BRASILINO DE FREITAS NEGRAO"},{"nu_endereco":"S/N"},{"no_bairro":"PARQUE NOVE DE JULHO"},{"nu_telefone":"14-37141516"},{"co_cep":"18760340"},{"uf":"SP"},{"cidade":"Cerqueira César"},{"ano_ubs_det":"2016"},{"mes_ubs_det":"5"}],"geometry":{"type":"Point","coordinates":[-49.165330170888,-23.03479749932]}},{"type":"Feature","properties":[{"gid":"2444"},{"co_cnes":"2041405"},{"lat":"-24.2459142208092"},{"long":"-47.3271274566637"},{"no_fantasia":"ESF V MUSACEA PEDRO BARROS MIRACATU"},{"no_logradouro":"RUA MARIA JOSE NOGUEIRA BRUNETTO"},{"nu_endereco":"S/N"},{"no_bairro":"MUSACEA"},{"nu_telefone":"1338477010"},{"co_cep":"11850000"},{"uf":"SP"},{"cidade":"Miracatu"},{"ano_ubs_det":"2016"},{"mes_ubs_det":"5"}],"geometry":{"type":"Point","coordinates":[-47.327127456664,-24.245914220809]}},{"type":"Feature","properties":[{"gid":"2481"},{"co_cnes":"2040956"},{"lat":"-21.6205376"},{"long":"-49.0745678"},{"no_fantasia":"CENTRO DE SAUDE III BORBOREMA"},{"no_logradouro":"RUA DA BANDEIRA"},{"nu_endereco":"348"},{"no_bairro":"CENTRO"},{"nu_telefone":"(16)32661211"},{"co_cep":"14955000"},{"uf":"SP"},{"cidade":"Borborema"},{"ano_ubs_det":"2016"},{"mes_ubs_det":"5"}],"geometry":{"type":"Point","coordinates":[-49.0745678,-21.6205376]}},{"type":"Feature","properties":[{"gid":"2443"},{"co_cnes":"9172"},{"lat":"-23.2300329208367"},{"long":"-45.8842706680284"},{"no_fantasia":"UBS JARDIM SATELITE"},{"no_logradouro":"AVENIDA ANDROMEDA"},{"nu_endereco":"1960"},{"no_bairro":"JARDIM SATELITE"},{"nu_telefone":"12 39316530"},{"co_cep":"12230000"},{"uf":"SP"},{"cidade":"São José dos Campos"},{"ano_ubs_det":"2016"},{"mes_ubs_det":"5"}],"geometry":{"type":"Point","coordinates":[-45.884270668028,-23.230032920837]}},{"type":"Feature","properties":[{"gid":"2716"},{"co_cnes":"6769500"},{"lat":"-22.22845101"},{"long":"-50.890211685938"},{"no_fantasia":"ESF PADRE MAX"},{"no_logradouro":"RUA GUIDO VISNADI"},{"nu_endereco":"S/N"},{"no_bairro":"CONJUNTO PLANALTO"},{"nu_telefone":"(18) 3265-7769"},{"co_cep":"19600000"},{"uf":"SP"},{"cidade":"Rancharia"},{"ano_ubs_det":"2016"},{"mes_ubs_det":"5"}],"geometry":{"type":"Point","coordinates":[-50.890211685938,-22.22845101]}},{"type":"Feature","properties":[{"gid":"2508"},{"co_cnes":"2052148"},{"lat":"-23.592"},{"long":"-48.053"},{"no_fantasia":"USF DR WALDOMIRO DE CARVALHO CHAPADINHA"},{"no_logradouro":"RUA MOISES NALESSO"},{"nu_endereco":"927"},{"no_bairro":"CHAPADINHA"},{"nu_telefone":"(15)32728623"},{"co_cep":"18206800"},{"uf":"SP"},{"cidade":"Itapetininga"},{"ano_ubs_det":"2016"},{"mes_ubs_det":"5"}],"geometry":{"type":"Point","coordinates":[-48.053,-23.592]}},{"type":"Feature","properties":[{"gid":"2569"},{"co_cnes":"2097834"},{"lat":"-22.9992771148675"},{"long":"-47.0480489730821"},{"no_fantasia":"UBS SAUDE MACUCO"},{"no_logradouro":"RUA VALDEMAR LAZARETTI"},{"nu_endereco":"01"},{"no_bairro":"MACUCO"},{"nu_telefone":"(19)38812336"},{"co_cep":"13279407"},{"uf":"SP"},{"cidade":"Valinhos"},{"ano_ubs_det":"2016"},{"mes_ubs_det":"5"}],"geometry":{"type":"Point","coordinates":[-47.048048973082,-22.999277114867]}},{"type":"Feature","properties":[{"gid":"2470"},{"co_cnes":"2067439"},{"lat":"-22.9621446132653"},{"long":"-49.8824357986436"},{"no_fantasia":"UBS VILA SAO LUIZ"},{"no_logradouro":"RUA CELESTINO LOPES BAHIA"},{"nu_endereco":"523"},{"no_bairro":"VILA SAO LUIZ"},{"nu_telefone":"14 33026100"},{"co_cep":"19911205"},{"uf":"SP"},{"cidade":"Ourinhos"},{"ano_ubs_det":"2016"},{"mes_ubs_det":"5"}],"geometry":{"type":"Point","coordinates":[-49.882435798644,-22.962144613265]}},{"type":"Feature","properties":[{"gid":"2649"},{"co_cnes":"7418108"},{"lat":"-21.7365875281558"},{"long":"-48.1563018569946"},{"no_fantasia":"USF JARDIM ADALBERTO ROXO"},{"no_logradouro":"AVENIDA PABLO PICASSO"},{"nu_endereco":"1420"},{"no_bairro":"JARDIM ADALBERTO ROX"},{"nu_telefone":""},{"co_cep":"14806810"},{"uf":"SP"},{"cidade":"Araraquara"},{"ano_ubs_det":"2016"},{"mes_ubs_det":"5"}],"geometry":{"type":"Point","coordinates":[-48.156301856995,-21.736587528156]}},{"type":"Feature","properties":[{"gid":"2708"},{"co_cnes":"2064146"},{"lat":"-20.536097"},{"long":"-47.4023316256775"},{"no_fantasia":"UBS ESF JD LUIZA"},{"no_logradouro":"AV NELSON JAPAULO"},{"nu_endereco":"1731"},{"no_bairro":"JD LUIZA"},{"nu_telefone":"(16)37040071"},{"co_cep":"14407495"},{"uf":"SP"},{"cidade":"Franca"},{"ano_ubs_det":"2016"},{"mes_ubs_det":"5"}],"geometry":{"type":"Point","coordinates":[-47.402331625677,-20.536097]}},{"type":"Feature","properties":[{"gid":"2496"},{"co_cnes":"2032112"},{"lat":"-23.67565"},{"long":"-46.4172"},{"no_fantasia":"UBS JARDIM SANTISTA"},{"no_logradouro":"RUA JANUARIO BOCCIA"},{"nu_endereco":"120"},{"no_bairro":"JARDIM SANTISTA"},{"nu_telefone":"(11)4578-5476"},{"co_cep":"09341030"},{"uf":"SP"},{"cidade":"Mauá"},{"ano_ubs_det":"2016"},{"mes_ubs_det":"5"}],"geometry":{"type":"Point","coordinates":[-46.4172,-23.67565]}},{"type":"Feature","properties":[{"gid":"2570"},{"co_cnes":"9237"},{"lat":"-23.1376683711999"},{"long":"-45.9102129936205"},{"no_fantasia":"UBS VILA PAIVA"},{"no_logradouro":"RUA JOAO PEDRO DA ROCHA"},{"nu_endereco":"181"},{"no_bairro":"VILA PAIVA"},{"nu_telefone":"12 39213466"},{"co_cep":"12213510"},{"uf":"SP"},{"cidade":"São José dos Campos"},{"ano_ubs_det":"2016"},{"mes_ubs_det":"5"}],"geometry":{"type":"Point","coordinates":[-45.91021299362,-23.1376683712]}},{"type":"Feature","properties":[{"gid":"2607"},{"co_cnes":"2022419"},{"lat":"-20.96043"},{"long":"-48.48977"},{"no_fantasia":"E S F DR MAURO BURJAILI"},{"no_logradouro":"RUA JOSE FAVERO"},{"nu_endereco":"1100"},{"no_bairro":"DISTRITO DE BOTAFOGO"},{"nu_telefone":"33457106"},{"co_cep":"14718042"},{"uf":"SP"},{"cidade":"Bebedouro"},{"ano_ubs_det":"2016"},{"mes_ubs_det":"5"}],"geometry":{"type":"Point","coordinates":[-48.48977,-20.96043]}},{"type":"Feature","properties":[{"gid":"2529"},{"co_cnes":"2036231"},{"lat":"-23.2164394855493"},{"long":"-47.9077506065355"},{"no_fantasia":"UBS I BAIRRO DOS TORNINOS CESARIO LANGE"},{"no_logradouro":"RODOVIA OTAVIO PILON"},{"nu_endereco":"S/N"},{"no_bairro":"TORNINOS"},{"nu_telefone":"(15) 3246-8040"},{"co_cep":"18285000"},{"uf":"SP"},{"cidade":"Cesário Lange"},{"ano_ubs_det":"2016"},{"mes_ubs_det":"5"}],"geometry":{"type":"Point","coordinates":[-47.907750606536,-23.216439485549]}},{"type":"Feature","properties":[{"gid":"2447"},{"co_cnes":"2050188"},{"lat":"-20.3021911754183"},{"long":"-50.0126178308369"},{"no_fantasia":"USF AMADEU GARCIA DE SOUZA PARISI"},{"no_logradouro":"RUA AURELIO PARISI"},{"nu_endereco":"292"},{"no_bairro":"CENTRO"},{"nu_telefone":"(17)38391138"},{"co_cep":"15525000"},{"uf":"SP"},{"cidade":"Parisi"},{"ano_ubs_det":"2016"},{"mes_ubs_det":"5"}],"geometry":{"type":"Point","coordinates":[-50.012617830837,-20.302191175418]}},{"type":"Feature","properties":[{"gid":"2511"},{"co_cnes":"2036835"},{"lat":"-23.8060426712029"},{"long":"-48.6092877387986"},{"no_fantasia":"UNIDADE DO PSF I CONJUNTO HABITACIONAL SAO JOAO BURI SP"},{"no_logradouro":"RUA TUCANO"},{"nu_endereco":"S/N"},{"no_bairro":"CONJUNTO SAO JOAO"},{"nu_telefone":""},{"co_cep":"18290000"},{"uf":"SP"},{"cidade":"Buri"},{"ano_ubs_det":"2016"},{"mes_ubs_det":"5"}],"geometry":{"type":"Point","coordinates":[-48.609287738799,-23.806042671203]}},{"type":"Feature","properties":[{"gid":"2622"},{"co_cnes":"2049082"},{"lat":"-20.5199074745172"},{"long":"-47.4097609519945"},{"no_fantasia":"UBS GUANABARA"},{"no_logradouro":"RUA JAMIL ABDALLA"},{"nu_endereco":"351"},{"no_bairro":"JAD GUANABARA"},{"nu_telefone":"(16)37246126"},{"co_cep":"14405442"},{"uf":"SP"},{"cidade":"Franca"},{"ano_ubs_det":"2016"},{"mes_ubs_det":"5"}],"geometry":{"type":"Point","coordinates":[-47.409760951994,-20.519907474517]}},{"type":"Feature","properties":[{"gid":"2677"},{"co_cnes":"6793827"},{"lat":"-20.901463515"},{"long":"-51.3788477947637"},{"no_fantasia":"UAS NORTE ANDRADINA"},{"no_logradouro":"RUA ITAR TAKATSU"},{"nu_endereco":"115"},{"no_bairro":"JARDIM DAS TULIPAS"},{"nu_telefone":"18 37226771"},{"co_cep":"16901601"},{"uf":"SP"},{"cidade":"Andradina"},{"ano_ubs_det":"2016"},{"mes_ubs_det":"5"}],"geometry":{"type":"Point","coordinates":[-51.378847794764,-20.901463515]}},{"type":"Feature","properties":[{"gid":"2578"},{"co_cnes":"3200388"},{"lat":"-21.7789228838555"},{"long":"-48.5621404276762"},{"no_fantasia":"ESF JARDIM SAO PAULO NOVA EUROPA"},{"no_logradouro":"RUA DOS ANTURIOS"},{"nu_endereco":"584"},{"no_bairro":"JARDIM SAO PAULO"},{"nu_telefone":"(16)33871711"},{"co_cep":"14920000"},{"uf":"SP"},{"cidade":"Nova Europa"},{"ano_ubs_det":"2016"},{"mes_ubs_det":"5"}],"geometry":{"type":"Point","coordinates":[-48.562140427676,-21.778922883856]}},{"type":"Feature","properties":[{"gid":"2425"},{"co_cnes":"2083442"},{"lat":"-21.0217916965479"},{"long":"-48.0314755439744"},{"no_fantasia":"UBS DR CALIL DAMIAO FILHO PONTAL"},{"no_logradouro":"RUA HENRIQUE LOURENCO MARANHAO"},{"nu_endereco":"70"},{"no_bairro":"NOVA PONTAL"},{"nu_telefone":"(16) 39532600"},{"co_cep":"14180000"},{"uf":"SP"},{"cidade":"Pontal"},{"ano_ubs_det":"2016"},{"mes_ubs_det":"5"}],"geometry":{"type":"Point","coordinates":[-48.031475543974,-21.021791696548]}},{"type":"Feature","properties":[{"gid":"2675"},{"co_cnes":"2074613"},{"lat":"-22.7153813838952"},{"long":"-49.5723938941941"},{"no_fantasia":"USF CAPORANGA SCRPARDO"},{"no_logradouro":"SEBASTIAO MANOEL DOS SANTOS"},{"nu_endereco":"276"},{"no_bairro":"DISTRITO CAPORANGA"},{"nu_telefone":"(14)33741200"},{"co_cep":"18900000"},{"uf":"SP"},{"cidade":"Santa Cruz do Rio Pardo"},{"ano_ubs_det":"2016"},{"mes_ubs_det":"5"}],"geometry":{"type":"Point","coordinates":[-49.572393894194,-22.715381383895]}},{"type":"Feature","properties":[{"gid":"2414"},{"co_cnes":"6799663"},{"lat":"-21.0892009735101"},{"long":"-47.151045799254"},{"no_fantasia":"UNIDADE BASICA DE SAUDE DE SANTO ANTONIO DA ALEGRIA"},{"no_logradouro":"RUA NOVE DE JULHO"},{"nu_endereco":"1290"},{"no_bairro":"CENTRO"},{"nu_telefone":"16-36681123"},{"co_cep":"14390000"},{"uf":"SP"},{"cidade":"Santo Antônio da Alegria"},{"ano_ubs_det":"2016"},{"mes_ubs_det":"5"}],"geometry":{"type":"Point","coordinates":[-47.151045799254,-21.08920097351]}},{"type":"Feature","properties":[{"gid":"2402"},{"co_cnes":"2025302"},{"lat":"-21.357996"},{"long":"-48.2340567272232"},{"no_fantasia":"UNIDADE DO PROGRAMA DE SAUDE DA FAMILIA PSF I DE GUARIBA"},{"no_logradouro":"AVENIDA ERNESTO DE ANGELIS"},{"nu_endereco":"925"},{"no_bairro":"JARDIM PAULISTANO"},{"nu_telefone":"(16)32515137"},{"co_cep":"14840000"},{"uf":"SP"},{"cidade":"Guariba"},{"ano_ubs_det":"2016"},{"mes_ubs_det":"5"}],"geometry":{"type":"Point","coordinates":[-48.234056727223,-21.357996]}},{"type":"Feature","properties":[{"gid":"2848"},{"co_cnes":"3850315"},{"lat":"-22.4721157550805"},{"long":"-48.9622879028306"},{"no_fantasia":"UNIDADE D SAUDE DA FAMILIA DIRCE PORTO BICALHO AYUB"},{"no_logradouro":"RUA PROF LUIZ PEDRO DA CUNHA"},{"nu_endereco":"545"},{"no_bairro":"JARDIM EUROPA"},{"nu_telefone":"32610351"},{"co_cep":"17129078"},{"uf":"SP"},{"cidade":"Agudos"},{"ano_ubs_det":"2016"},{"mes_ubs_det":"5"}],"geometry":{"type":"Point","coordinates":[-48.962287902831,-22.472115755081]}},{"type":"Feature","properties":[{"gid":"2812"},{"co_cnes":"6003583"},{"lat":"-22.5902724266046"},{"long":"-47.5212764739976"},{"no_fantasia":"USF ANGELINA PLATINETTI MASSARI DE IRACEMAPOLIS"},{"no_logradouro":"RUA PADRE ELIAS FADUL"},{"nu_endereco":"233"},{"no_bairro":"JARDIM HERMINIO DEMA"},{"nu_telefone":"(19) 3456-3930"},{"co_cep":"13495000"},{"uf":"SP"},{"cidade":"Iracemápolis"},{"ano_ubs_det":"2016"},{"mes_ubs_det":"5"}],"geometry":{"type":"Point","coordinates":[-47.521276473998,-22.590272426605]}},{"type":"Feature","properties":[{"gid":"2954"},{"co_cnes":"2801116"},{"lat":"-23.66949"},{"long":"-46.61178"},{"no_fantasia":"UBS VILA SAO JOSE SAUDE DA FAMILIA"},{"no_logradouro":"RUA BARAO DE IGUAPE"},{"nu_endereco":"98"},{"no_bairro":"VIL SAO JOSE"},{"nu_telefone":"(11)40711179"},{"co_cep":"09950430"},{"uf":"SP"},{"cidade":"Diadema"},{"ano_ubs_det":"2016"},{"mes_ubs_det":"5"}],"geometry":{"type":"Point","coordinates":[-46.61178,-23.66949]}},{"type":"Feature","properties":[{"gid":"3045"},{"co_cnes":"2750392"},{"lat":"-21.85133"},{"long":"-51.39216"},{"no_fantasia":"UNIDADE BASICA DE SAUDE EULINA RAMOS PASSOS SANTO EXPEDITO"},{"no_logradouro":"RUA DR ARMANDO NOVAIS JUNIOR"},{"nu_endereco":"208"},{"no_bairro":"CENTRO"},{"nu_telefone":"(18)32671249"},{"co_cep":"19190000"},{"uf":"SP"},{"cidade":"Santo Expedito"},{"ano_ubs_det":"2016"},{"mes_ubs_det":"5"}],"geometry":{"type":"Point","coordinates":[-51.39216,-21.85133]}},{"type":"Feature","properties":[{"gid":"2835"},{"co_cnes":"8133"},{"lat":"-23.4974263318463"},{"long":"-46.7719156188965"},{"no_fantasia":"UBS VILA MENCK"},{"no_logradouro":"R RIBEIRAO PIRES"},{"nu_endereco":"S/N"},{"no_bairro":"VIL MENCK"},{"nu_telefone":"11 36597278"},{"co_cep":"06270250"},{"uf":"SP"},{"cidade":"Osasco"},{"ano_ubs_det":"2016"},{"mes_ubs_det":"5"}],"geometry":{"type":"Point","coordinates":[-46.771915618897,-23.497426331846]}},{"type":"Feature","properties":[{"gid":"2853"},{"co_cnes":"3020908"},{"lat":"-23.0688056"},{"long":"-48.9335725"},{"no_fantasia":"ESF II DR FERNANDO HIRATA AVARE"},{"no_logradouro":"MAZZONI NEGRAO"},{"nu_endereco":"190"},{"no_bairro":"DUILIO GAMBINI"},{"nu_telefone":"14 37312121"},{"co_cep":"18706707"},{"uf":"SP"},{"cidade":"Avaré"},{"ano_ubs_det":"2016"},{"mes_ubs_det":"5"}],"geometry":{"type":"Point","coordinates":[-48.9335725,-23.0688056]}},{"type":"Feature","properties":[{"gid":"3001"},{"co_cnes":"2048779"},{"lat":"-22.2368280459132"},{"long":"-49.9182391366959"},{"no_fantasia":"USF JOQUEY CLUBE"},{"no_logradouro":"RUA JAPAO"},{"nu_endereco":"380"},{"no_bairro":"JOQUEY CLUBE"},{"nu_telefone":"14-34174034"},{"co_cep":"17521440"},{"uf":"SP"},{"cidade":"Marília"},{"ano_ubs_det":"2016"},{"mes_ubs_det":"5"}],"geometry":{"type":"Point","coordinates":[-49.918239136696,-22.236828045913]}},{"type":"Feature","properties":[{"gid":"2903"},{"co_cnes":"2047292"},{"lat":"-20.8999228477472"},{"long":"-47.578074932097"},{"no_fantasia":"UBS DE VIL LIDIA UBS DR SHIRLEY AGDA GARCIA BARROS"},{"no_logradouro":"PRCA SEBASTIAO V NOGUEIRA"},{"nu_endereco":"S/N"},{"no_bairro":"VILA LIDIA"},{"nu_telefone":"(16)37615993"},{"co_cep":"14315078"},{"uf":"SP"},{"cidade":"Batatais"},{"ano_ubs_det":"2016"},{"mes_ubs_det":"5"}],"geometry":{"type":"Point","coordinates":[-47.578074932097,-20.899922847747]}},{"type":"Feature","properties":[{"gid":"2965"},{"co_cnes":"5177510"},{"lat":"-21.8420863151544"},{"long":"-47.4663233757005"},{"no_fantasia":"UBS ARLINDO DE VICENTE PORTO FERREIRA"},{"no_logradouro":"RUA VANDERLEI BUENO MESQUITA"},{"nu_endereco":"40"},{"no_bairro":"JARDIM PASCHOAL SALZ"},{"nu_telefone":""},{"co_cep":"13665176"},{"uf":"SP"},{"cidade":"Porto Ferreira"},{"ano_ubs_det":"2016"},{"mes_ubs_det":"5"}],"geometry":{"type":"Point","coordinates":[-47.4663233757,-21.842086315154]}},{"type":"Feature","properties":[{"gid":"2883"},{"co_cnes":"2750775"},{"lat":"-22.1719551086419"},{"long":"-52.1316075324997"},{"no_fantasia":"POSTO DE SAUDE ASSENTAMENTO AREIA BRANCA"},{"no_logradouro":"ASSENTAMENTO AREIA BRANCA"},{"nu_endereco":"S/N"},{"no_bairro":"ZONA RURAL"},{"nu_telefone":"18 39961125"},{"co_cep":"19430000"},{"uf":"SP"},{"cidade":"Marabá Paulista"},{"ano_ubs_det":"2016"},{"mes_ubs_det":"5"}],"geometry":{"type":"Point","coordinates":[-52.1316075325,-22.171955108642]}},{"type":"Feature","properties":[{"gid":"2861"},{"co_cnes":"2022443"},{"lat":"-20.9623217582697"},{"long":"-48.4712719917283"},{"no_fantasia":"E S F DR RAMIRO DE SOUZA LIMA"},{"no_logradouro":"RUA IRMA CRUCIFIXO"},{"nu_endereco":"875"},{"no_bairro":"RES FURQUIM"},{"nu_telefone":"(17)3342-8014"},{"co_cep":"14702100"},{"uf":"SP"},{"cidade":"Bebedouro"},{"ano_ubs_det":"2016"},{"mes_ubs_det":"5"}],"geometry":{"type":"Point","coordinates":[-48.471271991728,-20.96232175827]}},{"type":"Feature","properties":[{"gid":"2963"},{"co_cnes":"2090422"},{"lat":"-23.6307865"},{"long":"-49.3151823"},{"no_fantasia":"UNIDADE MISTA DE SAUDE DE CORONEL MACEDO"},{"no_logradouro":"AVENIDA PRESIDENTE CASTELO BRANCO"},{"nu_endereco":"240"},{"no_bairro":"CENTRO"},{"nu_telefone":"(14)37677101"},{"co_cep":"18745000"},{"uf":"SP"},{"cidade":"Coronel Macedo"},{"ano_ubs_det":"2016"},{"mes_ubs_det":"5"}],"geometry":{"type":"Point","coordinates":[-49.3151823,-23.6307865]}},{"type":"Feature","properties":[{"gid":"3000"},{"co_cnes":"2069695"},{"lat":"-22.7750122547143"},{"long":"-45.6970953941332"},{"no_fantasia":"UBS RIO PRETO DO MEIO"},{"no_logradouro":"RODOVIA SP 46 OSWALDO BARBOSA GUISARD"},{"nu_endereco":"S/N"},{"no_bairro":"RIO PRETO DO MEIO"},{"nu_telefone":""},{"co_cep":"12450000"},{"uf":"SP"},{"cidade":"Santo Antônio do Pinhal"},{"ano_ubs_det":"2016"},{"mes_ubs_det":"5"}],"geometry":{"type":"Point","coordinates":[-45.697095394133,-22.775012254714]}},{"type":"Feature","properties":[{"gid":"3113"},{"co_cnes":"2032791"},{"lat":"-22.7227950096124"},{"long":"-45.1056361198412"},{"no_fantasia":"UBS VILA NUNES"},{"no_logradouro":"RUA CORONEL JOAO CARLOS GUEDES"},{"nu_endereco":"150"},{"no_bairro":"VILA NUNES"},{"nu_telefone":"(12)3153-1277"},{"co_cep":"12603200"},{"uf":"SP"},{"cidade":"Lorena"},{"ano_ubs_det":"2016"},{"mes_ubs_det":"5"}],"geometry":{"type":"Point","coordinates":[-45.105636119841,-22.722795009612]}},{"type":"Feature","properties":[{"gid":"3057"},{"co_cnes":"2791412"},{"lat":"-22.5196981430047"},{"long":"-48.7179279327378"},{"no_fantasia":"UNIDADE DE SAUDE DA FAMILIA SANTA RITA"},{"no_logradouro":"RUA PARAGUAI"},{"nu_endereco":"331"},{"no_bairro":"SANTA RITA"},{"nu_telefone":"(14)32981026"},{"co_cep":"17290000"},{"uf":"SP"},{"cidade":"Macatuba"},{"ano_ubs_det":"2016"},{"mes_ubs_det":"5"}],"geometry":{"type":"Point","coordinates":[-48.717927932738,-22.519698143005]}},{"type":"Feature","properties":[{"gid":"3128"},{"co_cnes":"2765764"},{"lat":"-23.7524414062493"},{"long":"-45.818095207213"},{"no_fantasia":"USF BORACEIA"},{"no_logradouro":"ALAMEDA PENAPOLIS"},{"nu_endereco":"336"},{"no_bairro":"BORACEIA"},{"nu_telefone":"(12)38676109"},{"co_cep":"11626312"},{"uf":"SP"},{"cidade":"São Sebastião"},{"ano_ubs_det":"2016"},{"mes_ubs_det":"5"}],"geometry":{"type":"Point","coordinates":[-45.818095207213,-23.752441406249]}},{"type":"Feature","properties":[{"gid":"3027"},{"co_cnes":"5710367"},{"lat":"-20.636668999377"},{"long":"-51.1066610199469"},{"no_fantasia":"UBS VALTER GATTI"},{"no_logradouro":"RUA CEL BASILEU ESTRELA"},{"nu_endereco":"S/N"},{"no_bairro":"LOTEAMENTO NOVA VENE"},{"nu_telefone":"18-3746-1246"},{"co_cep":"15370000"},{"uf":"SP"},{"cidade":"Pereira Barreto"},{"ano_ubs_det":"2016"},{"mes_ubs_det":"5"}],"geometry":{"type":"Point","coordinates":[-51.106661019947,-20.636668999377]}},{"type":"Feature","properties":[{"gid":"2941"},{"co_cnes":"2052709"},{"lat":"-22.2997784614557"},{"long":"-49.0763139724717"},{"no_fantasia":"UNIDADE BASICA DE SAUDE JARDIM GODOY"},{"no_logradouro":"ALAMEDA FLOR DO AMOR"},{"nu_endereco":"10"},{"no_bairro":"JARDIM GODOY"},{"nu_telefone":"(14)3237-5065"},{"co_cep":"17021270"},{"uf":"SP"},{"cidade":"Bauru"},{"ano_ubs_det":"2016"},{"mes_ubs_det":"5"}],"geometry":{"type":"Point","coordinates":[-49.076313972472,-22.299778461456]}},{"type":"Feature","properties":[{"gid":"2810"},{"co_cnes":"2077086"},{"lat":"-20.4275570617021"},{"long":"-47.8245929501746"},{"no_fantasia":"PSF VILA MATARAZZO"},{"no_logradouro":"RUA CONDE FRANCISCO MATARAZZO"},{"nu_endereco":"2635"},{"no_bairro":"VILA MATARAZZO"},{"nu_telefone":"(16)38311388"},{"co_cep":"14580000"},{"uf":"SP"},{"cidade":"Guará"},{"ano_ubs_det":"2016"},{"mes_ubs_det":"5"}],"geometry":{"type":"Point","coordinates":[-47.824592950175,-20.427557061702]}},{"type":"Feature","properties":[{"gid":"2866"},{"co_cnes":"2063689"},{"lat":"-22.1937775611871"},{"long":"-46.7422342300401"},{"no_fantasia":"UBS DR VALTER FAUSTINO PEREIRA V PALMEIRAS E S PINHAL SP"},{"no_logradouro":"RUA SEIS DE MARCO"},{"nu_endereco":"S/N"},{"no_bairro":"VILA PALMEIRAS"},{"nu_telefone":"(19)6513580"},{"co_cep":"13990000"},{"uf":"SP"},{"cidade":"Espírito Santo do Pinhal"},{"ano_ubs_det":"2016"},{"mes_ubs_det":"5"}],"geometry":{"type":"Point","coordinates":[-46.74223423004,-22.193777561187]}},{"type":"Feature","properties":[{"gid":"3137"},{"co_cnes":"2091860"},{"lat":"-20.8112265"},{"long":"-48.8058357"},{"no_fantasia":"UBS RAPHAEL CAZARINI"},{"no_logradouro":"R DR SALOMAO GALIB TANNURI"},{"nu_endereco":"197"},{"no_bairro":"CENTRO"},{"nu_telefone":"17 38171470"},{"co_cep":"14735000"},{"uf":"SP"},{"cidade":"Severínia"},{"ano_ubs_det":"2016"},{"mes_ubs_det":"5"}],"geometry":{"type":"Point","coordinates":[-48.8058357,-20.8112265]}},{"type":"Feature","properties":[{"gid":"2860"},{"co_cnes":"8419"},{"lat":"-23.5802865028374"},{"long":"-46.8033456802355"},{"no_fantasia":"UBS LIA BUARQUE DE MACEDO GASPARINI"},{"no_logradouro":"AVENIDA CLOVIS ASSAF"},{"nu_endereco":"460"},{"no_bairro":"VILA DA CONQUISTA"},{"nu_telefone":"(11)36057445"},{"co_cep":"06145080"},{"uf":"SP"},{"cidade":"Osasco"},{"ano_ubs_det":"2016"},{"mes_ubs_det":"5"}],"geometry":{"type":"Point","coordinates":[-46.803345680236,-23.580286502837]}},{"type":"Feature","properties":[{"gid":"2944"},{"co_cnes":"6032478"},{"lat":"-22.9073425"},{"long":"-47.0601562729731"},{"no_fantasia":"CENTRO DE SAUDE SATELITE IRIS I"},{"no_logradouro":"RUA REVERENDO JOSE COELHO FERRAZ"},{"nu_endereco":"21"},{"no_bairro":"CIDADE SATELITE IRIS"},{"nu_telefone":"19-32273525"},{"co_cep":"13059662"},{"uf":"SP"},{"cidade":"Campinas"},{"ano_ubs_det":"2016"},{"mes_ubs_det":"5"}],"geometry":{"type":"Point","coordinates":[-47.060156272973,-22.9073425]}},{"type":"Feature","properties":[{"gid":"3135"},{"co_cnes":"2086700"},{"lat":"-22.9309022426599"},{"long":"-46.2723755836473"},{"no_fantasia":"UBS II DE JOANOPOLIS"},{"no_logradouro":"RUA FRANCISCO WOLHERS"},{"nu_endereco":"113"},{"no_bairro":"CENTRO"},{"nu_telefone":"(11)4888-9208"},{"co_cep":"12980000"},{"uf":"SP"},{"cidade":"Joanópolis"},{"ano_ubs_det":"2016"},{"mes_ubs_det":"5"}],"geometry":{"type":"Point","coordinates":[-46.272375583647,-22.93090224266]}},{"type":"Feature","properties":[{"gid":"3018"},{"co_cnes":"2051915"},{"lat":"-20.211693165"},{"long":"-50.9267774238433"},{"no_fantasia":"ESF BELA VISTA SANTA FE DO SUL"},{"no_logradouro":"RUA TRINTA TRES"},{"nu_endereco":"635"},{"no_bairro":"JARDIM PRATA"},{"nu_telefone":"(17)36311319"},{"co_cep":"15775000"},{"uf":"SP"},{"cidade":"Santa Fé do Sul"},{"ano_ubs_det":"2016"},{"mes_ubs_det":"5"}],"geometry":{"type":"Point","coordinates":[-50.926777423843,-20.211693165]}},{"type":"Feature","properties":[{"gid":"3079"},{"co_cnes":"6240763"},{"lat":"-22.6582396030419"},{"long":"-45.0060939788805"},{"no_fantasia":"ESF VILA CACARRO"},{"no_logradouro":"PRACA PLACIDO GUEDES MAGALHAES"},{"nu_endereco":"S/N"},{"no_bairro":"VILA CACARRO"},{"nu_telefone":""},{"co_cep":"12630000"},{"uf":"SP"},{"cidade":"Cachoeira Paulista"},{"ano_ubs_det":"2016"},{"mes_ubs_det":"5"}],"geometry":{"type":"Point","coordinates":[-45.006093978881,-22.658239603042]}},{"type":"Feature","properties":[{"gid":"2864"},{"co_cnes":"2751089"},{"lat":"-22.6097667217248"},{"long":"-51.7224740982041"},{"no_fantasia":"UBS I THEODORA CORDEIRO DE ANDRADE COM SERVICO DE ESF"},{"no_logradouro":"RUA PARANAPANEMA"},{"nu_endereco":"535"},{"no_bairro":"DISTRITO DE ITORORO"},{"nu_telefone":"(18) 3269-7117"},{"co_cep":"19208000"},{"uf":"SP"},{"cidade":"Pirapozinho"},{"ano_ubs_det":"2016"},{"mes_ubs_det":"5"}],"geometry":{"type":"Point","coordinates":[-51.722474098204,-22.609766721725]}},{"type":"Feature","properties":[{"gid":"2807"},{"co_cnes":"7202121"},{"lat":"-21.6944574294116"},{"long":"-51.0880042612553"},{"no_fantasia":"UBS PARQUE CECAP"},{"no_logradouro":"R PROF NOEMIA BUENO DO VALE"},{"nu_endereco":"145"},{"no_bairro":"PARQUE CECAP"},{"nu_telefone":""},{"co_cep":"17800000"},{"uf":"SP"},{"cidade":"Adamantina"},{"ano_ubs_det":"2016"},{"mes_ubs_det":"5"}],"geometry":{"type":"Point","coordinates":[-51.088004261255,-21.694457429412]}},{"type":"Feature","properties":[{"gid":"3396"},{"co_cnes":"2052318"},{"lat":"-23.4282374382012"},{"long":"-46.5220570564257"},{"no_fantasia":"UBS MORROS"},{"no_logradouro":"RUA DELMIRO"},{"nu_endereco":"299"},{"no_bairro":"JD DOS AFONSOS"},{"nu_telefone":"1124045583"},{"co_cep":"07131430"},{"uf":"SP"},{"cidade":"Guarulhos"},{"ano_ubs_det":"2016"},{"mes_ubs_det":"5"}],"geometry":{"type":"Point","coordinates":[-46.522057056426,-23.428237438201]}},{"type":"Feature","properties":[{"gid":"3209"},{"co_cnes":"2094177"},{"lat":"-21.0171568393701"},{"long":"-47.7576541900621"},{"no_fantasia":"USF V JOAO AUGUSTO DOS REIS"},{"no_logradouro":"RUA AMADOR BUENO"},{"nu_endereco":"S/N"},{"no_bairro":"VILA PAULISTA"},{"nu_telefone":"(16)36902955"},{"co_cep":"14680000"},{"uf":"SP"},{"cidade":"Jardinópolis"},{"ano_ubs_det":"2016"},{"mes_ubs_det":"5"}],"geometry":{"type":"Point","coordinates":[-47.757654190062,-21.01715683937]}},{"type":"Feature","properties":[{"gid":"3440"},{"co_cnes":"2062143"},{"lat":"-22.3549924972486"},{"long":"-49.0566292405128"},{"no_fantasia":"UNIDADE BASICA DE SAUDE JARDIM EUROPA"},{"no_logradouro":"RUA HERMES CAMARGO BATISTA"},{"nu_endereco":"164"},{"no_bairro":"PARQUE JARDIM EUROPA"},{"nu_telefone":"(14)3227-7322"},{"co_cep":"17017492"},{"uf":"SP"},{"cidade":"Bauru"},{"ano_ubs_det":"2016"},{"mes_ubs_det":"5"}],"geometry":{"type":"Point","coordinates":[-49.056629240513,-22.354992497249]}},{"type":"Feature","properties":[{"gid":"3497"},{"co_cnes":"2057204"},{"lat":"-23.1408977508538"},{"long":"-47.084956169127"},{"no_fantasia":"UBS DO BAIRRO MONTE SERRAT"},{"no_logradouro":"RUA DUILIO CHINARELI"},{"nu_endereco":"120"},{"no_bairro":"MONTE SERRAT"},{"nu_telefone":"(11)45910330"},{"co_cep":"13295000"},{"uf":"SP"},{"cidade":"Itupeva"},{"ano_ubs_det":"2016"},{"mes_ubs_det":"5"}],"geometry":{"type":"Point","coordinates":[-47.084956169127,-23.140897750854]}},{"type":"Feature","properties":[{"gid":"3459"},{"co_cnes":"2790297"},{"lat":"-22.5124239921563"},{"long":"-48.56019258499"},{"no_fantasia":"CENTRO DE SAUDE III DE IGARACU DO TIETE"},{"no_logradouro":"RUA FERNANDO JATOBA"},{"nu_endereco":"352"},{"no_bairro":"CENTRO"},{"nu_telefone":"14 36441282"},{"co_cep":"17350000"},{"uf":"SP"},{"cidade":"Igaraçu do Tietê"},{"ano_ubs_det":"2016"},{"mes_ubs_det":"5"}],"geometry":{"type":"Point","coordinates":[-48.56019258499,-22.512423992156]}},{"type":"Feature","properties":[{"gid":"3422"},{"co_cnes":"2750937"},{"lat":"-21.50925"},{"long":"-51.43403"},{"no_fantasia":"ESTRATEGIA DE SAUDE DA FAMILIA VII"},{"no_logradouro":"RUA SAO SALVADOR"},{"nu_endereco":"2182"},{"no_bairro":"JARDIM DOS PASSAROS"},{"nu_telefone":"(18) 3841-3452"},{"co_cep":"17890000"},{"uf":"SP"},{"cidade":"Junqueirópolis"},{"ano_ubs_det":"2016"},{"mes_ubs_det":"5"}],"geometry":{"type":"Point","coordinates":[-51.43403,-21.50925]}},{"type":"Feature","properties":[{"gid":"3458"},{"co_cnes":"2042762"},{"lat":"-21.875939505"},{"long":"-51.8402588050568"},{"no_fantasia":"ESF VILA LUIZA"},{"no_logradouro":"RUA CANDIDO DE ALMEIDA"},{"nu_endereco":"205"},{"no_bairro":"VILA LUIZA"},{"nu_telefone":"(18)32717999"},{"co_cep":"19400000"},{"uf":"SP"},{"cidade":"Presidente Venceslau"},{"ano_ubs_det":"2016"},{"mes_ubs_det":"5"}],"geometry":{"type":"Point","coordinates":[-51.840258805057,-21.875939505]}},{"type":"Feature","properties":[{"gid":"3215"},{"co_cnes":"7462328"},{"lat":"-21.6123692319849"},{"long":"-51.1661572208404"},{"no_fantasia":"UNIDADE DE SAUDE DA FAMILIA DE FLORIDA PAULISTA II"},{"no_logradouro":"RUA CEARA"},{"nu_endereco":"99"},{"no_bairro":"VILA MONTEIRO"},{"nu_telefone":""},{"co_cep":"17830000"},{"uf":"SP"},{"cidade":"Flórida Paulista"},{"ano_ubs_det":"2016"},{"mes_ubs_det":"5"}],"geometry":{"type":"Point","coordinates":[-51.16615722084,-21.612369231985]}},{"type":"Feature","properties":[{"gid":"3528"},{"co_cnes":"2049104"},{"lat":"-20.5921339988703"},{"long":"-47.3719739913927"},{"no_fantasia":"UBS AEROPORTO III"},{"no_logradouro":"RUA DENIZAR TREVIZANI"},{"nu_endereco":"1971"},{"no_bairro":"JAD AEROPORTO III"},{"nu_telefone":"(16)37017177"},{"co_cep":"14404225"},{"uf":"SP"},{"cidade":"Franca"},{"ano_ubs_det":"2016"},{"mes_ubs_det":"5"}],"geometry":{"type":"Point","coordinates":[-47.371973991393,-20.59213399887]}},{"type":"Feature","properties":[{"gid":"3472"},{"co_cnes":"2092387"},{"lat":"-22.0412778854364"},{"long":"-48.3387064933763"},{"no_fantasia":"UNIDADE BASICA DE SAUDE MANOEL MORALES TRABIJU"},{"no_logradouro":"AVENIDA 27 DE DEZEMBRO"},{"nu_endereco":"300"},{"no_bairro":"CENTRO"},{"nu_telefone":"(16) 33491124"},{"co_cep":"14935000"},{"uf":"SP"},{"cidade":"Trabiju"},{"ano_ubs_det":"2016"},{"mes_ubs_det":"5"}],"geometry":{"type":"Point","coordinates":[-48.338706493376,-22.041277885436]}},{"type":"Feature","properties":[{"gid":"3530"},{"co_cnes":"2035944"},{"lat":"-22.7388238906854"},{"long":"-47.4025940895067"},{"no_fantasia":"UNIDADE BASICA DE SAUDE DR CARLOS PERES"},{"no_logradouro":"RUA 23 DE MAIO"},{"nu_endereco":"196"},{"no_bairro":"CONJUNTO HAB 31 DE"},{"nu_telefone":"(19)34546515"},{"co_cep":"13453153"},{"uf":"SP"},{"cidade":"Santa Bárbara d'Oeste"},{"ano_ubs_det":"2016"},{"mes_ubs_det":"5"}],"geometry":{"type":"Point","coordinates":[-47.402594089507,-22.738823890685]}},{"type":"Feature","properties":[{"gid":"3469"},{"co_cnes":"2787628"},{"lat":"-23.7714529037469"},{"long":"-46.6966795921312"},{"no_fantasia":"AMA UBS INTEGRADA JARDIM MIRNA"},{"no_logradouro":"RUA DR JUVENAL HUDSON FERREIRA"},{"nu_endereco":"13"},{"no_bairro":"JARDIM MIRNA"},{"nu_telefone":"(11)55278798"},{"co_cep":"04856140"},{"uf":"SP"},{"cidade":"São Paulo"},{"ano_ubs_det":"2016"},{"mes_ubs_det":"5"}],"geometry":{"type":"Point","coordinates":[-46.696679592131,-23.771452903747]}},{"type":"Feature","properties":[{"gid":"3360"},{"co_cnes":"2716437"},{"lat":"-20.9533463992657"},{"long":"-49.1776695349784"},{"no_fantasia":"ESF DR EDUARDO LAINETTI"},{"no_logradouro":"RUA FRANCISCO ABDALLA"},{"nu_endereco":"220"},{"no_bairro":"SAO MIIGUEL"},{"nu_telefone":"(17)31010220"},{"co_cep":"15890000"},{"uf":"SP"},{"cidade":"Uchoa"},{"ano_ubs_det":"2016"},{"mes_ubs_det":"5"}],"geometry":{"type":"Point","coordinates":[-49.177669534978,-20.953346399266]}},{"type":"Feature","properties":[{"gid":"3370"},{"co_cnes":"7248172"},{"lat":"-21.28766"},{"long":"-47.42851"},{"no_fantasia":"ESTRATEGIA SAUDE DA FAMILIA SANTA CRUZ DA ESPERANCA"},{"no_logradouro":"RUA GILBERTO RODRIGUES XAVIER"},{"nu_endereco":"70"},{"no_bairro":"VILA SAO PAULO"},{"nu_telefone":"1636661179"},{"co_cep":"14250000"},{"uf":"SP"},{"cidade":"Santa Cruz da Esperança"},{"ano_ubs_det":"2016"},{"mes_ubs_det":"5"}],"geometry":{"type":"Point","coordinates":[-47.42851,-21.28766]}},{"type":"Feature","properties":[{"gid":"3449"},{"co_cnes":"3935574"},{"lat":"-22.3570865196587"},{"long":"-47.3858295274694"},{"no_fantasia":"ESF DR BENTO FERES ARARAS"},{"no_logradouro":"RUA JULIA LUIZ RUETTE"},{"nu_endereco":"245"},{"no_bairro":"JARDIM OURO VERDE II"},{"nu_telefone":"19-35425453"},{"co_cep":"13607507"},{"uf":"SP"},{"cidade":"Araras"},{"ano_ubs_det":"2016"},{"mes_ubs_det":"5"}],"geometry":{"type":"Point","coordinates":[-47.385829527469,-22.357086519659]}},{"type":"Feature","properties":[{"gid":"3450"},{"co_cnes":"2022788"},{"lat":"-22.9073425"},{"long":"-47.0601562729731"},{"no_fantasia":"CENTRO DE SAUDE PERSEU LEITE DE BARROS"},{"no_logradouro":"RUA BOA VISTA"},{"nu_endereco":"28"},{"no_bairro":"VL PERSEU LEITE DE B"},{"nu_telefone":"32686899"},{"co_cep":"13060384"},{"uf":"SP"},{"cidade":"Campinas"},{"ano_ubs_det":"2016"},{"mes_ubs_det":"5"}],"geometry":{"type":"Point","coordinates":[-47.060156272973,-22.9073425]}},{"type":"Feature","properties":[{"gid":"3338"},{"co_cnes":"2070499"},{"lat":"-23.3015749993138"},{"long":"-48.0526853360855"},{"no_fantasia":"UBS ORLANDO DE OLIVEIRA"},{"no_logradouro":"RUA JOAQUIM PAIFER SOBRINHO"},{"nu_endereco":"256"},{"no_bairro":"JARDIM SANTO ANTONIO"},{"nu_telefone":"(15)32539030"},{"co_cep":"18255000"},{"uf":"SP"},{"cidade":"Quadra"},{"ano_ubs_det":"2016"},{"mes_ubs_det":"5"}],"geometry":{"type":"Point","coordinates":[-48.052685336086,-23.301574999314]}},{"type":"Feature","properties":[{"gid":"3592"},{"co_cnes":"2059681"},{"lat":"-23.8064825534814"},{"long":"-46.0521984100329"},{"no_fantasia":"UNIDADE BASICA DE SAUDE JARDIM INDAIA"},{"no_logradouro":"RUA SAO FRANCISCO DO SUL"},{"nu_endereco":"84"},{"no_bairro":"JARDIM INDAIA"},{"nu_telefone":"(13)33131971"},{"co_cep":"11260327"},{"uf":"SP"},{"cidade":"Bertioga"},{"ano_ubs_det":"2016"},{"mes_ubs_det":"5"}],"geometry":{"type":"Point","coordinates":[-46.052198410033,-23.806482553481]}},{"type":"Feature","properties":[{"gid":"3452"},{"co_cnes":"2044242"},{"lat":"-22.3299586772912"},{"long":"-49.0794682502732"},{"no_fantasia":"UNIDADE BASICA DE SAUDE CENTRO"},{"no_logradouro":"RUA QUINTINO BOCAIUVA"},{"nu_endereco":"545"},{"no_bairro":"CENTRO"},{"nu_telefone":"(14)32348795"},{"co_cep":"17015100"},{"uf":"SP"},{"cidade":"Bauru"},{"ano_ubs_det":"2016"},{"mes_ubs_det":"5"}],"geometry":{"type":"Point","coordinates":[-49.079468250273,-22.329958677291]}},{"type":"Feature","properties":[{"gid":"3400"},{"co_cnes":"2773031"},{"lat":"-23.16859"},{"long":"-47.754"},{"no_fantasia":"UBS DA FAMILIA NOVA CERQUILHO CERQUILHO"},{"no_logradouro":"RUA SAO JOSE"},{"nu_endereco":"1080"},{"no_bairro":"NOVA CERQUILHO"},{"nu_telefone":"(15)32841155"},{"co_cep":"18520000"},{"uf":"SP"},{"cidade":"Cerquilho"},{"ano_ubs_det":"2016"},{"mes_ubs_det":"5"}],"geometry":{"type":"Point","coordinates":[-47.754,-23.16859]}},{"type":"Feature","properties":[{"gid":"3534"},{"co_cnes":"2072327"},{"lat":"-23.463"},{"long":"-46.533"},{"no_fantasia":"UBS TRANQUILIDADE"},{"no_logradouro":"AVENIDA EMILIO RIBAS"},{"nu_endereco":"1897"},{"no_bairro":"JD TRANQUILIDADE"},{"nu_telefone":"1124252799"},{"co_cep":"07051000"},{"uf":"SP"},{"cidade":"Guarulhos"},{"ano_ubs_det":"2016"},{"mes_ubs_det":"5"}],"geometry":{"type":"Point","coordinates":[-46.533,-23.463]}},{"type":"Feature","properties":[{"gid":"3265"},{"co_cnes":"2076284"},{"lat":"-22.6143374"},{"long":"-46.9663192"},{"no_fantasia":"UNIDADE DE SAUDE DA FAMILIA DR JOSE PAULO MARUM"},{"no_logradouro":"PRACA CAPITAO PEDRO ANTONIO DE MORAES"},{"nu_endereco":"175"},{"no_bairro":"RESSACA"},{"nu_telefone":"1938961151"},{"co_cep":"13833356"},{"uf":"SP"},{"cidade":"Santo Antônio de Posse"},{"ano_ubs_det":"2016"},{"mes_ubs_det":"5"}],"geometry":{"type":"Point","coordinates":[-46.9663192,-22.6143374]}},{"type":"Feature","properties":[{"gid":"3547"},{"co_cnes":"2773422"},{"lat":"-23.5551917552941"},{"long":"-46.3794493675218"},{"no_fantasia":"UBS CDHU"},{"no_logradouro":"RUA AMERICO TUFELLI"},{"nu_endereco":"261"},{"no_bairro":"PRQ S FRANCISCO"},{"nu_telefone":"(11)46795315"},{"co_cep":"08527150"},{"uf":"SP"},{"cidade":"Ferraz de Vasconcelos"},{"ano_ubs_det":"2016"},{"mes_ubs_det":"5"}],"geometry":{"type":"Point","coordinates":[-46.379449367522,-23.555191755294]}},{"type":"Feature","properties":[{"gid":"3502"},{"co_cnes":"2022613"},{"lat":"-22.9438197612756"},{"long":"-47.0976805686937"},{"no_fantasia":"CENTRO DE SAUDE CAMPOS ELISEOS TANCREDO NEVES"},{"no_logradouro":"AV TANCREDO NEVES"},{"nu_endereco":"5101"},{"no_bairro":"CAMPOS ELISEOS"},{"nu_telefone":"(19)32273811"},{"co_cep":"13050214"},{"uf":"SP"},{"cidade":"Campinas"},{"ano_ubs_det":"2016"},{"mes_ubs_det":"5"}],"geometry":{"type":"Point","coordinates":[-47.097680568694,-22.943819761276]}},{"type":"Feature","properties":[{"gid":"3559"},{"co_cnes":"2022354"},{"lat":"-20.94325"},{"long":"-48.50879"},{"no_fantasia":"E S F DR ULISSES DE CARVALHO"},{"no_logradouro":"RUA AUGUSTO DE CARVALHO"},{"nu_endereco":"260"},{"no_bairro":"JARDIM ALVORADA"},{"nu_telefone":"(17)3342-4267"},{"co_cep":"14706242"},{"uf":"SP"},{"cidade":"Bebedouro"},{"ano_ubs_det":"2016"},{"mes_ubs_det":"5"}],"geometry":{"type":"Point","coordinates":[-48.50879,-20.94325]}},{"type":"Feature","properties":[{"gid":"3483"},{"co_cnes":"2085003"},{"lat":"-23.3048804993137"},{"long":"-45.9695932044093"},{"no_fantasia":"UMSF SANTO ANTONIO DA BOA VISTA"},{"no_logradouro":"RUA DOS JACINTOS"},{"nu_endereco":"470"},{"no_bairro":"STO ANTONIO B VISTA"},{"nu_telefone":"(12)39535262"},{"co_cep":"12315620"},{"uf":"SP"},{"cidade":"Jacareí"},{"ano_ubs_det":"2016"},{"mes_ubs_det":"5"}],"geometry":{"type":"Point","coordinates":[-45.969593204409,-23.304880499314]}},{"type":"Feature","properties":[{"gid":"3585"},{"co_cnes":"6520650"},{"lat":"-23.5337984561913"},{"long":"-46.3626909255968"},{"no_fantasia":"UBS MARIO SQUIZATO"},{"no_logradouro":"RUA RAIMUNDO MAGRINI"},{"nu_endereco":"240"},{"no_bairro":"VILA DAS NACOES"},{"nu_telefone":"1146785816"},{"co_cep":"08544300"},{"uf":"SP"},{"cidade":"Ferraz de Vasconcelos"},{"ano_ubs_det":"2016"},{"mes_ubs_det":"5"}],"geometry":{"type":"Point","coordinates":[-46.362690925597,-23.533798456191]}},{"type":"Feature","properties":[{"gid":"3509"},{"co_cnes":"2040387"},{"lat":"-21.7457950115198"},{"long":"-48.1194949150071"},{"no_fantasia":"UBS DR CASSIO MORAES ALVES AMERICO BRASILIENSE"},{"no_logradouro":"AV CATANDUVA"},{"nu_endereco":"340"},{"no_bairro":"JD VISTA ALEGRE"},{"nu_telefone":"(16)33921120"},{"co_cep":"14820000"},{"uf":"SP"},{"cidade":"Américo Brasiliense"},{"ano_ubs_det":"2016"},{"mes_ubs_det":"5"}],"geometry":{"type":"Point","coordinates":[-48.119494915007,-21.74579501152]}},{"type":"Feature","properties":[{"gid":"3517"},{"co_cnes":"2024446"},{"lat":"-22.94841"},{"long":"-45.50148"},{"no_fantasia":"UNIDADE DE SAUDE DA FAMILIA ARARETAMA PINDAMONHANGABA"},{"no_logradouro":"GENERAL RUY DE ANDRADE COSTA"},{"nu_endereco":"130"},{"no_bairro":"ARARETAMA"},{"nu_telefone":"12 36481559"},{"co_cep":"12423470"},{"uf":"SP"},{"cidade":"Pindamonhangaba"},{"ano_ubs_det":"2016"},{"mes_ubs_det":"5"}],"geometry":{"type":"Point","coordinates":[-45.50148,-22.94841]}},{"type":"Feature","properties":[{"gid":"3574"},{"co_cnes":"2030799"},{"lat":"-21.33838"},{"long":"-47.74666"},{"no_fantasia":"UNIDADE MISTA DE SAUDE JOSE STELLA"},{"no_logradouro":"AV PEDRO AMOROSO"},{"nu_endereco":"1295"},{"no_bairro":"JOAO BERBEL II"},{"nu_telefone":"(16)6511246"},{"co_cep":"14140000"},{"uf":"SP"},{"cidade":"Cravinhos"},{"ano_ubs_det":"2016"},{"mes_ubs_det":"5"}],"geometry":{"type":"Point","coordinates":[-47.74666,-21.33838]}},{"type":"Feature","properties":[{"gid":"3429"},{"co_cnes":"2084953"},{"lat":"-23.2980537414544"},{"long":"-46.0362339019762"},{"no_fantasia":"UMSF IGARAPES"},{"no_logradouro":"RUA ENGENHEIRO FLAVIO DA SILVA FREITAS"},{"nu_endereco":"860"},{"no_bairro":"IGARAPES"},{"nu_telefone":"(12)39563571"},{"co_cep":"12330170"},{"uf":"SP"},{"cidade":"Jacareí"},{"ano_ubs_det":"2016"},{"mes_ubs_det":"5"}],"geometry":{"type":"Point","coordinates":[-46.036233901976,-23.298053741454]}},{"type":"Feature","properties":[{"gid":"3524"},{"co_cnes":"2046342"},{"lat":"-20.9901403801924"},{"long":"-47.6563979568538"},{"no_fantasia":"UBS DR JOSE DE CASTRO MENDONCA FURTADO PSF"},{"no_logradouro":"RUA ARMINIO MONTEVERDE"},{"nu_endereco":"75"},{"no_bairro":"JOAO LUIZ DE VICENTE"},{"nu_telefone":"36645678"},{"co_cep":"14340000"},{"uf":"SP"},{"cidade":"Brodowski"},{"ano_ubs_det":"2016"},{"mes_ubs_det":"5"}],"geometry":{"type":"Point","coordinates":[-47.656397956854,-20.990140380192]}},{"type":"Feature","properties":[{"gid":"3490"},{"co_cnes":"2027895"},{"lat":"-22.828817367553"},{"long":"-47.1666026115404"},{"no_fantasia":"USF SANTA CLARA"},{"no_logradouro":"RUA BENEDITO TEODORO MENDES"},{"nu_endereco":"26"},{"no_bairro":"JARDIM SANTA CLARA"},{"nu_telefone":"(19)38643732"},{"co_cep":"13179216"},{"uf":"SP"},{"cidade":"Sumaré"},{"ano_ubs_det":"2016"},{"mes_ubs_det":"5"}],"geometry":{"type":"Point","coordinates":[-47.16660261154,-22.828817367553]}},{"type":"Feature","properties":[{"gid":"3555"},{"co_cnes":"3810984"},{"lat":"-23.7115323543542"},{"long":"-46.4112710952745"},{"no_fantasia":"UNIDADE BASICA DE SAUDE RIBEIRAO PIRES"},{"no_logradouro":"RUA VIRGILIO GOLA"},{"nu_endereco":"24"},{"no_bairro":"VILA ALBERTINA"},{"nu_telefone":"011 4828-1458"},{"co_cep":"09400500"},{"uf":"SP"},{"cidade":"Ribeirão Pires"},{"ano_ubs_det":"2016"},{"mes_ubs_det":"5"}],"geometry":{"type":"Point","coordinates":[-46.411271095275,-23.711532354354]}},{"type":"Feature","properties":[{"gid":"3289"},{"co_cnes":"2698404"},{"lat":"-22.0089907787558"},{"long":"-51.557570191824"},{"no_fantasia":"ESF JOSE REMONDINI"},{"no_logradouro":"RUA SAO MARCOS"},{"nu_endereco":"421"},{"no_bairro":"BAIRRO DA BIBLIA"},{"nu_telefone":"(18)32627272"},{"co_cep":"19300000"},{"uf":"SP"},{"cidade":"Presidente Bernardes"},{"ano_ubs_det":"2016"},{"mes_ubs_det":"5"}],"geometry":{"type":"Point","coordinates":[-51.557570191824,-22.008990778756]}},{"type":"Feature","properties":[{"gid":"3499"},{"co_cnes":"2051427"},{"lat":"-23.8318291037712"},{"long":"-46.8171088725496"},{"no_fantasia":"USF SAPATEIRO"},{"no_logradouro":"EST MUNICIPAL BRASILIO VIEIRA"},{"nu_endereco":"180"},{"no_bairro":"SAPATEIRO"},{"nu_telefone":"(11)46614535"},{"co_cep":"06900000"},{"uf":"SP"},{"cidade":"Embu-Guaçu"},{"ano_ubs_det":"2016"},{"mes_ubs_det":"5"}],"geometry":{"type":"Point","coordinates":[-46.81710887255,-23.831829103771]}},{"type":"Feature","properties":[{"gid":"3441"},{"co_cnes":"2745879"},{"lat":"-20.1850002235085"},{"long":"-48.0368962883949"},{"no_fantasia":"P A S II JOSE ANTONIO DA SILVA MIGUELOPOLIS"},{"no_logradouro":"RUA ABILIO DUARTE"},{"nu_endereco":"S/N"},{"no_bairro":"TETUO INON"},{"nu_telefone":"(16)38358234"},{"co_cep":"14530000"},{"uf":"SP"},{"cidade":"Miguelópolis"},{"ano_ubs_det":"2016"},{"mes_ubs_det":"5"}],"geometry":{"type":"Point","coordinates":[-48.036896288395,-20.185000223509]}},{"type":"Feature","properties":[{"gid":"3453"},{"co_cnes":"2716887"},{"lat":"-22.214933"},{"long":"-49.9516456431033"},{"no_fantasia":"USF FIGUERINHA"},{"no_logradouro":"AVENIDA JOSE JORENTE"},{"nu_endereco":"291"},{"no_bairro":"FIGUEIRINHA"},{"nu_telefone":"14-34253484"},{"co_cep":"17512890"},{"uf":"SP"},{"cidade":"Marília"},{"ano_ubs_det":"2016"},{"mes_ubs_det":"5"}],"geometry":{"type":"Point","coordinates":[-49.951645643103,-22.214933]}},{"type":"Feature","properties":[{"gid":"3894"},{"co_cnes":"7298609"},{"lat":"-23.539874960682"},{"long":"-46.9445223059654"},{"no_fantasia":"USF JD SAO CARLOS"},{"no_logradouro":"RUA DOURADO"},{"nu_endereco":"347"},{"no_bairro":"JARDIM SAO CARLOS"},{"nu_telefone":"11 41436203"},{"co_cep":"06694410"},{"uf":"SP"},{"cidade":"Itapevi"},{"ano_ubs_det":"2016"},{"mes_ubs_det":"5"}],"geometry":{"type":"Point","coordinates":[-46.944522305965,-23.539874960682]}},{"type":"Feature","properties":[{"gid":"3824"},{"co_cnes":"2088428"},{"lat":"-23.5053133964532"},{"long":"-47.6183295249925"},{"no_fantasia":"UNIDADE MISTA ARACOIABA DA SERRA"},{"no_logradouro":"RUA ANTONIO ANTERO DE OLIVEIRA"},{"nu_endereco":"19"},{"no_bairro":"CENTRO"},{"nu_telefone":"(15)32817160"},{"co_cep":"18190000"},{"uf":"SP"},{"cidade":"Araçoiaba da Serra"},{"ano_ubs_det":"2016"},{"mes_ubs_det":"5"}],"geometry":{"type":"Point","coordinates":[-47.618329524992,-23.505313396453]}},{"type":"Feature","properties":[{"gid":"3966"},{"co_cnes":"2750767"},{"lat":"-21.3821732997888"},{"long":"-51.5804886817917"},{"no_fantasia":"ESTRATEGIA SAUDE FAMILIA II DR JOSE ESTEVES MARTINS ANDRADE"},{"no_logradouro":"AVENIDA BENEDITA CAMARGO"},{"nu_endereco":"1492"},{"no_bairro":"JARDIM PETROPOLIS"},{"nu_telefone":"(18)3851 1480"},{"co_cep":"17930000"},{"uf":"SP"},{"cidade":"Tupi Paulista"},{"ano_ubs_det":"2016"},{"mes_ubs_det":"5"}],"geometry":{"type":"Point","coordinates":[-51.580488681792,-21.382173299789]}},{"type":"Feature","properties":[{"gid":"3753"},{"co_cnes":"7070489"},{"lat":"-23.9395347235086"},{"long":"-46.2877466259002"},{"no_fantasia":"USAFA JARDIM PROGRESSO GUARUJA"},{"no_logradouro":"RUA JOSEFA HERMENIA DE CALDAS"},{"nu_endereco":"S/N"},{"no_bairro":"JARDIM PROGRESSO"},{"nu_telefone":"(13) 33417232"},{"co_cep":"11440000"},{"uf":"SP"},{"cidade":"Guarujá"},{"ano_ubs_det":"2016"},{"mes_ubs_det":"5"}],"geometry":{"type":"Point","coordinates":[-46.2877466259,-23.939534723509]}},{"type":"Feature","properties":[{"gid":"3953"},{"co_cnes":"8003025"},{"lat":"-20.4263844266911"},{"long":"-51.3368971645832"},{"no_fantasia":"UBSF NORTE"},{"no_logradouro":"RUA PALMARES"},{"nu_endereco":"56"},{"no_bairro":"ZONA NORTE"},{"nu_telefone":"(18)37436068"},{"co_cep":"15385000"},{"uf":"SP"},{"cidade":"Ilha Solteira"},{"ano_ubs_det":"2016"},{"mes_ubs_det":"5"}],"geometry":{"type":"Point","coordinates":[-51.336897164583,-20.426384426691]}},{"type":"Feature","properties":[{"gid":"3928"},{"co_cnes":"2751194"},{"lat":"-22.2426715"},{"long":"-50.8678551"},{"no_fantasia":"ESF JARDIM PRIMAVERA DR JOAO B DOS STOS ARAUJO"},{"no_logradouro":"RUA PRUDENTE DE MORAES"},{"nu_endereco":"315"},{"no_bairro":"JD PRIMAVERA"},{"nu_telefone":"(18) 3265-5287"},{"co_cep":"19600000"},{"uf":"SP"},{"cidade":"Rancharia"},{"ano_ubs_det":"2016"},{"mes_ubs_det":"5"}],"geometry":{"type":"Point","coordinates":[-50.8678551,-22.2426715]}},{"type":"Feature","properties":[{"gid":"3741"},{"co_cnes":"2065312"},{"lat":"-23.2378435134881"},{"long":"-45.3974175453173"},{"no_fantasia":"NUCLEO DE ESF DO BAIRRO SAO SEBASTIAO"},{"no_logradouro":"ESTRADA VICENTE RODRIGUES SALES"},{"nu_endereco":"S/N"},{"no_bairro":"SAO SEBASTIAO"},{"nu_telefone":""},{"co_cep":"12140000"},{"uf":"SP"},{"cidade":"São Luís do Paraitinga"},{"ano_ubs_det":"2016"},{"mes_ubs_det":"5"}],"geometry":{"type":"Point","coordinates":[-45.397417545317,-23.237843513488]}},{"type":"Feature","properties":[{"gid":"3667"},{"co_cnes":"2750376"},{"lat":"-21.360597610473"},{"long":"-51.8567562103256"},{"no_fantasia":"CENTRO DE SAUDE III DE PANORAMA"},{"no_logradouro":"RUA EMILIO CONDE"},{"nu_endereco":"1210"},{"no_bairro":"CENTRO"},{"nu_telefone":"(18) 38719097"},{"co_cep":"17980000"},{"uf":"SP"},{"cidade":"Panorama"},{"ano_ubs_det":"2016"},{"mes_ubs_det":"5"}],"geometry":{"type":"Point","coordinates":[-51.856756210326,-21.360597610473]}},{"type":"Feature","properties":[{"gid":"3889"},{"co_cnes":"2787679"},{"lat":"-23.5742709"},{"long":"-46.6886072"},{"no_fantasia":"AMA UBS INTEGRADA JARDIM PAULISTANO"},{"no_logradouro":"RUA ENCRUZILHADA DO SUL"},{"nu_endereco":"496"},{"no_bairro":"JARDIM PAULISTANO"},{"nu_telefone":"(11)39715342"},{"co_cep":"02816010"},{"uf":"SP"},{"cidade":"São Paulo"},{"ano_ubs_det":"2016"},{"mes_ubs_det":"5"}],"geometry":{"type":"Point","coordinates":[-46.6886072,-23.5742709]}},{"type":"Feature","properties":[{"gid":"3865"},{"co_cnes":"2027054"},{"lat":"-23.5626161098473"},{"long":"-46.492574214934"},{"no_fantasia":"UBS J MARILIA"},{"no_logradouro":"RUA ELZA DOS ANJOS NEVES"},{"nu_endereco":"22"},{"no_bairro":"JD MARILIA"},{"nu_telefone":"(11)27439526"},{"co_cep":"03585100"},{"uf":"SP"},{"cidade":"São Paulo"},{"ano_ubs_det":"2016"},{"mes_ubs_det":"5"}],"geometry":{"type":"Point","coordinates":[-46.492574214934,-23.562616109847]}},{"type":"Feature","properties":[{"gid":"3649"},{"co_cnes":"4049373"},{"lat":"-24.0228831768029"},{"long":"-46.4967799186693"},{"no_fantasia":"USAFA MIRIM II"},{"no_logradouro":"RUA NOSSA SENHORA DA CONCEICAO"},{"nu_endereco":"S/N"},{"no_bairro":"MIRIM"},{"nu_telefone":"(13) 34965212"},{"co_cep":"11717100"},{"uf":"SP"},{"cidade":"Praia Grande"},{"ano_ubs_det":"2016"},{"mes_ubs_det":"5"}],"geometry":{"type":"Point","coordinates":[-46.496779918669,-24.022883176803]}},{"type":"Feature","properties":[{"gid":"3885"},{"co_cnes":"2028514"},{"lat":"-22.00321"},{"long":"-47.85817"},{"no_fantasia":"USF JARDIM MUNIQUE"},{"no_logradouro":"AVENIDA DR AURELIO CATTANI"},{"nu_endereco":"445"},{"no_bairro":"RESIDENCIAL ASTOLPHO"},{"nu_telefone":"(16)33763112"},{"co_cep":"13568820"},{"uf":"SP"},{"cidade":"São Carlos"},{"ano_ubs_det":"2016"},{"mes_ubs_det":"5"}],"geometry":{"type":"Point","coordinates":[-47.85817,-22.00321]}},{"type":"Feature","properties":[{"gid":"3747"},{"co_cnes":"5653223"},{"lat":"-22.9640221595757"},{"long":"-47.3145961761461"},{"no_fantasia":"USF GENIL LISBOA DE ALMEIDA JD PROGRESSO"},{"no_logradouro":"ESTRADA MUNICIPAL"},{"nu_endereco":"367"},{"no_bairro":"JD PROGRESSO"},{"nu_telefone":"3879-1563"},{"co_cep":"13190000"},{"uf":"SP"},{"cidade":"Monte Mor"},{"ano_ubs_det":"2016"},{"mes_ubs_det":"5"}],"geometry":{"type":"Point","coordinates":[-47.314596176146,-22.964022159576]}},{"type":"Feature","properties":[{"gid":"3647"},{"co_cnes":"2053144"},{"lat":"-23.5276937484734"},{"long":"-47.8815937042222"},{"no_fantasia":"PAS DO CERCADINHO"},{"no_logradouro":"RUA LAUDELINO AYRES DOS SANTOS"},{"nu_endereco":"2065"},{"no_bairro":"CERCADINHO"},{"nu_telefone":"(15)02741239"},{"co_cep":"18220000"},{"uf":"SP"},{"cidade":"Alambari"},{"ano_ubs_det":"2016"},{"mes_ubs_det":"5"}],"geometry":{"type":"Point","coordinates":[-47.881593704222,-23.527693748473]}},{"type":"Feature","properties":[{"gid":"3856"},{"co_cnes":"7418094"},{"lat":"-21.7813875664845"},{"long":"-48.1243942985535"},{"no_fantasia":"USF ALTOS DO PINHEIROS"},{"no_logradouro":"AVENIDA CARLOS BERSANETTI FILHO"},{"nu_endereco":"86"},{"no_bairro":"ALTOS DO PINHEIROS"},{"nu_telefone":"1633312567"},{"co_cep":"14811630"},{"uf":"SP"},{"cidade":"Araraquara"},{"ano_ubs_det":"2016"},{"mes_ubs_det":"5"}],"geometry":{"type":"Point","coordinates":[-48.124394298553,-21.781387566484]}},{"type":"Feature","properties":[{"gid":"3623"},{"co_cnes":"2793512"},{"lat":"-21.2414538860315"},{"long":"-47.9794621467576"},{"no_fantasia":"UNIDADE MISTA DE SAUDE DE DUMONT"},{"no_logradouro":"RUA SAO PEDRO"},{"nu_endereco":"276"},{"no_bairro":"JDTANGARA"},{"nu_telefone":"(16) 39449200"},{"co_cep":"14120000"},{"uf":"SP"},{"cidade":"Dumont"},{"ano_ubs_det":"2016"},{"mes_ubs_det":"5"}],"geometry":{"type":"Point","coordinates":[-47.979462146758,-21.241453886032]}},{"type":"Feature","properties":[{"gid":"3968"},{"co_cnes":"2052016"},{"lat":"-23.4959685802453"},{"long":"-48.4097099304185"},{"no_fantasia":"CENTRO DE SAUDE II DR RENATO DE CARVALHO RIBEIRO ANGATUBA"},{"no_logradouro":"RUA JOSE FRANCO DE ARAUJO"},{"nu_endereco":"530"},{"no_bairro":"VILA SAO CRISTOVAO"},{"nu_telefone":"(15) 3255-9510"},{"co_cep":"18240000"},{"uf":"SP"},{"cidade":"Angatuba"},{"ano_ubs_det":"2016"},{"mes_ubs_det":"5"}],"geometry":{"type":"Point","coordinates":[-48.409709930419,-23.495968580245]}},{"type":"Feature","properties":[{"gid":"3707"},{"co_cnes":"2057395"},{"lat":"-21.8027222156518"},{"long":"-48.1295800209031"},{"no_fantasia":"USF HORTENCIA DR JOSE NIGRO NETO"},{"no_logradouro":"AVN REMO FRONTAROLI"},{"nu_endereco":"450"},{"no_bairro":"PRQ DAS HORTENCIAS"},{"nu_telefone":"(16)33335900"},{"co_cep":"14808518"},{"uf":"SP"},{"cidade":"Araraquara"},{"ano_ubs_det":"2016"},{"mes_ubs_det":"5"}],"geometry":{"type":"Point","coordinates":[-48.129580020903,-21.802722215652]}},{"type":"Feature","properties":[{"gid":"3626"},{"co_cnes":"2043742"},{"lat":"-22.214933"},{"long":"-49.9516456431033"},{"no_fantasia":"USF ANIZ BADRA"},{"no_logradouro":"RUA URIAS AVELINO DE MORAES"},{"nu_endereco":"S/N"},{"no_bairro":"ANIZ BAPRA"},{"nu_telefone":"(14)34152425"},{"co_cep":"17511830"},{"uf":"SP"},{"cidade":"Marília"},{"ano_ubs_det":"2016"},{"mes_ubs_det":"5"}],"geometry":{"type":"Point","coordinates":[-49.951645643103,-22.214933]}},{"type":"Feature","properties":[{"gid":"3891"},{"co_cnes":"2788047"},{"lat":"-23.49433"},{"long":"-46.62027"},{"no_fantasia":"AMA UBS INTEGRADA LAUZANE PAULISTA"},{"no_logradouro":"RUA VALORBE"},{"nu_endereco":"80"},{"no_bairro":"LAUZANE PAULISTA"},{"nu_telefone":"11 22318619/22585818"},{"co_cep":"02442140"},{"uf":"SP"},{"cidade":"São Paulo"},{"ano_ubs_det":"2016"},{"mes_ubs_det":"5"}],"geometry":{"type":"Point","coordinates":[-46.62027,-23.49433]}},{"type":"Feature","properties":[{"gid":"3706"},{"co_cnes":"2028778"},{"lat":"-23.1152021884912"},{"long":"-48.9287924766526"},{"no_fantasia":"UBS BRABANCIA AVARE"},{"no_logradouro":"PRACA ARMANDO PAULA ASSIS"},{"nu_endereco":"S/N"},{"no_bairro":"BRABANCIA"},{"nu_telefone":"( 14) 3733-2977"},{"co_cep":"18703000"},{"uf":"SP"},{"cidade":"Avaré"},{"ano_ubs_det":"2016"},{"mes_ubs_det":"5"}],"geometry":{"type":"Point","coordinates":[-48.928792476653,-23.115202188491]}},{"type":"Feature","properties":[{"gid":"3866"},{"co_cnes":"2752166"},{"lat":"-23.5539364814751"},{"long":"-46.5801000595079"},{"no_fantasia":"AMA UBS INTEGRADA AGUA RASA"},{"no_logradouro":"RUA SERRA DE JAIRE"},{"nu_endereco":"1480"},{"no_bairro":"AGUA RASA"},{"nu_telefone":"(11)66052156"},{"co_cep":"03175001"},{"uf":"SP"},{"cidade":"São Paulo"},{"ano_ubs_det":"2016"},{"mes_ubs_det":"5"}],"geometry":{"type":"Point","coordinates":[-46.580100059508,-23.553936481475]}},{"type":"Feature","properties":[{"gid":"3998"},{"co_cnes":"2792583"},{"lat":"-22.73821234703"},{"long":"-45.5934548377978"},{"no_fantasia":"CENTRO DE SAUDE II CAMPOS DO JORDAO"},{"no_logradouro":"AV ADHEMAR DE BARROS"},{"nu_endereco":"115"},{"no_bairro":"VILA ABERNESSIA"},{"nu_telefone":"(12)2621600"},{"co_cep":"12460000"},{"uf":"SP"},{"cidade":"Campos do Jordão"},{"ano_ubs_det":"2016"},{"mes_ubs_det":"5"}],"geometry":{"type":"Point","coordinates":[-45.593454837798,-22.73821234703]}},{"type":"Feature","properties":[{"gid":"3950"},{"co_cnes":"8567"},{"lat":"-23.6781978607171"},{"long":"-46.5525913238512"},{"no_fantasia":"UBS JARDIM BOM PASTOR"},{"no_logradouro":"RUA JOSE D ANGELO"},{"nu_endereco":"35"},{"no_bairro":"BOM PASTOR"},{"nu_telefone":"(11)42268988"},{"co_cep":"09051300"},{"uf":"SP"},{"cidade":"Santo André"},{"ano_ubs_det":"2016"},{"mes_ubs_det":"5"}],"geometry":{"type":"Point","coordinates":[-46.552591323851,-23.678197860717]}},{"type":"Feature","properties":[{"gid":"3750"},{"co_cnes":"2047446"},{"lat":"-23.7098586559289"},{"long":"-48.8531756401048"},{"no_fantasia":"UNIDADE PSF GUARIZINHO JAO"},{"no_logradouro":"RUA HONORATO GONCALVES DE ALMEIDA"},{"nu_endereco":"1500"},{"no_bairro":"GUARIZINHO"},{"nu_telefone":"(15)35231157"},{"co_cep":"18400970"},{"uf":"SP"},{"cidade":"Itapeva"},{"ano_ubs_det":"2016"},{"mes_ubs_det":"5"}],"geometry":{"type":"Point","coordinates":[-48.853175640105,-23.709858655929]}},{"type":"Feature","properties":[{"gid":"3961"},{"co_cnes":"2787709"},{"lat":"-23.7147349479936"},{"long":"-46.6871108114719"},{"no_fantasia":"UBS J REPUBLICA"},{"no_logradouro":"AVN GONCALO DE PAIVA GOMES"},{"nu_endereco":"285"},{"no_bairro":"JARDIM REPUBLICA"},{"nu_telefone":"(11)56635000"},{"co_cep":"04812090"},{"uf":"SP"},{"cidade":"São Paulo"},{"ano_ubs_det":"2016"},{"mes_ubs_det":"5"}],"geometry":{"type":"Point","coordinates":[-46.687110811472,-23.714734947994]}},{"type":"Feature","properties":[{"gid":"3890"},{"co_cnes":"2787474"},{"lat":"-23.743911981582"},{"long":"-46.7053699493395"},{"no_fantasia":"AMA UBS INTEGRADA JARDIM ICARAI QUINTANA"},{"no_logradouro":"RUA SAO ROQUE DO PARAGUACU"},{"nu_endereco":"190"},{"no_bairro":"VILA QUINTANA"},{"nu_telefone":"(11)59280872"},{"co_cep":"04837150"},{"uf":"SP"},{"cidade":"São Paulo"},{"ano_ubs_det":"2016"},{"mes_ubs_det":"5"}],"geometry":{"type":"Point","coordinates":[-46.705369949339,-23.743911981582]}},{"type":"Feature","properties":[{"gid":"3703"},{"co_cnes":"2028247"},{"lat":"-22.3153460025781"},{"long":"-52.2459340095505"},{"no_fantasia":"ESF 3 PLANALTO DO SUL"},{"no_logradouro":"RUA JOAQUIM ALVES FERREIRA"},{"nu_endereco":"407"},{"no_bairro":"PLANALTO DO SUL"},{"nu_telefone":"(18) 3282-6180"},{"co_cep":"19280000"},{"uf":"SP"},{"cidade":"Teodoro Sampaio"},{"ano_ubs_det":"2016"},{"mes_ubs_det":"5"}],"geometry":{"type":"Point","coordinates":[-52.245934009551,-22.315346002578]}},{"type":"Feature","properties":[{"gid":"3898"},{"co_cnes":"2042398"},{"lat":"-24.292005633897"},{"long":"-47.1757260565554"},{"no_fantasia":"UNIDADE DE ESF I VILA BOA ESPERANCA"},{"no_logradouro":"ESTRADA JOAO ALBINO PINHEIRO"},{"nu_endereco":"S/N"},{"no_bairro":"VILA ESPERANCA"},{"nu_telefone":""},{"co_cep":"11760000"},{"uf":"SP"},{"cidade":"Itariri"},{"ano_ubs_det":"2016"},{"mes_ubs_det":"5"}],"geometry":{"type":"Point","coordinates":[-47.175726056555,-24.292005633897]}},{"type":"Feature","properties":[{"gid":"4000"},{"co_cnes":"8613"},{"lat":"-23.6517405509942"},{"long":"-46.5609598159777"},{"no_fantasia":"UBS VILA PALMARES"},{"no_logradouro":"PRC AUREA"},{"nu_endereco":"234"},{"no_bairro":"VIL PALMARES"},{"nu_telefone":"(11)44216419"},{"co_cep":"09061405"},{"uf":"SP"},{"cidade":"Santo André"},{"ano_ubs_det":"2016"},{"mes_ubs_det":"5"}],"geometry":{"type":"Point","coordinates":[-46.560959815978,-23.651740550994]}},{"type":"Feature","properties":[{"gid":"3712"},{"co_cnes":"3138038"},{"lat":"-21.6578936576837"},{"long":"-49.7519516944871"},{"no_fantasia":"UBS DR NILTON NICOLAU NAUFAL REBOUCAS"},{"no_logradouro":"RUA ROSA MARIA ANGELICA"},{"nu_endereco":"55"},{"no_bairro":"PARQUE DOS TRABALHAD"},{"nu_telefone":"(014) 3523-2572"},{"co_cep":"16400840"},{"uf":"SP"},{"cidade":"Lins"},{"ano_ubs_det":"2016"},{"mes_ubs_det":"5"}],"geometry":{"type":"Point","coordinates":[-49.751951694487,-21.657893657684]}},{"type":"Feature","properties":[{"gid":"3727"},{"co_cnes":"2041502"},{"lat":"-22.6103188"},{"long":"-50.6672119"},{"no_fantasia":"CENTRO DE SAUDE DE MARACAI"},{"no_logradouro":"RUA MARECHAL DEODORO DA FONSECA"},{"nu_endereco":"736"},{"no_bairro":"CENTRO"},{"nu_telefone":"(18)33719300"},{"co_cep":"19840000"},{"uf":"SP"},{"cidade":"Maracaí"},{"ano_ubs_det":"2016"},{"mes_ubs_det":"5"}],"geometry":{"type":"Point","coordinates":[-50.6672119,-22.6103188]}},{"type":"Feature","properties":[{"gid":"3800"},{"co_cnes":"7501560"},{"lat":"-20.8100390031425"},{"long":"-48.8112258911133"},{"no_fantasia":"UBS ERMINIA GALLINA CUSSOLIM"},{"no_logradouro":"RUA JULIA SGORLON"},{"nu_endereco":"S/N"},{"no_bairro":"CIDADE DE DEUS"},{"nu_telefone":""},{"co_cep":"14735000"},{"uf":"SP"},{"cidade":"Severínia"},{"ano_ubs_det":"2016"},{"mes_ubs_det":"5"}],"geometry":{"type":"Point","coordinates":[-48.811225891113,-20.810039003142]}},{"type":"Feature","properties":[{"gid":"3768"},{"co_cnes":"2022362"},{"lat":"-20.948"},{"long":"-48.46714"},{"no_fantasia":"E S F DR PEDRO MARINHO DE MELLO JUNIOR"},{"no_logradouro":"RUA OSWALDO GARRIDO"},{"nu_endereco":"S/N"},{"no_bairro":"RES CENTENARIO"},{"nu_telefone":"(17)3345-3679"},{"co_cep":"14711542"},{"uf":"SP"},{"cidade":"Bebedouro"},{"ano_ubs_det":"2016"},{"mes_ubs_det":"5"}],"geometry":{"type":"Point","coordinates":[-48.46714,-20.948]}},{"type":"Feature","properties":[{"gid":"3979"},{"co_cnes":"2055406"},{"lat":"-23.0136537551873"},{"long":"-45.5850863456713"},{"no_fantasia":"UBS MAIS AEROPORTO"},{"no_logradouro":"RUA DINORAH PEREIRA RAMOS"},{"nu_endereco":"363"},{"no_bairro":"PARQUE AEROPORTO"},{"nu_telefone":"12 3632-2565"},{"co_cep":"12051230"},{"uf":"SP"},{"cidade":"Taubaté"},{"ano_ubs_det":"2016"},{"mes_ubs_det":"5"}],"geometry":{"type":"Point","coordinates":[-45.585086345671,-23.013653755187]}},{"type":"Feature","properties":[{"gid":"3679"},{"co_cnes":"2791463"},{"lat":"-22.3651063442224"},{"long":"-48.7705206871019"},{"no_fantasia":"USF OSVALDO BUENO DE CAMARGO"},{"no_logradouro":"AVN JOAO MEIADO"},{"nu_endereco":"303"},{"no_bairro":"VIL PAULISTA"},{"nu_telefone":"(14)32853529"},{"co_cep":"17280000"},{"uf":"SP"},{"cidade":"Pederneiras"},{"ano_ubs_det":"2016"},{"mes_ubs_det":"5"}],"geometry":{"type":"Point","coordinates":[-48.770520687102,-22.365106344222]}},{"type":"Feature","properties":[{"gid":"3887"},{"co_cnes":"2787636"},{"lat":"-23.64241"},{"long":"-46.76743"},{"no_fantasia":"UBS JARDIM MITSUTANI"},{"no_logradouro":"RUA FREI XISTO TEUBER"},{"nu_endereco":"50"},{"no_bairro":"JARDIM MITSUTANI"},{"nu_telefone":"(11) 58429292"},{"co_cep":"05791080"},{"uf":"SP"},{"cidade":"São Paulo"},{"ano_ubs_det":"2016"},{"mes_ubs_det":"5"}],"geometry":{"type":"Point","coordinates":[-46.76743,-23.64241]}},{"type":"Feature","properties":[{"gid":"3859"},{"co_cnes":"2033860"},{"lat":"-22.4464094638818"},{"long":"-46.8052554130541"},{"no_fantasia":"POSTO DE SAUDE DA FAMILIA PRADOS"},{"no_logradouro":"RUA SINPHRNIO EDNANDO E SILVA"},{"nu_endereco":"40"},{"no_bairro":"PRADOS"},{"nu_telefone":"(19)38133632"},{"co_cep":"13973255"},{"uf":"SP"},{"cidade":"Itapira"},{"ano_ubs_det":"2016"},{"mes_ubs_det":"5"}],"geometry":{"type":"Point","coordinates":[-46.805255413054,-22.446409463882]}},{"type":"Feature","properties":[{"gid":"3868"},{"co_cnes":"2788756"},{"lat":"-23.53844"},{"long":"-46.70368"},{"no_fantasia":"AMA UBS INTEGRADA VILA BARBOSA"},{"no_logradouro":"AV MANDAQUI"},{"nu_endereco":"197"},{"no_bairro":"LIMAO"},{"nu_telefone":"39661302 / 39516457"},{"co_cep":"02550000"},{"uf":"SP"},{"cidade":"São Paulo"},{"ano_ubs_det":"2016"},{"mes_ubs_det":"5"}],"geometry":{"type":"Point","coordinates":[-46.70368,-23.53844]}},{"type":"Feature","properties":[{"gid":"3875"},{"co_cnes":"7100256"},{"lat":"-20.1973799275209"},{"long":"-50.9295616149575"},{"no_fantasia":"ESF DR CELSO XAVIER"},{"no_logradouro":"AVENIDA MANGARA"},{"nu_endereco":"300"},{"no_bairro":"JARDIM GUANABARA"},{"nu_telefone":"17 - 3641-2209"},{"co_cep":"15775000"},{"uf":"SP"},{"cidade":"Santa Fé do Sul"},{"ano_ubs_det":"2016"},{"mes_ubs_det":"5"}],"geometry":{"type":"Point","coordinates":[-50.929561614957,-20.197379927521]}},{"type":"Feature","properties":[{"gid":"3999"},{"co_cnes":"2042959"},{"lat":"-23.5967230796807"},{"long":"-46.5924167633043"},{"no_fantasia":"UBS JOAQUIM ROSSINI"},{"no_logradouro":"RUA ALVARO FRAGOSO"},{"nu_endereco":"480"},{"no_bairro":"VILA CARIOCA"},{"nu_telefone":"(11)22734602"},{"co_cep":"04223000"},{"uf":"SP"},{"cidade":"São Paulo"},{"ano_ubs_det":"2016"},